$GNRMC,155442.00,A,3737.7549902,N,12704.7378346,E,0.0,,190324,8.8,W,D*12
$PSSN,HRP,155442.00,190324,12.008,,0.116,0.463,,0.645,26,2,8.837,W*28
$GNRMC,155542.00,A,3737.7549936,N,12704.7378409,E,0.0,,190324,8.8,W,D*18
$PSSN,HRP,155542.00,190324,12.241,,-0.308,0.459,,0.644,26,2,8.837,W*0E
$GNRMC,155642.00,A,3737.7549907,N,12704.7378389,E,0.0,,190324,8.8,W,D*16
$PSSN,HRP,155642.00,190324,12.029,,0.074,0.458,,0.649,26,2,8.837,W*28
$GNRMC,155742.00,A,3737.7549952,N,12704.7378305,E,0.0,,190324,8.8,W,D*13
$PSSN,HRP,155742.00,190324,12.293,,-0.299,0.455,,0.646,26,2,8.837,W*04
$GNRMC,155842.00,A,3737.7549935,N,12704.7378447,E,0.0,,190324,8.8,W,D*1C
$PSSN,HRP,155842.00,190324,12.174,,-0.085,0.451,,0.644,26,2,8.837,W*08
$GNRMC,155942.00,A,3737.7549964,N,12704.7378374,E,0.0,,190324,8.8,W,D*1E
$PSSN,HRP,155942.00,190324,12.143,,-0.251,0.449,,0.633,27,2,8.837,W*0E
$GNRMC,160042.00,A,3737.7549969,N,12704.7378449,E,0.0,,190324,8.8,W,D*15
$PSSN,HRP,160042.00,190324,12.196,,0.009,0.439,,0.633,28,2,8.837,W*23
$GNRMC,160142.00,A,3737.7549967,N,12704.7378604,E,0.0,,190324,8.8,W,D*11
$PSSN,HRP,160142.00,190324,12.317,,-0.194,0.435,,0.631,28,2,8.837,W*0F
$GNRMC,160242.00,A,3737.7549936,N,12704.7378458,E,0.0,,190324,8.8,W,D*1D
$PSSN,HRP,160242.00,190324,12.102,,-0.052,0.436,,0.633,28,2,8.837,W*00
$GNRMC,160342.00,A,3737.7549968,N,12704.7378550,E,0.0,,190324,8.8,W,D*1E
$PSSN,HRP,160342.00,190324,12.241,,-0.191,0.435,,0.633,28,2,8.837,W*08
$GNRMC,160442.00,A,3737.7549949,N,12704.7378529,E,0.0,,190324,8.8,W,D*14
$PSSN,HRP,160442.00,190324,12.269,,-0.269,0.432,,0.634,28,2,8.837,W*01
$GNRMC,160542.00,A,3737.7549927,N,12704.7378501,E,0.0,,190324,8.8,W,D*17
$PSSN,HRP,160542.00,190324,12.227,,-0.332,0.433,,0.635,28,2,8.837,W*05
$GNRMC,160642.00,A,3737.7549942,N,12704.7378554,E,0.0,,190324,8.8,W,D*17
$PSSN,HRP,160642.00,190324,12.228,,-0.277,0.434,,0.634,28,2,8.837,W*0F
$GNRMC,160742.00,A,3737.7549909,N,12704.7378463,E,0.0,,190324,8.8,W,D*1C
$PSSN,HRP,160742.00,190324,12.163,,-0.213,0.434,,0.638,28,2,8.837,W*0C
$GNRMC,160842.00,A,3737.7549948,N,12704.7378490,E,0.0,,190324,8.8,W,D*1A
$PSSN,HRP,160842.00,190324,12.129,,-0.295,0.430,,0.635,28,2,8.837,W*0A
$GNRMC,160942.00,A,3737.7549897,N,12704.7378381,E,0.0,,190324,8.8,W,D*1F
$PSSN,HRP,160942.00,190324,12.179,,-0.410,0.438,,0.637,28,2,8.837,W*0F
$GNRMC,161042.00,A,3737.7549886,N,12704.7378447,E,0.0,,190324,8.8,W,D*1A
$PSSN,HRP,161042.00,190324,12.237,,-0.516,0.436,,0.634,27,2,8.837,W*0B
$GNRMC,161142.00,A,3737.7549930,N,12704.7378396,E,0.0,,190324,8.8,W,D*1C
$PSSN,HRP,161142.00,190324,12.301,,-0.534,0.437,,0.637,27,2,8.837,W*0C
$GNRMC,161242.00,A,3737.7549920,N,12704.7378375,E,0.0,,190324,8.8,W,D*13
$PSSN,HRP,161242.00,190324,12.172,,-0.489,0.438,,0.641,27,2,8.837,W*00
$GNRMC,161342.00,A,3737.7549964,N,12704.7378430,E,0.0,,190324,8.8,W,D*14
$PSSN,HRP,161342.00,190324,12.071,,-0.270,0.436,,0.639,27,2,8.837,W*02
$GNRMC,161442.00,A,3737.7549958,N,12704.7378520,E,0.0,,190324,8.8,W,D*1C
$PSSN,HRP,161442.00,190324,12.077,,-0.273,0.436,,0.638,27,2,8.837,W*01
$GNRMC,161542.00,A,3737.7549911,N,12704.7378424,E,0.0,,190324,8.8,W,D*15
$PSSN,HRP,161542.00,190324,12.025,,-0.182,0.438,,0.640,27,2,8.837,W*0B
$GNRMC,161642.00,A,3737.7549897,N,12704.7378363,E,0.0,,190324,8.8,W,D*1D
$PSSN,HRP,161642.00,190324,12.085,,-0.148,0.441,,0.644,27,2,8.837,W*0E
$GNRMC,161742.00,A,3737.7549914,N,12704.7378306,E,0.0,,190324,8.8,W,D*15
$PSSN,HRP,161742.00,190324,12.045,,-0.133,0.439,,0.644,27,2,8.837,W*00
$GNRMC,161842.00,A,3737.7549907,N,12704.7378263,E,0.0,,190324,8.8,W,D*1A
$PSSN,HRP,161842.00,190324,11.860,,-0.111,0.443,,0.647,27,2,8.837,W*0D
$GNRMC,161942.00,A,3737.7549918,N,12704.7378262,E,0.0,,190324,8.8,W,D*14
$PSSN,HRP,161942.00,190324,11.863,,-0.226,0.444,,0.648,27,2,8.837,W*00
$GNRMC,162042.00,A,3737.7549887,N,12704.7378185,E,0.0,,190324,8.8,W,D*13
$PSSN,HRP,162042.00,190324,11.663,,0.223,0.468,,0.670,26,2,8.837,W*28
$GNRMC,162142.00,A,3737.7549939,N,12704.7378341,E,0.0,,190324,8.8,W,D*1C
$PSSN,HRP,162142.00,190324,12.030,,-0.178,0.470,,0.674,26,2,8.837,W*07
$GNRMC,162242.00,A,3737.7549970,N,12704.7378493,E,0.0,,190324,8.8,W,D*1A
$PSSN,HRP,162242.00,190324,11.828,,0.183,0.484,,0.669,26,2,8.837,W*28
$GNRMC,162342.00,A,3737.7549930,N,12704.7378544,E,0.0,,190324,8.8,W,D*14
$PSSN,HRP,162342.00,190324,11.857,,0.226,0.483,,0.670,26,2,8.837,W*22
$GNRMC,162442.00,A,3737.7549957,N,12704.7378586,E,0.0,,190324,8.8,W,D*1C
$PSSN,HRP,162442.00,190324,11.653,,0.454,0.476,,0.670,27,2,8.837,W*27
$GNRMC,162542.00,A,3737.7549928,N,12704.7378630,E,0.0,,190324,8.8,W,D*1B
$PSSN,HRP,162542.00,190324,11.940,,0.174,0.476,,0.684,27,2,8.837,W*27
$GNRMC,162642.00,A,3737.7549940,N,12704.7378643,E,0.0,,190324,8.8,W,D*12
$PSSN,HRP,162642.00,190324,11.789,,0.240,0.478,,0.704,26,2,8.837,W*2D
$GNRMC,162742.00,A,3737.7549939,N,12704.7378538,E,0.0,,190324,8.8,W,D*12
$PSSN,HRP,162742.00,190324,11.796,,0.332,0.481,,0.710,26,2,8.837,W*25
$GNRMC,162842.00,A,3737.7549971,N,12704.7378653,E,0.0,,190324,8.8,W,D*1F
$PSSN,HRP,162842.00,190324,11.841,,0.327,0.482,,0.711,26,2,8.837,W*29
$GNRMC,162942.00,A,3737.7549955,N,12704.7378630,E,0.0,,190324,8.8,W,D*1D
$PSSN,HRP,162942.00,190324,11.792,,0.363,0.483,,0.715,26,2,8.837,W*2C
$GNRMC,163042.00,A,3737.7549914,N,12704.7378540,E,0.0,,190324,8.8,W,D*14
$PSSN,HRP,163042.00,190324,11.923,,0.062,0.485,,0.718,26,2,8.837,W*29
$GNRMC,163142.00,A,3737.7549897,N,12704.7378603,E,0.0,,190324,8.8,W,D*1B
$PSSN,HRP,163142.00,190324,11.948,,-0.108,0.489,,0.719,25,2,8.837,W*0B
$GNRMC,163242.00,A,3737.7549900,N,12704.7378565,E,0.0,,190324,8.8,W,D*14
$PSSN,HRP,163242.00,190324,11.816,,-0.025,0.486,,0.686,26,2,8.837,W*07
$GNRMC,163342.00,A,3737.7549914,N,12704.7378478,E,0.0,,190324,8.8,W,D*1D
$PSSN,HRP,163342.00,190324,11.715,,0.067,0.486,,0.689,26,2,8.837,W*2E
$GNRMC,163442.00,A,3737.7549911,N,12704.7378491,E,0.0,,190324,8.8,W,D*18
$PSSN,HRP,163442.00,190324,11.789,,0.051,0.484,,0.694,27,2,8.837,W*26
$GNRMC,163542.00,A,3737.7549944,N,12704.7378508,E,0.0,,190324,8.8,W,D*18
$PSSN,HRP,163542.00,190324,12.002,,-0.102,0.479,,0.691,27,2,8.837,W*0D
$GNRMC,163642.00,A,3737.7549933,N,12704.7378479,E,0.0,,190324,8.8,W,D*1C
$PSSN,HRP,163642.00,190324,11.984,,-0.074,0.483,,0.698,27,2,8.837,W*06
$GNRMC,163742.00,A,3737.7550019,N,12704.7378608,E,0.0,,190324,8.8,W,D*10
$PSSN,HRP,163742.00,190324,12.000,,-0.097,0.482,,0.701,27,2,8.837,W*0C
$GNRMC,163842.00,A,3737.7550007,N,12704.7378620,E,0.0,,190324,8.8,W,D*1A
$PSSN,HRP,163842.00,190324,12.151,,-0.467,0.481,,0.702,27,2,8.837,W*0D
$GNRMC,163942.00,A,3737.7549975,N,12704.7378641,E,0.0,,190324,8.8,W,D*18
$PSSN,HRP,163942.00,190324,12.046,,-0.282,0.487,,0.709,27,2,8.837,W*0B
$GNRMC,164042.00,A,3737.7549965,N,12704.7378613,E,0.0,,190324,8.8,W,D*10
$PSSN,HRP,164042.00,190324,12.035,,-0.123,0.496,,0.714,26,2,8.837,W*04
$GNRMC,164142.00,A,3737.7549996,N,12704.7378615,E,0.0,,190324,8.8,W,D*1B
$PSSN,HRP,164142.00,190324,12.235,,-0.288,0.495,,0.717,26,2,8.837,W*05
$GNRMC,164242.00,A,3737.7549973,N,12704.7378691,E,0.0,,190324,8.8,W,D*1F
$PSSN,HRP,164242.00,190324,12.124,,-0.349,0.497,,0.719,26,2,8.837,W*05
$GNRMC,164342.00,A,3737.7549969,N,12704.7378669,E,0.0,,190324,8.8,W,D*12
$PSSN,HRP,164342.00,190324,12.198,,-0.488,0.504,,0.726,26,2,8.837,W*0E
$GNRMC,164442.00,A,3737.7550003,N,12704.7378819,E,0.0,,190324,8.8,W,D*11
$PSSN,HRP,164442.00,190324,12.210,,-0.538,0.503,,0.724,26,2,8.837,W*05
$GNRMC,164542.00,A,3737.7550013,N,12704.7378689,E,0.0,,190324,8.8,W,D*16
$PSSN,HRP,164542.00,190324,12.172,,-0.399,0.506,,0.727,26,2,8.837,W*08
$GNRMC,164642.00,A,3737.7550008,N,12704.7378759,E,0.0,,190324,8.8,W,D*13
$PSSN,HRP,164642.00,190324,12.008,,-0.252,0.511,,0.735,26,2,8.837,W*04
$GNRMC,164742.00,A,3737.7550000,N,12704.7378755,E,0.0,,190324,8.8,W,D*16
$PSSN,HRP,164742.00,190324,12.046,,-0.269,0.511,,0.736,26,2,8.837,W*04
$GNRMC,164842.00,A,3737.7550023,N,12704.7378800,E,0.0,,190324,8.8,W,D*17
$PSSN,HRP,164842.00,190324,11.778,,-0.032,0.519,,0.743,26,2,8.837,W*04
$GNRMC,164942.00,A,3737.7550058,N,12704.7378839,E,0.0,,190324,8.8,W,D*10
$PSSN,HRP,164942.00,190324,11.712,,-0.048,0.530,,0.754,26,2,8.837,W*09
$GNRMC,165042.00,A,3737.7550005,N,12704.7378691,E,0.0,,190324,8.8,W,D*1C
$PSSN,HRP,165042.00,190324,12.104,,-0.592,0.522,,0.747,26,2,8.837,W*00
$GNRMC,165142.00,A,3737.7549998,N,12704.7378787,E,0.0,,190324,8.8,W,D*1E
$PSSN,HRP,165142.00,190324,12.197,,-0.861,0.548,,0.766,25,2,8.837,W*06
$GNRMC,165242.00,A,3737.7549957,N,12704.7378732,E,0.0,,190324,8.8,W,D*10
$PSSN,HRP,165242.00,190324,12.275,,-1.035,0.542,,0.763,25,2,8.837,W*0D
$GNRMC,165342.00,A,3737.7549994,N,12704.7378825,E,0.0,,190324,8.8,W,D*17
$PSSN,HRP,165342.00,190324,12.156,,-1.033,0.534,,0.759,25,2,8.837,W*00
$GNRMC,165442.00,A,3737.7550017,N,12704.7378705,E,0.0,,190324,8.8,W,D*17
$PSSN,HRP,165442.00,190324,12.285,,-1.209,0.559,,0.794,24,2,8.837,W*0A
$GNRMC,165542.00,A,3737.7549986,N,12704.7378717,E,0.0,,190324,8.8,W,D*1C
$PSSN,HRP,165542.00,190324,12.855,,-2.131,0.546,,0.771,25,2,8.837,W*03
$GNRMC,165642.00,A,3737.7550000,N,12704.7378669,E,0.0,,190324,8.8,W,D*18
$PSSN,HRP,165642.00,190324,12.666,,-1.334,0.529,,0.765,25,2,8.837,W*06
$GNRMC,165742.00,A,3737.7550001,N,12704.7378747,E,0.0,,190324,8.8,W,D*15
$PSSN,HRP,165742.00,190324,12.817,,-1.462,0.531,,0.772,25,2,8.837,W*04
$GNRMC,165842.00,A,3737.7549951,N,12704.7378583,E,0.0,,190324,8.8,W,D*14
$PSSN,HRP,165842.00,190324,12.671,,-1.071,0.534,,0.779,25,2,8.837,W*0D
$GNRMC,165942.00,A,3737.7549921,N,12704.7378791,E,0.0,,190324,8.8,W,D*13
$PSSN,HRP,165942.00,190324,12.484,,-0.799,0.531,,0.789,25,2,8.837,W*0E
$GNRMC,170042.00,A,3737.7549975,N,12704.7378764,E,0.0,,190324,8.8,W,D*15
$PSSN,HRP,170042.00,190324,12.364,,-0.582,0.542,,0.822,24,2,8.837,W*09
$GNRMC,170142.00,A,3737.7549897,N,12704.7378700,E,0.0,,190324,8.8,W,D*1B
$PSSN,HRP,170142.00,190324,12.417,,-0.638,0.542,,0.821,24,2,8.837,W*0A
$GNRMC,170242.00,A,3737.7549905,N,12704.7378573,E,0.0,,190324,8.8,W,D*14
$PSSN,HRP,170242.00,190324,12.558,,-0.927,0.543,,0.824,24,2,8.837,W*06
$GNRMC,170342.00,A,3737.7549909,N,12704.7378555,E,0.0,,190324,8.8,W,D*1D
$PSSN,HRP,170342.00,190324,12.456,,-0.819,0.549,,0.830,24,2,8.837,W*0B
$GNRMC,170442.00,A,3737.7549963,N,12704.7378637,E,0.0,,190324,8.8,W,D*11
$PSSN,HRP,170442.00,190324,12.472,,-0.653,0.548,,0.836,24,2,8.837,W*0D
$GNRMC,170542.00,A,3737.7550006,N,12704.7378632,E,0.0,,190324,8.8,W,D*17
$PSSN,HRP,170542.00,190324,12.634,,-0.915,0.556,,0.847,24,2,8.837,W*08
$GNRMC,170642.00,A,3737.7550007,N,12704.7378530,E,0.0,,190324,8.8,W,D*14
$PSSN,HRP,170642.00,190324,12.576,,-0.830,0.561,,0.863,24,2,8.837,W*0A
$GNRMC,170742.00,A,3737.7550014,N,12704.7378519,E,0.0,,190324,8.8,W,D*1C
$PSSN,HRP,170742.00,190324,12.570,,-0.720,0.576,,0.859,23,2,8.837,W*0B
$GNRMC,170842.00,A,3737.7550066,N,12704.7378430,E,0.0,,190324,8.8,W,D*1C
$PSSN,HRP,170842.00,190324,12.391,,-0.442,0.572,,0.861,23,2,8.837,W*05
$GNRMC,170942.00,A,3737.7550038,N,12704.7378454,E,0.0,,190324,8.8,W,D*14
$PSSN,HRP,170942.00,190324,12.545,,-0.556,0.651,,0.958,24,2,8.837,W*01
$GNRMC,171042.00,A,3737.7550045,N,12704.7378445,E,0.0,,190324,8.8,W,D*16
$PSSN,HRP,171042.00,190324,12.581,,-0.671,0.636,,0.949,24,2,8.837,W*06
$GNRMC,171142.00,A,3737.7550048,N,12704.7378423,E,0.0,,190324,8.8,W,D*1A
$PSSN,HRP,171142.00,190324,12.389,,-0.367,0.655,,0.949,23,2,8.837,W*09
$GNRMC,171242.00,A,3737.7550107,N,12704.7378298,E,0.0,,190324,8.8,W,D*15
$PSSN,HRP,171242.00,190324,12.424,,-0.503,0.650,,0.945,25,2,8.837,W*01
$GNRMC,171342.00,A,3737.7550094,N,12704.7378257,E,0.0,,190324,8.8,W,D*1C
$PSSN,HRP,171342.00,190324,12.393,,-0.472,0.488,,0.764,25,2,8.837,W*06
$GNRMC,171442.00,A,3737.7549983,N,12704.7378478,E,0.0,,190324,8.8,W,D*17
$PSSN,HRP,171442.00,190324,12.232,,-0.319,0.471,,0.760,26,2,8.837,W*00
$GNRMC,171542.00,A,3737.7549960,N,12704.7378490,E,0.0,,190324,8.8,W,D*1D
$PSSN,HRP,171542.00,190324,11.629,,0.600,0.416,,0.714,27,2,8.837,W*2F
$GNRMC,171642.00,A,3737.7549993,N,12704.7378342,E,0.0,,190324,8.8,W,D*1A
$PSSN,HRP,171642.00,190324,11.761,,0.553,0.432,,0.744,27,2,8.837,W*27
$GNRMC,171742.00,A,3737.7550077,N,12704.7378502,E,0.0,,190324,8.8,W,D*12
$PSSN,HRP,171742.00,190324,12.302,,-0.154,0.484,,0.797,26,2,8.837,W*08
$GNRMC,171842.00,A,3737.7550106,N,12704.7378594,E,0.0,,190324,8.8,W,D*15
$PSSN,HRP,171842.00,190324,12.484,,-0.071,0.473,,0.756,27,2,8.837,W*0C
$GNRMC,171942.00,A,3737.7550116,N,12704.7378498,E,0.0,,190324,8.8,W,D*18
$PSSN,HRP,171942.00,190324,12.335,,-0.023,0.464,,0.751,27,2,8.837,W*06
$GNRMC,172042.00,A,3737.7550147,N,12704.7378401,E,0.0,,190324,8.8,W,D*16
$PSSN,HRP,172042.00,190324,12.197,,0.089,0.455,,0.735,27,2,8.837,W*2B
$GNRMC,172142.00,A,3737.7550123,N,12704.7378435,E,0.0,,190324,8.8,W,D*12
$PSSN,HRP,172142.00,190324,12.318,,-0.048,0.474,,0.777,26,2,8.837,W*0B
$GNRMC,172242.00,A,3737.7549987,N,12704.7378463,E,0.0,,190324,8.8,W,D*1C
$PSSN,HRP,172242.00,190324,11.955,,0.421,0.463,,0.778,26,2,8.837,W*27
$GNRMC,172342.00,A,3737.7550018,N,12704.7378522,E,0.0,,190324,8.8,W,D*1E
$PSSN,HRP,172342.00,190324,12.029,,0.420,0.503,,0.789,24,2,8.837,W*2D
$GNRMC,172442.00,A,3737.7550005,N,12704.7378493,E,0.0,,190324,8.8,W,D*1E
$PSSN,HRP,172442.00,190324,11.915,,0.267,0.509,,0.794,24,2,8.837,W*2C
$GNRMC,172542.00,A,3737.7549988,N,12704.7378396,E,0.0,,190324,8.8,W,D*19
$PSSN,HRP,172542.00,190324,11.944,,0.344,0.485,,0.749,25,2,8.837,W*2D
$GNRMC,172642.00,A,3737.7549981,N,12704.7378278,E,0.0,,190324,8.8,W,D*12
$PSSN,HRP,172642.00,190324,11.127,,1.211,0.431,,0.710,27,2,8.837,W*22
$GNRMC,172742.00,A,3737.7549931,N,12704.7378325,E,0.0,,190324,8.8,W,D*11
$PSSN,HRP,172742.00,190324,11.092,,1.134,0.435,,0.717,27,2,8.837,W*2B
$GNRMC,172842.00,A,3737.7549921,N,12704.7378358,E,0.0,,190324,8.8,W,D*15
$PSSN,HRP,172842.00,190324,10.950,,1.341,0.463,,0.750,26,2,8.837,W*23
$GNRMC,172942.00,A,3737.7549933,N,12704.7378448,E,0.0,,190324,8.8,W,D*11
$PSSN,HRP,172942.00,190324,11.211,,1.034,0.461,,0.749,26,2,8.837,W*26
$GNRMC,173042.00,A,3737.7549943,N,12704.7378250,E,0.0,,190324,8.8,W,D*11
$PSSN,HRP,173042.00,190324,11.175,,1.129,0.497,,0.794,25,2,8.837,W*28
$GNRMC,173142.00,A,3737.7549959,N,12704.7378261,E,0.0,,190324,8.8,W,D*19
$PSSN,HRP,173142.00,190324,10.973,,1.552,0.484,,0.784,24,2,8.837,W*2C
$GNRMC,173242.00,A,3737.7549924,N,12704.7378357,E,0.0,,190324,8.8,W,D*14
$PSSN,HRP,173242.00,190324,11.218,,1.143,0.492,,0.794,24,2,8.837,W*2A
$GNRMC,173342.00,A,3737.7549880,N,12704.7378320,E,0.0,,190324,8.8,W,D*1A
$PSSN,HRP,173342.00,190324,11.063,,1.293,0.491,,0.791,24,2,8.837,W*2D
$GNRMC,173442.00,A,3737.7549881,N,12704.7378328,E,0.0,,190324,8.8,W,D*14
$PSSN,HRP,173442.00,190324,10.991,,1.386,0.493,,0.803,24,2,8.837,W*2C
$GNRMC,173542.00,A,3737.7549926,N,12704.7378383,E,0.0,,190324,8.8,W,D*18
$PSSN,HRP,173542.00,190324,11.205,,1.185,0.487,,0.792,24,2,8.837,W*29
$GNRMC,173642.00,A,3737.7549909,N,12704.7378198,E,0.0,,190324,8.8,W,D*1E
$PSSN,HRP,173642.00,190324,11.616,,0.687,0.563,,0.870,23,2,8.837,W*27
$GNRMC,173742.00,A,3737.7549902,N,12704.7378212,E,0.0,,190324,8.8,W,D*15
$PSSN,HRP,173742.00,190324,11.769,,0.098,0.565,,0.877,23,2,8.837,W*26
$GNRMC,173842.00,A,3737.7549883,N,12704.7378278,E,0.0,,190324,8.8,W,D*1E
$PSSN,HRP,173842.00,190324,11.693,,0.269,0.566,,0.887,23,2,8.837,W*2D
$GNRMC,173942.00,A,3737.7549879,N,12704.7378252,E,0.0,,190324,8.8,W,D*12
$PSSN,HRP,173942.00,190324,10.966,,1.105,0.492,,0.846,23,2,8.837,W*27
$GNRMC,174042.00,A,3737.7549898,N,12704.7378145,E,0.0,,190324,8.8,W,D*16
$PSSN,HRP,174042.00,190324,10.692,,1.319,0.493,,0.885,23,2,8.837,W*2C
$GNRMC,174142.00,A,3737.7549899,N,12704.7378102,E,0.0,,190324,8.8,W,D*15
$PSSN,HRP,174142.00,190324,10.692,,1.647,0.482,,0.819,23,2,8.837,W*26
$GNRMC,174242.00,A,3737.7549882,N,12704.7378106,E,0.0,,190324,8.8,W,D*18
$PSSN,HRP,174242.00,190324,10.750,,1.405,0.479,,0.839,24,2,8.837,W*2F
$GNRMC,174342.00,A,3737.7549868,N,12704.7378044,E,0.0,,190324,8.8,W,D*1A
$PSSN,HRP,174342.00,190324,10.629,,1.632,0.486,,0.845,23,2,8.837,W*2B
$GNRMC,174442.00,A,3737.7549904,N,12704.7378008,E,0.0,,190324,8.8,W,D*1E
$PSSN,HRP,174442.00,190324,10.621,,1.644,0.505,,0.860,23,2,8.837,W*28
$GNRMC,174542.00,A,3737.7549929,N,12704.7378008,E,0.0,,190324,8.8,W,D*10
$PSSN,HRP,174542.00,190324,10.931,,1.324,0.504,,0.853,23,2,8.837,W*25
$GNRMC,174642.00,A,3737.7549860,N,12704.7377878,E,0.0,,190324,8.8,W,D*1F
$PSSN,HRP,174642.00,190324,10.208,,2.044,0.569,,0.900,22,2,8.837,W*2C
$GNRMC,174742.00,A,3737.7549960,N,12704.7378475,E,0.0,,190324,8.8,W,D*11
$PSSN,HRP,174742.00,190324,10.148,,2.324,0.574,,0.901,22,2,8.837,W*22
$GNRMC,174842.00,A,3737.7549988,N,12704.7378610,E,0.0,,190324,8.8,W,D*19
$PSSN,HRP,174842.00,190324,10.089,,2.359,0.559,,0.892,22,2,8.837,W*2F
$GNRMC,174942.00,A,3737.7549940,N,12704.7378482,E,0.0,,190324,8.8,W,D*15
$PSSN,HRP,174942.00,190324,10.313,,2.078,0.570,,0.900,22,2,8.837,W*2F
$GNRMC,175042.00,A,3737.7549959,N,12704.7378511,E,0.0,,190324,8.8,W,D*1E
$PSSN,HRP,175042.00,190324,10.340,,2.135,0.576,,0.907,23,2,8.837,W*29
$GNRMC,175142.00,A,3737.7549895,N,12704.7378251,E,0.0,,190324,8.8,W,D*1D
$PSSN,HRP,175142.00,190324,10.389,,1.971,0.586,,0.879,23,2,8.837,W*21
$GNRMC,175242.00,A,3737.7549898,N,12704.7378318,E,0.0,,190324,8.8,W,D*1F
$PSSN,HRP,175242.00,190324,10.575,,1.751,0.577,,0.870,23,2,8.837,W*2C
$GNRMC,175342.00,A,3737.7549868,N,12704.7378127,E,0.0,,190324,8.8,W,D*1F
$PSSN,HRP,175342.00,190324,10.737,,1.522,0.586,,0.880,23,2,8.837,W*2E
$GNRMC,175442.00,A,3737.7549843,N,12704.7378065,E,0.0,,190324,8.8,W,D*16
$PSSN,HRP,175442.00,190324,10.619,,1.631,0.589,,0.885,23,2,8.837,W*2F
$GNRMC,175542.00,A,3737.7549858,N,12704.7378204,E,0.0,,190324,8.8,W,D*18
$PSSN,HRP,175542.00,190324,10.381,,2.045,0.590,,0.886,23,2,8.837,W*27
$GNRMC,175642.00,A,3737.7549893,N,12704.7378340,E,0.0,,190324,8.8,W,D*1D
$PSSN,HRP,175642.00,190324,10.730,,1.567,0.669,,0.956,22,2,8.837,W*24
$GNRMC,175742.00,A,3737.7549936,N,12704.7378473,E,0.0,,190324,8.8,W,D*15
$PSSN,HRP,175742.00,190324,10.998,,1.204,0.665,,0.954,22,2,8.837,W*25
$GNRMC,175842.00,A,3737.7549867,N,12704.7378365,E,0.0,,190324,8.8,W,D*1F
$PSSN,HRP,175842.00,190324,10.946,,1.302,0.667,,0.951,22,2,8.837,W*29
$GNRMC,175942.00,A,3737.7549955,N,12704.7378684,E,0.0,,190324,8.8,W,D*14
$PSSN,HRP,175942.00,190324,10.731,,1.732,0.671,,0.959,22,2,8.837,W*2E
$GNRMC,180042.00,A,3737.7549969,N,12704.7378525,E,0.0,,190324,8.8,W,D*10
$PSSN,HRP,180042.00,190324,10.486,,1.969,0.677,,0.969,22,2,8.837,W*27
$GNRMC,180142.00,A,3737.7549902,N,12704.7378465,E,0.0,,190324,8.8,W,D*19
$PSSN,HRP,180142.00,190324,10.887,,1.258,0.659,,0.917,23,2,8.837,W*26
$GNRMC,180242.00,A,3737.7549829,N,12704.7378269,E,0.0,,190324,8.8,W,D*18
$PSSN,HRP,180242.00,190324,10.969,,1.137,0.662,,0.935,23,2,8.837,W*26
$GNRMC,180342.00,A,3737.7549886,N,12704.7378448,E,0.0,,190324,8.8,W,D*19
$PSSN,HRP,180342.00,190324,11.106,,0.992,0.552,,0.855,23,2,8.837,W*26
$GNRMC,180442.00,A,3737.7549947,N,12704.7378521,E,0.0,,190324,8.8,W,D*1C
$PSSN,HRP,180442.00,190324,11.428,,0.396,0.560,,0.865,23,2,8.837,W*24
$GNRMC,180542.00,A,3737.7550000,N,12704.7378523,E,0.0,,190324,8.8,W,D*1D
$PSSN,HRP,180542.00,190324,11.187,,0.702,0.546,,0.844,23,2,8.837,W*2B
$GNRMC,180642.00,A,3737.7549984,N,12704.7378382,E,0.0,,190324,8.8,W,D*1E
$PSSN,HRP,180642.00,190324,11.083,,0.827,0.605,,0.854,23,2,8.837,W*20
$GNRMC,180742.00,A,3737.7549928,N,12704.7378489,E,0.0,,190324,8.8,W,D*15
$PSSN,HRP,180742.00,190324,11.173,,0.744,0.604,,0.855,23,2,8.837,W*25
$GNRMC,180842.00,A,3737.7549995,N,12704.7378623,E,0.0,,190324,8.8,W,D*1E
$PSSN,HRP,180842.00,190324,11.194,,0.604,0.608,,0.871,24,2,8.837,W*2B
$GNRMC,180942.00,A,3737.7549936,N,12704.7378461,E,0.0,,190324,8.8,W,D*12
$PSSN,HRP,180942.00,190324,11.238,,0.567,0.607,,0.862,23,2,8.837,W*23
$GNRMC,181042.00,A,3737.7549910,N,12704.7378393,E,0.0,,190324,8.8,W,D*14
$PSSN,HRP,181042.00,190324,11.223,,0.626,0.589,,0.780,24,2,8.837,W*26
$GNRMC,181142.00,A,3737.7549885,N,12704.7378310,E,0.0,,190324,8.8,W,D*13
$PSSN,HRP,181142.00,190324,11.305,,0.631,0.584,,0.773,24,2,8.837,W*25
$GNRMC,181242.00,A,3737.7549831,N,12704.7378237,E,0.0,,190324,8.8,W,D*1B
$PSSN,HRP,181242.00,190324,11.291,,0.632,0.584,,0.779,24,2,8.837,W*23
$GNRMC,181342.00,A,3737.7549875,N,12704.7378493,E,0.0,,190324,8.8,W,D*12
$PSSN,HRP,181342.00,190324,11.580,,0.417,0.586,,0.792,23,2,8.837,W*20
$GNRMC,181442.00,A,3737.7549892,N,12704.7378588,E,0.0,,190324,8.8,W,D*17
$PSSN,HRP,181442.00,190324,11.486,,0.364,0.588,,0.797,23,2,8.837,W*28
$GNRMC,181542.00,A,3737.7549857,N,12704.7378255,E,0.0,,190324,8.8,W,D*18
$PSSN,HRP,181542.00,190324,11.520,,0.449,0.587,,0.794,23,2,8.837,W*20
$GNRMC,181642.00,A,3737.7549898,N,12704.7378343,E,0.0,,190324,8.8,W,D*1E
$PSSN,HRP,181642.00,190324,11.355,,0.640,0.586,,0.795,23,2,8.837,W*2C
$GNRMC,181742.00,A,3737.7549834,N,12704.7378180,E,0.0,,190324,8.8,W,D*14
$PSSN,HRP,181742.00,190324,11.539,,0.364,0.580,,0.777,24,2,8.837,W*2F
$GNRMC,181842.00,A,3737.7549762,N,12704.7377984,E,0.0,,190324,8.8,W,D*14
$PSSN,HRP,181842.00,190324,11.740,,0.351,0.579,,0.777,24,2,8.837,W*2C
$GNRMC,181942.00,A,3737.7549741,N,12704.7377858,E,0.0,,190324,8.8,W,D*14
$PSSN,HRP,181942.00,190324,11.738,,0.353,0.578,,0.778,24,2,8.837,W*2E
$GNRMC,182042.00,A,3737.7549712,N,12704.7377819,E,0.0,,190324,8.8,W,D*1D
$PSSN,HRP,182042.00,190324,11.711,,0.306,0.578,,0.778,24,2,8.837,W*2F
$GNRMC,182142.00,A,3737.7549713,N,12704.7377750,E,0.0,,190324,8.8,W,D*1F
$PSSN,HRP,182142.00,190324,12.087,,-0.110,0.576,,0.778,24,2,8.837,W*03
$GNRMC,182242.00,A,3737.7549861,N,12704.7378146,E,0.0,,190324,8.8,W,D*18
$PSSN,HRP,182242.00,190324,12.050,,-0.191,0.575,,0.778,24,2,8.837,W*00
$GNRMC,182342.00,A,3737.7549833,N,12704.7378109,E,0.0,,190324,8.8,W,D*15
$PSSN,HRP,182342.00,190324,12.071,,-0.248,0.575,,0.782,24,2,8.837,W*00
$GNRMC,182442.00,A,3737.7549848,N,12704.7378247,E,0.0,,190324,8.8,W,D*17
$PSSN,HRP,182442.00,190324,11.937,,-0.117,0.537,,0.710,25,2,8.837,W*0A
$GNRMC,182542.00,A,3737.7549793,N,12704.7378029,E,0.0,,190324,8.8,W,D*15
$PSSN,HRP,182542.00,190324,11.828,,-0.017,0.533,,0.702,25,2,8.837,W*02
$GNRMC,182642.00,A,3737.7549881,N,12704.7378257,E,0.0,,190324,8.8,W,D*11
$PSSN,HRP,182642.00,190324,11.738,,0.029,0.533,,0.702,25,2,8.837,W*2F
$GNRMC,182742.00,A,3737.7549921,N,12704.7378400,E,0.0,,190324,8.8,W,D*1F
$PSSN,HRP,182742.00,190324,11.893,,-0.156,0.530,,0.697,25,2,8.837,W*0A
$GNRMC,182842.00,A,3737.7549867,N,12704.7378300,E,0.0,,190324,8.8,W,D*14
$PSSN,HRP,182842.00,190324,11.985,,-0.357,0.528,,0.696,25,2,8.837,W*08
$GNRMC,182942.00,A,3737.7549906,N,12704.7378508,E,0.0,,190324,8.8,W,D*1D
$PSSN,HRP,182942.00,190324,11.889,,-0.306,0.527,,0.697,25,2,8.837,W*0E
$GNRMC,183042.00,A,3737.7549719,N,12704.7377932,E,0.0,,190324,8.8,W,D*1F
$PSSN,HRP,183042.00,190324,11.886,,-0.215,0.527,,0.700,25,2,8.837,W*05
$GNRMC,183142.00,A,3737.7549816,N,12704.7378206,E,0.0,,190324,8.8,W,D*1D
$PSSN,HRP,183142.00,190324,12.266,,-0.690,0.523,,0.694,25,2,8.837,W*02
$GNRMC,183242.00,A,3737.7549820,N,12704.7378247,E,0.0,,190324,8.8,W,D*1E
$PSSN,HRP,183242.00,190324,12.241,,-0.794,0.525,,0.696,25,2,8.837,W*05
$GNRMC,183342.00,A,3737.7549758,N,12704.7378130,E,0.0,,190324,8.8,W,D*1C
$PSSN,HRP,183342.00,190324,12.426,,-0.996,0.518,,0.688,26,2,8.837,W*0D
$GNRMC,183442.00,A,3737.7549763,N,12704.7378168,E,0.0,,190324,8.8,W,D*1E
$PSSN,HRP,183442.00,190324,12.230,,-0.745,0.523,,0.695,25,2,8.837,W*0C
$GNRMC,183542.00,A,3737.7549738,N,12704.7378202,E,0.0,,190324,8.8,W,D*1E
$PSSN,HRP,183542.00,190324,12.109,,-0.465,0.532,,0.694,25,2,8.837,W*04
$GNRMC,183642.00,A,3737.7549794,N,12704.7378408,E,0.0,,190324,8.8,W,D*17
$PSSN,HRP,183642.00,190324,12.143,,-0.342,0.529,,0.700,24,2,8.837,W*0C
$GNRMC,183742.00,A,3737.7549847,N,12704.7378479,E,0.0,,190324,8.8,W,D*11
$PSSN,HRP,183742.00,190324,11.972,,-0.282,0.565,,0.778,23,2,8.837,W*09
$GNRMC,183842.00,A,3737.7549819,N,12704.7378461,E,0.0,,190324,8.8,W,D*1C
$PSSN,HRP,183842.00,190324,11.935,,-0.116,0.563,,0.777,24,2,8.837,W*05
$GNRMC,183942.00,A,3737.7549777,N,12704.7378403,E,0.0,,190324,8.8,W,D*1E
$PSSN,HRP,183942.00,190324,11.766,,0.208,0.529,,0.706,24,2,8.837,W*25
$GNRMC,184042.00,A,3737.7549905,N,12704.7378664,E,0.0,,190324,8.8,W,D*18
$PSSN,HRP,184042.00,190324,11.726,,0.133,0.532,,0.716,23,2,8.837,W*28
$GNRMC,184142.00,A,3737.7549904,N,12704.7378640,E,0.0,,190324,8.8,W,D*1E
$PSSN,HRP,184142.00,190324,11.498,,0.357,0.533,,0.721,23,2,8.837,W*2A
$GNRMC,184242.00,A,3737.7549813,N,12704.7378329,E,0.0,,190324,8.8,W,D*10
$PSSN,HRP,184242.00,190324,11.783,,-0.060,0.527,,0.704,24,2,8.837,W*0F
$GNRMC,184342.00,A,3737.7549917,N,12704.7378513,E,0.0,,190324,8.8,W,D*1B
$PSSN,HRP,184342.00,190324,11.686,,0.103,0.520,,0.696,25,2,8.837,W*2F
$GNRMC,184442.00,A,3737.7549926,N,12704.7378653,E,0.0,,190324,8.8,W,D*19
$PSSN,HRP,184442.00,190324,11.643,,0.006,0.519,,0.691,26,2,8.837,W*2B
$GNRMC,184542.00,A,3737.7549832,N,12704.7378322,E,0.0,,190324,8.8,W,D*1F
$PSSN,HRP,184542.00,190324,11.719,,0.264,0.516,,0.688,26,2,8.837,W*25
$GNRMC,184642.00,A,3737.7549860,N,12704.7378371,E,0.0,,190324,8.8,W,D*1D
$PSSN,HRP,184642.00,190324,11.683,,0.228,0.517,,0.693,26,2,8.837,W*27
$GNRMC,184742.00,A,3737.7549787,N,12704.7378189,E,0.0,,190324,8.8,W,D*1F
$PSSN,HRP,184742.00,190324,11.532,,0.360,0.516,,0.696,26,2,8.837,W*26
$GNRMC,184842.00,A,3737.7549818,N,12704.7378310,E,0.0,,190324,8.8,W,D*1B
$PSSN,HRP,184842.00,190324,11.836,,-0.023,0.514,,0.695,26,2,8.837,W*08
$GNRMC,184942.00,A,3737.7549892,N,12704.7378400,E,0.0,,190324,8.8,W,D*1E
$PSSN,HRP,184942.00,190324,11.987,,-0.015,0.511,,0.696,26,2,8.837,W*01
$GNRMC,185042.00,A,3737.7549880,N,12704.7378453,E,0.0,,190324,8.8,W,D*13
$PSSN,HRP,185042.00,190324,11.852,,0.250,0.511,,0.699,26,2,8.837,W*21
$GNRMC,185142.00,A,3737.7549910,N,12704.7378459,E,0.0,,190324,8.8,W,D*10
$PSSN,HRP,185142.00,190324,11.813,,0.130,0.509,,0.708,25,2,8.837,W*23
$GNRMC,185242.00,A,3737.7549913,N,12704.7378498,E,0.0,,190324,8.8,W,D*1D
$PSSN,HRP,185242.00,190324,11.968,,0.035,0.506,,0.708,25,2,8.837,W*26
$GNRMC,185342.00,A,3737.7549936,N,12704.7378484,E,0.0,,190324,8.8,W,D*16
$PSSN,HRP,185342.00,190324,11.803,,0.236,0.507,,0.714,25,2,8.837,W*26
$GNRMC,185442.00,A,3737.7549898,N,12704.7378363,E,0.0,,190324,8.8,W,D*1A
$PSSN,HRP,185442.00,190324,12.158,,-0.229,0.502,,0.711,25,2,8.837,W*06
$GNRMC,185542.00,A,3737.7549896,N,12704.7378325,E,0.0,,190324,8.8,W,D*17
$PSSN,HRP,185542.00,190324,11.898,,0.015,0.510,,0.729,24,2,8.837,W*28
$GNRMC,185642.00,A,3737.7549932,N,12704.7378427,E,0.0,,190324,8.8,W,D*1E
$PSSN,HRP,185642.00,190324,11.706,,0.529,0.512,,0.737,24,2,8.837,W*24
$GNRMC,185742.00,A,3737.7549899,N,12704.7378375,E,0.0,,190324,8.8,W,D*1F
$PSSN,HRP,185742.00,190324,11.823,,0.438,0.508,,0.725,25,2,8.837,W*25
$GNRMC,185842.00,A,3737.7549916,N,12704.7378441,E,0.0,,190324,8.8,W,D*16
$PSSN,HRP,185842.00,190324,11.619,,0.598,0.505,,0.724,25,2,8.837,W*2A
$GNRMC,185942.00,A,3737.7549952,N,12704.7378445,E,0.0,,190324,8.8,W,D*13
$PSSN,HRP,185942.00,190324,11.770,,0.503,0.506,,0.730,25,2,8.837,W*21
$GNRMC,190042.00,A,3737.7549917,N,12704.7378509,E,0.0,,190324,8.8,W,D*16
$PSSN,HRP,190042.00,190324,11.858,,0.385,0.503,,0.729,25,2,8.837,W*2C
$GNRMC,190142.00,A,3737.7549975,N,12704.7378623,E,0.0,,190324,8.8,W,D*18
$PSSN,HRP,190142.00,190324,11.742,,0.337,0.501,,0.732,25,2,8.837,W*28
$GNRMC,190242.00,A,3737.7550010,N,12704.7378600,E,0.0,,190324,8.8,W,D*18
$PSSN,HRP,190242.00,190324,11.589,,0.323,0.501,,0.731,25,2,8.837,W*28
$GNRMC,190342.00,A,3737.7549954,N,12704.7378437,E,0.0,,190324,8.8,W,D*1E
$PSSN,HRP,190342.00,190324,11.907,,-0.070,0.497,,0.729,25,2,8.837,W*0C
$GNRMC,190442.00,A,3737.7550067,N,12704.7378593,E,0.0,,190324,8.8,W,D*17
$PSSN,HRP,190442.00,190324,11.763,,0.141,0.498,,0.734,25,2,8.837,W*2A
$GNRMC,190542.00,A,3737.7550011,N,12704.7378640,E,0.0,,190324,8.8,W,D*1A
$PSSN,HRP,190542.00,190324,11.898,,-0.214,0.497,,0.731,25,2,8.837,W*04
$GNRMC,190642.00,A,3737.7549988,N,12704.7378471,E,0.0,,190324,8.8,W,D*18
$PSSN,HRP,190642.00,190324,11.944,,-0.277,0.496,,0.729,25,2,8.837,W*0A
$GNRMC,190742.00,A,3737.7549985,N,12704.7378393,E,0.0,,190324,8.8,W,D*1F
$PSSN,HRP,190742.00,190324,12.255,,-0.626,0.496,,0.730,25,2,8.837,W*0B
$GNRMC,190842.00,A,3737.7549962,N,12704.7378312,E,0.0,,190324,8.8,W,D*10
$PSSN,HRP,190842.00,190324,12.417,,-0.748,0.499,,0.732,25,2,8.837,W*00
$GNRMC,190942.00,A,3737.7549894,N,12704.7378285,E,0.0,,190324,8.8,W,D*16
$PSSN,HRP,190942.00,190324,12.444,,-0.875,0.498,,0.730,25,2,8.837,W*05
$GNRMC,191042.00,A,3737.7549925,N,12704.7378452,E,0.0,,190324,8.8,W,D*19
$PSSN,HRP,191042.00,190324,12.376,,-0.895,0.500,,0.731,25,2,8.837,W*04
$GNRMC,191142.00,A,3737.7549836,N,12704.7378243,E,0.0,,190324,8.8,W,D*1D
$PSSN,HRP,191142.00,190324,12.616,,-0.905,0.501,,0.730,25,2,8.837,W*0E
$GNRMC,191242.00,A,3737.7549930,N,12704.7378211,E,0.0,,190324,8.8,W,D*1E
$PSSN,HRP,191242.00,190324,12.702,,-0.954,0.500,,0.729,25,2,8.837,W*04
$GNRMC,191342.00,A,3737.7549889,N,12704.7378154,E,0.0,,190324,8.8,W,D*1E
$PSSN,HRP,191342.00,190324,12.983,,-1.092,0.495,,0.726,25,2,8.837,W*02
$GNRMC,191442.00,A,3737.7549884,N,12704.7378165,E,0.0,,190324,8.8,W,D*16
$PSSN,HRP,191442.00,190324,12.635,,-0.775,0.499,,0.730,25,2,8.837,W*03
$GNRMC,191542.00,A,3737.7549902,N,12704.7378218,E,0.0,,190324,8.8,W,D*11
$PSSN,HRP,191542.00,190324,12.602,,-0.687,0.499,,0.732,25,2,8.837,W*08
$GNRMC,191642.00,A,3737.7549962,N,12704.7378448,E,0.0,,190324,8.8,W,D*17
$PSSN,HRP,191642.00,190324,12.469,,-0.565,0.502,,0.736,25,2,8.837,W*0C
$GNRMC,191742.00,A,3737.7549925,N,12704.7378392,E,0.0,,190324,8.8,W,D*15
$PSSN,HRP,191742.00,190324,12.415,,-0.508,0.511,,0.741,25,2,8.837,W*0F
$GNRMC,191842.00,A,3737.7549898,N,12704.7378200,E,0.0,,190324,8.8,W,D*17
$PSSN,HRP,191842.00,190324,12.719,,-0.599,0.505,,0.734,25,2,8.837,W*00
$GNRMC,191942.00,A,3737.7549942,N,12704.7378325,E,0.0,,190324,8.8,W,D*16
$PSSN,HRP,191942.00,190324,12.423,,-0.450,0.522,,0.738,24,2,8.837,W*07
$GNRMC,192042.00,A,3737.7549863,N,12704.7378198,E,0.0,,190324,8.8,W,D*1A
$PSSN,HRP,192042.00,190324,12.389,,-0.669,0.501,,0.692,25,2,8.837,W*03
$GNRMC,192142.00,A,3737.7549904,N,12704.7378203,E,0.0,,190324,8.8,W,D*1A
$PSSN,HRP,192142.00,190324,11.972,,-0.349,0.499,,0.694,26,2,8.837,W*0D
$GNRMC,192242.00,A,3737.7549880,N,12704.7378226,E,0.0,,190324,8.8,W,D*13
$PSSN,HRP,192242.00,190324,12.008,,-0.419,0.497,,0.693,26,2,8.837,W*02
$GNRMC,192342.00,A,3737.7549915,N,12704.7378375,E,0.0,,190324,8.8,W,D*18
$PSSN,HRP,192342.00,190324,12.353,,-0.410,0.569,,0.710,24,2,8.837,W*0F
$GNRMC,192442.00,A,3737.7549922,N,12704.7378599,E,0.0,,190324,8.8,W,D*1F
$PSSN,HRP,192442.00,190324,11.982,,-0.051,0.571,,0.713,24,2,8.837,W*06
$GNRMC,192542.00,A,3737.7549977,N,12704.7378567,E,0.0,,190324,8.8,W,D*1F
$PSSN,HRP,192542.00,190324,11.997,,-0.110,0.520,,0.702,25,2,8.837,W*02
$GNRMC,192642.00,A,3737.7550027,N,12704.7378508,E,0.0,,190324,8.8,W,D*11
$PSSN,HRP,192642.00,190324,12.029,,-0.157,0.503,,0.698,25,2,8.837,W*0E
$GNRMC,192742.00,A,3737.7549998,N,12704.7378497,E,0.0,,190324,8.8,W,D*12
$PSSN,HRP,192742.00,190324,11.897,,-0.009,0.506,,0.706,25,2,8.837,W*08
$GNRMC,192842.00,A,3737.7550053,N,12704.7378482,E,0.0,,190324,8.8,W,D*1F
$PSSN,HRP,192842.00,190324,11.764,,0.177,0.507,,0.707,25,2,8.837,W*21
$GNRMC,192942.00,A,3737.7550028,N,12704.7378457,E,0.0,,190324,8.8,W,D*1A
$PSSN,HRP,192942.00,190324,11.598,,0.257,0.512,,0.709,25,2,8.837,W*2A
$GNRMC,193042.00,A,3737.7550048,N,12704.7378550,E,0.0,,190324,8.8,W,D*12
$PSSN,HRP,193042.00,190324,11.378,,0.404,0.521,,0.713,25,2,8.837,W*21
$GNRMC,193142.00,A,3737.7550035,N,12704.7378707,E,0.0,,190324,8.8,W,D*19
$PSSN,HRP,193142.00,190324,11.447,,0.484,0.520,,0.715,25,2,8.837,W*24
$GNRMC,193242.00,A,3737.7550022,N,12704.7378776,E,0.0,,190324,8.8,W,D*1A
$PSSN,HRP,193242.00,190324,11.120,,0.852,0.514,,0.716,25,2,8.837,W*20
$GNRMC,193342.00,A,3737.7550084,N,12704.7378859,E,0.0,,190324,8.8,W,D*15
$PSSN,HRP,193342.00,190324,10.871,,0.991,0.520,,0.719,25,2,8.837,W*2B
$GNRMC,193442.00,A,3737.7550049,N,12704.7378687,E,0.0,,190324,8.8,W,D*1E
$PSSN,HRP,193442.00,190324,10.892,,0.912,0.522,,0.723,25,2,8.837,W*21
$GNRMC,193542.00,A,3737.7549992,N,12704.7378509,E,0.0,,190324,8.8,W,D*1D
$PSSN,HRP,193542.00,190324,10.714,,0.889,0.532,,0.729,25,2,8.837,W*29
$GNRMC,193642.00,A,3737.7549968,N,12704.7378503,E,0.0,,190324,8.8,W,D*11
$PSSN,HRP,193642.00,190324,10.968,,0.437,0.537,,0.732,25,2,8.837,W*29
$GNRMC,193742.00,A,3737.7549912,N,12704.7378369,E,0.0,,190324,8.8,W,D*17
$PSSN,HRP,193742.00,190324,11.312,,0.279,0.593,,0.750,24,2,8.837,W*29
$GNRMC,193842.00,A,3737.7549915,N,12704.7378369,E,0.0,,190324,8.8,W,D*1F
$PSSN,HRP,193842.00,190324,11.683,,-0.061,0.595,,0.750,24,2,8.837,W*0B
$GNRMC,193942.00,A,3737.7549949,N,12704.7378458,E,0.0,,190324,8.8,W,D*12
$PSSN,HRP,193942.00,190324,11.770,,-0.180,0.592,,0.746,24,2,8.837,W*09
$GNRMC,194042.00,A,3737.7549922,N,12704.7378410,E,0.0,,190324,8.8,W,D*1D
$PSSN,HRP,194042.00,190324,11.908,,-0.247,0.589,,0.746,24,2,8.837,W*04
$GNRMC,194142.00,A,3737.7549924,N,12704.7378517,E,0.0,,190324,8.8,W,D*1C
$PSSN,HRP,194142.00,190324,11.665,,0.033,0.575,,0.734,24,2,8.837,W*2B
$GNRMC,194242.00,A,3737.7549978,N,12704.7378526,E,0.0,,190324,8.8,W,D*14
$PSSN,HRP,194242.00,190324,11.726,,-0.004,0.580,,0.740,24,2,8.837,W*0E
$GNRMC,194342.00,A,3737.7549999,N,12704.7378621,E,0.0,,190324,8.8,W,D*1E
$PSSN,HRP,194342.00,190324,11.733,,0.034,0.587,,0.748,24,2,8.837,W*2A
$GNRMC,194442.00,A,3737.7549953,N,12704.7378461,E,0.0,,190324,8.8,W,D*19
$PSSN,HRP,194442.00,190324,11.985,,-0.267,0.586,,0.749,24,2,8.837,W*07
$GNRMC,194542.00,A,3737.7549993,N,12704.7378525,E,0.0,,190324,8.8,W,D*15
$PSSN,HRP,194542.00,190324,12.009,,-0.081,0.583,,0.749,24,2,8.837,W*07
$GNRMC,194642.00,A,3737.7549938,N,12704.7378457,E,0.0,,190324,8.8,W,D*13
$PSSN,HRP,194642.00,190324,11.859,,0.216,0.579,,0.747,24,2,8.837,W*20
$GNRMC,194742.00,A,3737.7549898,N,12704.7378336,E,0.0,,190324,8.8,W,D*19
$PSSN,HRP,194742.00,190324,11.555,,0.634,0.587,,0.756,24,2,8.837,W*25
$GNRMC,194842.00,A,3737.7549959,N,12704.7378355,E,0.0,,190324,8.8,W,D*1F
$PSSN,HRP,194842.00,190324,11.518,,0.931,0.588,,0.760,24,2,8.837,W*23
$GNRMC,194942.00,A,3737.7549887,N,12704.7378331,E,0.0,,190324,8.8,W,D*1E
$PSSN,HRP,194942.00,190324,11.457,,0.774,0.581,,0.753,24,2,8.837,W*2E
$GNRMC,195042.00,A,3737.7549922,N,12704.7378251,E,0.0,,190324,8.8,W,D*1F
$PSSN,HRP,195042.00,190324,11.525,,0.723,0.607,,0.767,25,2,8.837,W*2B
$GNRMC,195142.00,A,3737.7549904,N,12704.7378391,E,0.0,,190324,8.8,W,D*17
$PSSN,HRP,195142.00,190324,11.686,,0.491,0.543,,0.740,26,2,8.837,W*2F
$GNRMC,195242.00,A,3737.7549863,N,12704.7378403,E,0.0,,190324,8.8,W,D*18
$PSSN,HRP,195242.00,190324,11.905,,0.001,0.533,,0.734,25,2,8.837,W*22
$GNRMC,195342.00,A,3737.7549937,N,12704.7378519,E,0.0,,190324,8.8,W,D*13
$PSSN,HRP,195342.00,190324,11.950,,-0.268,0.527,,0.729,25,2,8.837,W*0A
$GNRMC,195442.00,A,3737.7549920,N,12704.7378467,E,0.0,,190324,8.8,W,D*1A
$PSSN,HRP,195442.00,190324,11.918,,-0.044,0.523,,0.728,25,2,8.837,W*08
$GNRMC,195542.00,A,3737.7549897,N,12704.7378309,E,0.0,,190324,8.8,W,D*19
$PSSN,HRP,195542.00,190324,11.981,,-0.243,0.509,,0.703,27,2,8.837,W*0F
$GNRMC,195642.00,A,3737.7549933,N,12704.7378315,E,0.0,,190324,8.8,W,D*18
$PSSN,HRP,195642.00,190324,11.678,,0.238,0.509,,0.696,27,2,8.837,W*29
$GNRMC,195742.00,A,3737.7549787,N,12704.7378130,E,0.0,,190324,8.8,W,D*1D
$PSSN,HRP,195742.00,190324,11.590,,0.269,0.509,,0.693,27,2,8.837,W*2C
$GNRMC,195842.00,A,3737.7549833,N,12704.7378145,E,0.0,,190324,8.8,W,D*10
$PSSN,HRP,195842.00,190324,11.553,,0.166,0.504,,0.694,27,2,8.837,W*2A
$GNRMC,195942.00,A,3737.7549746,N,12704.7377928,E,0.0,,190324,8.8,W,D*10
$PSSN,HRP,195942.00,190324,11.324,,0.386,0.510,,0.700,27,2,8.837,W*28
$GNRMC,200042.00,A,3737.7549745,N,12704.7377981,E,0.0,,190324,8.8,W,D*16
$PSSN,HRP,200042.00,190324,11.333,,0.240,0.506,,0.702,27,2,8.837,W*26
$GNRMC,200142.00,A,3737.7549648,N,12704.7377827,E,0.0,,190324,8.8,W,D*16
$PSSN,HRP,200142.00,190324,11.337,,0.238,0.543,,0.744,26,2,8.837,W*2E
$GNRMC,200242.00,A,3737.7549744,N,12704.7377940,E,0.0,,190324,8.8,W,D*18
$PSSN,HRP,200242.00,190324,11.520,,0.090,0.545,,0.754,26,2,8.837,W*2A
$GNRMC,200342.00,A,3737.7549806,N,12704.7378096,E,0.0,,190324,8.8,W,D*1D
$PSSN,HRP,200342.00,190324,11.553,,0.249,0.523,,0.675,27,2,8.837,W*2A
$GNRMC,200442.00,A,3737.7549750,N,12704.7378015,E,0.0,,190324,8.8,W,D*1D
$PSSN,HRP,200442.00,190324,11.575,,0.029,0.530,,0.686,27,2,8.837,W*23
$GNRMC,200542.00,A,3737.7549807,N,12704.7378148,E,0.0,,190324,8.8,W,D*18
$PSSN,HRP,200542.00,190324,11.715,,-0.161,0.550,,0.773,25,2,8.837,W*09
$GNRMC,200642.00,A,3737.7549876,N,12704.7378417,E,0.0,,190324,8.8,W,D*12
$PSSN,HRP,200642.00,190324,11.830,,-0.421,0.530,,0.688,26,2,8.837,W*03
$GNRMC,200742.00,A,3737.7549829,N,12704.7378336,E,0.0,,190324,8.8,W,D*1D
$PSSN,HRP,200742.00,190324,11.956,,-0.364,0.551,,0.664,26,2,8.837,W*00
$GNRMC,200842.00,A,3737.7549843,N,12704.7378329,E,0.0,,190324,8.8,W,D*10
$PSSN,HRP,200842.00,190324,11.862,,-0.448,0.536,,0.653,27,2,8.837,W*04
$GNRMC,200942.00,A,3737.7549897,N,12704.7378346,E,0.0,,190324,8.8,W,D*11
$PSSN,HRP,200942.00,190324,11.974,,-0.563,0.553,,0.667,26,2,8.837,W*0E
$GNRMC,201042.00,A,3737.7549879,N,12704.7378399,E,0.0,,190324,8.8,W,D*1B
$PSSN,HRP,201042.00,190324,11.598,,-0.074,0.542,,0.662,27,2,8.837,W*0F
$GNRMC,201142.00,A,3737.7549898,N,12704.7378389,E,0.0,,190324,8.8,W,D*14
$PSSN,HRP,201142.00,190324,11.237,,0.556,0.550,,0.667,27,2,8.837,W*22
$GNRMC,201242.00,A,3737.7549877,N,12704.7378314,E,0.0,,190324,8.8,W,D*12
$PSSN,HRP,201242.00,190324,11.237,,0.660,0.552,,0.676,27,2,8.837,W*25
$GNRMC,201342.00,A,3737.7549900,N,12704.7378371,E,0.0,,190324,8.8,W,D*11
$PSSN,HRP,201342.00,190324,10.923,,1.288,0.549,,0.678,27,2,8.837,W*2C
$GNRMC,201442.00,A,3737.7549938,N,12704.7378496,E,0.0,,190324,8.8,W,D*13
$PSSN,HRP,201442.00,190324,10.846,,1.233,0.550,,0.682,27,2,8.837,W*24
$GNRMC,201542.00,A,3737.7549912,N,12704.7378416,E,0.0,,190324,8.8,W,D*12
$PSSN,HRP,201542.00,190324,10.927,,0.965,0.535,,0.674,27,2,8.837,W*20
$GNRMC,201642.00,A,3737.7549904,N,12704.7378383,E,0.0,,190324,8.8,W,D*1D
$PSSN,HRP,201642.00,190324,10.856,,0.964,0.533,,0.682,27,2,8.837,W*2A
$GNRMC,201742.00,A,3737.7549938,N,12704.7378183,E,0.0,,190324,8.8,W,D*11
$PSSN,HRP,201742.00,190324,11.945,,0.069,0.536,,0.677,27,2,8.837,W*22
$GNRMC,201842.00,A,3737.7549925,N,12704.7378380,E,0.0,,190324,8.8,W,D*13
$PSSN,HRP,201842.00,190324,11.881,,0.379,0.527,,0.676,27,2,8.837,W*27
$GNRMC,201942.00,A,3737.7549919,N,12704.7378253,E,0.0,,190324,8.8,W,D*12
$PSSN,HRP,201942.00,190324,12.003,,0.132,0.623,,0.742,27,2,8.837,W*2B
$GNRMC,202042.00,A,3737.7549915,N,12704.7378199,E,0.0,,190324,8.8,W,D*11
$PSSN,HRP,202042.00,190324,12.166,,0.129,0.623,,0.744,26,2,8.837,W*2E
$GNRMC,202142.00,A,3737.7549945,N,12704.7378300,E,0.0,,190324,8.8,W,D*17
$PSSN,HRP,202142.00,190324,10.961,,1.221,0.538,,0.705,25,2,8.837,W*27
$GNRMC,202242.00,A,3737.7549994,N,12704.7378441,E,0.0,,190324,8.8,W,D*1A
$PSSN,HRP,202242.00,190324,10.889,,1.419,0.538,,0.697,26,2,8.837,W*27
$GNRMC,202342.00,A,3737.7549955,N,12704.7378094,E,0.0,,190324,8.8,W,D*1A
$PSSN,HRP,202342.00,190324,10.878,,1.384,0.530,,0.693,27,2,8.837,W*26
$GNRMC,202442.00,A,3737.7549963,N,12704.7378190,E,0.0,,190324,8.8,W,D*1D
$PSSN,HRP,202442.00,190324,11.245,,0.884,0.523,,0.697,26,2,8.837,W*29
$GNRMC,202542.00,A,3737.7549966,N,12704.7378162,E,0.0,,190324,8.8,W,D*14
$PSSN,HRP,202542.00,190324,11.095,,1.011,0.525,,0.698,26,2,8.837,W*2B
$GNRMC,202642.00,A,3737.7550004,N,12704.7378148,E,0.0,,190324,8.8,W,D*1A
$PSSN,HRP,202642.00,190324,11.160,,0.985,0.524,,0.700,26,2,8.837,W*27
$GNRMC,202742.00,A,3737.7550004,N,12704.7378517,E,0.0,,190324,8.8,W,D*15
$PSSN,HRP,202742.00,190324,11.125,,1.159,0.529,,0.719,25,2,8.837,W*29
$GNRMC,202842.00,A,3737.7550054,N,12704.7378410,E,0.0,,190324,8.8,W,D*19
$PSSN,HRP,202842.00,190324,11.236,,0.980,0.534,,0.722,25,2,8.837,W*2E
$GNRMC,202942.00,A,3737.7550080,N,12704.7378573,E,0.0,,190324,8.8,W,D*15
$PSSN,HRP,202942.00,190324,10.995,,1.472,0.530,,0.721,25,2,8.837,W*2A
$GNRMC,203042.00,A,3737.7550070,N,12704.7378425,E,0.0,,190324,8.8,W,D*10
$PSSN,HRP,203042.00,190324,10.862,,1.571,0.524,,0.719,25,2,8.837,W*27
$GNRMC,203142.00,A,3737.7550041,N,12704.7378531,E,0.0,,190324,8.8,W,D*17
$PSSN,HRP,203142.00,190324,10.930,,1.361,0.510,,0.713,24,2,8.837,W*2B
$GNRMC,203242.00,A,3737.7550007,N,12704.7378446,E,0.0,,190324,8.8,W,D*17
$PSSN,HRP,203242.00,190324,10.950,,1.304,0.500,,0.709,24,2,8.837,W*27
$GNRMC,203342.00,A,3737.7550036,N,12704.7378679,E,0.0,,190324,8.8,W,D*1A
$PSSN,HRP,203342.00,190324,10.665,,1.711,0.495,,0.708,24,2,8.837,W*23
$GNRMC,203442.00,A,3737.7549982,N,12704.7378458,E,0.0,,190324,8.8,W,D*12
$PSSN,HRP,203442.00,190324,10.822,,1.331,0.504,,0.709,23,2,8.837,W*20
$GNRMC,203542.00,A,3737.7549959,N,12704.7378167,E,0.0,,190324,8.8,W,D*1C
$PSSN,HRP,203542.00,190324,11.153,,0.986,0.516,,0.721,23,2,8.837,W*21
$GNRMC,203642.00,A,3737.7549956,N,12704.7378281,E,0.0,,190324,8.8,W,D*1B
$PSSN,HRP,203642.00,190324,11.177,,0.805,0.528,,0.734,23,2,8.837,W*27
$GNRMC,203742.00,A,3737.7549970,N,12704.7378134,E,0.0,,190324,8.8,W,D*13
$PSSN,HRP,203742.00,190324,10.707,,1.496,0.514,,0.730,23,2,8.837,W*2A
$GNRMC,203842.00,A,3737.7549926,N,12704.7378120,E,0.0,,190324,8.8,W,D*1A
$PSSN,HRP,203842.00,190324,11.674,,0.210,0.541,,0.732,23,2,8.837,W*2A
$GNRMC,203942.00,A,3737.7550001,N,12704.7378389,E,0.0,,190324,8.8,W,D*1E
$PSSN,HRP,203942.00,190324,11.507,,0.598,0.537,,0.739,25,2,8.837,W*27
$GNRMC,204042.00,A,3737.7550002,N,12704.7378385,E,0.0,,190324,8.8,W,D*1F
$PSSN,HRP,204042.00,190324,10.941,,1.077,0.497,,0.731,24,2,8.837,W*21
$GNRMC,204142.00,A,3737.7550000,N,12704.7378402,E,0.0,,190324,8.8,W,D*14
$PSSN,HRP,204142.00,190324,11.147,,0.934,0.509,,0.742,23,2,8.837,W*25
$GNRMC,204242.00,A,3737.7550072,N,12704.7378763,E,0.0,,190324,8.8,W,D*16
$PSSN,HRP,204242.00,190324,11.819,,0.183,0.568,,0.796,23,2,8.837,W*2E
$GNRMC,204342.00,A,3737.7550044,N,12704.7378641,E,0.0,,190324,8.8,W,D*13
$PSSN,HRP,204342.00,190324,11.764,,0.417,0.544,,0.766,24,2,8.837,W*24
$GNRMC,204442.00,A,3737.7550103,N,12704.7378945,E,0.0,,190324,8.8,W,D*1D
$PSSN,HRP,204442.00,190324,11.841,,0.460,0.560,,0.794,23,2,8.837,W*27
$GNRMC,204542.00,A,3737.7550016,N,12704.7378641,E,0.0,,190324,8.8,W,D*12
$PSSN,HRP,204542.00,190324,11.194,,1.027,0.492,,0.743,24,2,8.837,W*20
$GNRMC,204642.00,A,3737.7550015,N,12704.7378724,E,0.0,,190324,8.8,W,D*10
$PSSN,HRP,204642.00,190324,10.981,,1.338,0.493,,0.748,24,2,8.837,W*29
$GNRMC,204742.00,A,3737.7549974,N,12704.7378637,E,0.0,,190324,8.8,W,D*14
$PSSN,HRP,204742.00,190324,11.685,,0.634,0.545,,0.792,23,2,8.837,W*20
$GNRMC,204842.00,A,3737.7549866,N,12704.7378406,E,0.0,,190324,8.8,W,D*19
$PSSN,HRP,204842.00,190324,11.578,,0.596,0.542,,0.790,23,2,8.837,W*20
$GNRMC,204942.00,A,3737.7549918,N,12704.7378566,E,0.0,,190324,8.8,W,D*17
$PSSN,HRP,204942.00,190324,11.318,,1.000,0.538,,0.792,23,2,8.837,W*25
$GNRMC,205042.00,A,3737.7549870,N,12704.7378398,E,0.0,,190324,8.8,W,D*17
$PSSN,HRP,205042.00,190324,11.330,,0.833,0.521,,0.756,24,2,8.837,W*29
$GNRMC,205142.00,A,3737.7549883,N,12704.7378306,E,0.0,,190324,8.8,W,D*1D
$PSSN,HRP,205142.00,190324,11.389,,0.550,0.517,,0.752,24,2,8.837,W*23
$GNRMC,205242.00,A,3737.7549827,N,12704.7378155,E,0.0,,190324,8.8,W,D*14
$PSSN,HRP,205242.00,190324,11.203,,0.815,0.518,,0.758,24,2,8.837,W*2A
$GNRMC,205342.00,A,3737.7549821,N,12704.7378239,E,0.0,,190324,8.8,W,D*1A
$PSSN,HRP,205342.00,190324,10.997,,0.974,0.516,,0.759,24,2,8.837,W*25
$GNRMC,205442.00,A,3737.7549835,N,12704.7378270,E,0.0,,190324,8.8,W,D*15
$PSSN,HRP,205442.00,190324,11.141,,0.910,0.513,,0.761,24,2,8.837,W*2C
$GNRMC,205542.00,A,3737.7549876,N,12704.7378330,E,0.0,,190324,8.8,W,D*16
$PSSN,HRP,205542.00,190324,11.053,,0.968,0.510,,0.759,24,2,8.837,W*28
$GNRMC,205642.00,A,3737.7549856,N,12704.7378331,E,0.0,,190324,8.8,W,D*16
$PSSN,HRP,205642.00,190324,11.115,,0.824,0.504,,0.752,24,2,8.837,W*2F
$GNRMC,205742.00,A,3737.7549838,N,12704.7378046,E,0.0,,190324,8.8,W,D*1C
$PSSN,HRP,205742.00,190324,11.097,,0.899,0.502,,0.754,24,2,8.837,W*23
$GNRMC,205842.00,A,3737.7549896,N,12704.7378179,E,0.0,,190324,8.8,W,D*1A
$PSSN,HRP,205842.00,190324,11.334,,0.802,0.499,,0.748,24,2,8.837,W*2A
$GNRMC,205942.00,A,3737.7549861,N,12704.7378099,E,0.0,,190324,8.8,W,D*1C
$PSSN,HRP,205942.00,190324,11.517,,0.574,0.495,,0.746,24,2,8.837,W*22
$GNRMC,210042.00,A,3737.7549818,N,12704.7378112,E,0.0,,190324,8.8,W,D*1D
$PSSN,HRP,210042.00,190324,11.703,,0.487,0.489,,0.742,24,2,8.837,W*2C
$GNRMC,210142.00,A,3737.7549851,N,12704.7378058,E,0.0,,190324,8.8,W,D*1E
$PSSN,HRP,210142.00,190324,11.671,,0.521,0.485,,0.740,24,2,8.837,W*2A
$GNRMC,210242.00,A,3737.7549848,N,12704.7378123,E,0.0,,190324,8.8,W,D*18
$PSSN,HRP,210242.00,190324,11.756,,0.513,0.480,,0.739,24,2,8.837,W*27
$GNRMC,210342.00,A,3737.7549836,N,12704.7378145,E,0.0,,190324,8.8,W,D*10
$PSSN,HRP,210342.00,190324,11.839,,0.437,0.474,,0.736,24,2,8.837,W*23
$GNRMC,210442.00,A,3737.7549860,N,12704.7378195,E,0.0,,190324,8.8,W,D*19
$PSSN,HRP,210442.00,190324,11.804,,0.565,0.471,,0.734,24,2,8.837,W*2B
$GNRMC,210542.00,A,3737.7549867,N,12704.7378127,E,0.0,,190324,8.8,W,D*16
$PSSN,HRP,210542.00,190324,11.633,,0.915,0.469,,0.735,24,2,8.837,W*23
$GNRMC,210642.00,A,3737.7549848,N,12704.7378088,E,0.0,,190324,8.8,W,D*1C
$PSSN,HRP,210642.00,190324,11.716,,0.830,0.465,,0.732,24,2,8.837,W*2B
$GNRMC,210742.00,A,3737.7549815,N,12704.7378027,E,0.0,,190324,8.8,W,D*10
$PSSN,HRP,210742.00,190324,11.770,,0.698,0.460,,0.725,24,2,8.837,W*25
$GNRMC,210842.00,A,3737.7549877,N,12704.7378079,E,0.0,,190324,8.8,W,D*10
$PSSN,HRP,210842.00,190324,11.357,,1.111,0.461,,0.728,24,2,8.837,W*20
$GNRMC,210942.00,A,3737.7549913,N,12704.7378000,E,0.0,,190324,8.8,W,D*1C
$PSSN,HRP,210942.00,190324,11.240,,1.009,0.461,,0.722,24,2,8.837,W*24
$GNRMC,211042.00,A,3737.7549897,N,12704.7378059,E,0.0,,190324,8.8,W,D*15
$PSSN,HRP,211042.00,190324,11.286,,0.956,0.467,,0.722,23,2,8.837,W*25
$GNRMC,211142.00,A,3737.7549917,N,12704.7377799,E,0.0,,190324,8.8,W,D*19
$PSSN,HRP,211142.00,190324,11.177,,0.961,0.452,,0.666,24,2,8.837,W*2D
$GNRMC,211242.00,A,3737.7549907,N,12704.7378145,E,0.0,,190324,8.8,W,D*13
$PSSN,HRP,211242.00,190324,11.349,,0.651,0.450,,0.671,24,2,8.837,W*29
$GNRMC,211342.00,A,3737.7549956,N,12704.7378549,E,0.0,,190324,8.8,W,D*1E
$PSSN,HRP,211342.00,190324,11.105,,0.903,0.453,,0.677,24,2,8.837,W*2F
$GNRMC,211442.00,A,3737.7549957,N,12704.7378474,E,0.0,,190324,8.8,W,D*17
$PSSN,HRP,211442.00,190324,11.362,,0.349,0.441,,0.670,25,2,8.837,W*2A
$GNRMC,211542.00,A,3737.7549957,N,12704.7378498,E,0.0,,190324,8.8,W,D*14
$PSSN,HRP,211542.00,190324,11.470,,0.213,0.444,,0.665,24,2,8.837,W*21
$GNRMC,211642.00,A,3737.7549955,N,12704.7378566,E,0.0,,190324,8.8,W,D*15
$PSSN,HRP,211642.00,190324,11.436,,0.123,0.439,,0.658,24,2,8.837,W*24
$GNRMC,211742.00,A,3737.7549919,N,12704.7378539,E,0.0,,190324,8.8,W,D*16
$PSSN,HRP,211742.00,190324,11.500,,0.075,0.413,,0.613,25,2,8.837,W*25
$GNRMC,211842.00,A,3737.7549939,N,12704.7378421,E,0.0,,190324,8.8,W,D*13
$PSSN,HRP,211842.00,190324,11.393,,-0.148,0.405,,0.587,26,2,8.837,W*0E
$GNRMC,211942.00,A,3737.7549959,N,12704.7378485,E,0.0,,190324,8.8,W,D*1A
$PSSN,HRP,211942.00,190324,11.496,,-0.094,0.406,,0.596,26,2,8.837,W*0E
$GNRMC,212042.00,A,3737.7549877,N,12704.7378343,E,0.0,,190324,8.8,W,D*10
$PSSN,HRP,212042.00,190324,11.368,,0.146,0.405,,0.592,26,2,8.837,W*26
$GNRMC,212142.00,A,3737.7549929,N,12704.7378438,E,0.0,,190324,8.8,W,D*10
$PSSN,HRP,212142.00,190324,11.434,,0.043,0.408,,0.590,26,2,8.837,W*22
$GNRMC,212242.00,A,3737.7549927,N,12704.7378355,E,0.0,,190324,8.8,W,D*11
$PSSN,HRP,212242.00,190324,11.782,,0.195,0.406,,0.591,26,2,8.837,W*2A
$GNRMC,212342.00,A,3737.7549954,N,12704.7378434,E,0.0,,190324,8.8,W,D*14
$PSSN,HRP,212342.00,190324,11.710,,0.015,0.415,,0.603,26,2,8.837,W*23
$GNRMC,212442.00,A,3737.7549957,N,12704.7378378,E,0.0,,190324,8.8,W,D*1F
$PSSN,HRP,212442.00,190324,11.755,,0.228,0.437,,0.629,25,2,8.837,W*22
$GNRMC,212542.00,A,3737.7549948,N,12704.7378377,E,0.0,,190324,8.8,W,D*1F
$PSSN,HRP,212542.00,190324,11.869,,-0.067,0.442,,0.634,25,2,8.837,W*09
$GNRMC,212642.00,A,3737.7549936,N,12704.7378289,E,0.0,,190324,8.8,W,D*15
$PSSN,HRP,212642.00,190324,12.100,,-0.220,0.439,,0.631,25,2,8.837,W*07
$GNRMC,212742.00,A,3737.7549933,N,12704.7378241,E,0.0,,190324,8.8,W,D*15
$PSSN,HRP,212742.00,190324,12.149,,-0.148,0.438,,0.631,25,2,8.837,W*07
$GNRMC,212842.00,A,3737.7549917,N,12704.7378272,E,0.0,,190324,8.8,W,D*1C
$PSSN,HRP,212842.00,190324,11.996,,0.024,0.433,,0.627,25,2,8.837,W*2B
$GNRMC,212942.00,A,3737.7549916,N,12704.7378443,E,0.0,,190324,8.8,W,D*18
$PSSN,HRP,212942.00,190324,11.518,,0.335,0.422,,0.653,25,2,8.837,W*20
$GNRMC,213042.00,A,3737.7549915,N,12704.7378326,E,0.0,,190324,8.8,W,D*17
$PSSN,HRP,213042.00,190324,11.509,,0.032,0.419,,0.654,25,2,8.837,W*23
$GNRMC,213142.00,A,3737.7549879,N,12704.7378239,E,0.0,,190324,8.8,W,D*12
$PSSN,HRP,213142.00,190324,11.864,,0.204,0.504,,0.687,23,2,8.837,W*26
$GNRMC,213242.00,A,3737.7549913,N,12704.7378396,E,0.0,,190324,8.8,W,D*18
$PSSN,HRP,213242.00,190324,12.214,,0.013,0.441,,0.660,24,2,8.837,W*21
$GNRMC,213342.00,A,3737.7549927,N,12704.7378207,E,0.0,,190324,8.8,W,D*17
$PSSN,HRP,213342.00,190324,12.554,,-0.319,0.442,,0.666,24,2,8.837,W*02
$GNRMC,213442.00,A,3737.7549951,N,12704.7378312,E,0.0,,190324,8.8,W,D*14
$PSSN,HRP,213442.00,190324,12.295,,0.054,0.443,,0.669,24,2,8.837,W*26
$GNRMC,213542.00,A,3737.7549939,N,12704.7378145,E,0.0,,190324,8.8,W,D*1B
$PSSN,HRP,213542.00,190324,12.252,,0.280,0.496,,0.749,22,2,8.837,W*2A
$GNRMC,213642.00,A,3737.7549985,N,12704.7378092,E,0.0,,190324,8.8,W,D*14
$PSSN,HRP,213642.00,190324,12.507,,-0.266,0.492,,0.702,23,2,8.837,W*01
$GNRMC,213742.00,A,3737.7549981,N,12704.7377877,E,0.0,,190324,8.8,W,D*1D
$PSSN,HRP,213742.00,190324,12.367,,-0.106,0.489,,0.691,23,2,8.837,W*04
$GNRMC,213842.00,A,3737.7549970,N,12704.7377888,E,0.0,,190324,8.8,W,D*1C
$PSSN,HRP,213842.00,190324,12.059,,0.259,0.486,,0.685,23,2,8.837,W*2B
$GNRMC,213942.00,A,3737.7549980,N,12704.7377918,E,0.0,,190324,8.8,W,D*1A
$PSSN,HRP,213942.00,190324,12.070,,0.020,0.489,,0.686,23,2,8.837,W*21
$GNRMC,214042.00,A,3737.7549888,N,12704.7377805,E,0.0,,190324,8.8,W,D*10
$PSSN,HRP,214042.00,190324,12.180,,-0.703,0.484,,0.666,24,2,8.837,W*0E
$GNRMC,214142.00,A,3737.7549894,N,12704.7377853,E,0.0,,190324,8.8,W,D*1F
$PSSN,HRP,214142.00,190324,12.033,,-0.065,0.494,,0.699,23,2,8.837,W*07
$GNRMC,214242.00,A,3737.7549912,N,12704.7377740,E,0.0,,190324,8.8,W,D*1E
$PSSN,HRP,214242.00,190324,11.517,,-0.047,0.478,,0.763,23,2,8.837,W*02
$GNRMC,214342.00,A,3737.7549939,N,12704.7378007,E,0.0,,190324,8.8,W,D*1D
$PSSN,HRP,214342.00,190324,11.600,,0.045,0.466,,0.668,25,2,8.837,W*2A
$GNRMC,214442.00,A,3737.7549944,N,12704.7378100,E,0.0,,190324,8.8,W,D*16
$PSSN,HRP,214442.00,190324,11.530,,0.358,0.449,,0.659,25,2,8.837,W*2D
$GNRMC,214542.00,A,3737.7549977,N,12704.7377961,E,0.0,,190324,8.8,W,D*17
$PSSN,HRP,214542.00,190324,11.333,,0.647,0.471,,0.708,24,2,8.837,W*2D
$GNRMC,214642.00,A,3737.7549940,N,12704.7378002,E,0.0,,190324,8.8,W,D*13
$PSSN,HRP,214642.00,190324,11.133,,0.747,0.469,,0.710,24,2,8.837,W*2D
$GNRMC,214742.00,A,3737.7550022,N,12704.7378473,E,0.0,,190324,8.8,W,D*15
$PSSN,HRP,214742.00,190324,11.141,,0.849,0.471,,0.714,24,2,8.837,W*25
$GNRMC,214842.00,A,3737.7550046,N,12704.7378334,E,0.0,,190324,8.8,W,D*1C
$PSSN,HRP,214842.00,190324,11.070,,1.055,0.498,,0.737,24,2,8.837,W*2B
$GNRMC,214942.00,A,3737.7550078,N,12704.7378522,E,0.0,,190324,8.8,W,D*11
$PSSN,HRP,214942.00,190324,11.310,,0.847,0.498,,0.746,24,2,8.837,W*23
$GNRMC,215042.00,A,3737.7550069,N,12704.7378234,E,0.0,,190324,8.8,W,D*19
$PSSN,HRP,215042.00,190324,11.063,,1.211,0.487,,0.744,24,2,8.837,W*28
$GNRMC,215142.00,A,3737.7550086,N,12704.7378096,E,0.0,,190324,8.8,W,D*13
$PSSN,HRP,215142.00,190324,11.152,,1.223,0.498,,0.757,24,2,8.837,W*27
$GNRMC,215242.00,A,3737.7550151,N,12704.7378017,E,0.0,,190324,8.8,W,D*12
$PSSN,HRP,215242.00,190324,11.666,,0.696,0.510,,0.747,23,2,8.837,W*28
$GNRMC,215342.00,A,3737.7550204,N,12704.7377836,E,0.0,,190324,8.8,W,D*14
$PSSN,HRP,215342.00,190324,11.656,,0.597,0.507,,0.747,23,2,8.837,W*2E
$GNRMC,215442.00,A,3737.7550171,N,12704.7378175,E,0.0,,190324,8.8,W,D*13
$PSSN,HRP,215442.00,190324,11.651,,0.670,0.471,,0.697,24,2,8.837,W*2F
$GNRMC,215542.00,A,3737.7550130,N,12704.7378394,E,0.0,,190324,8.8,W,D*1A
$PSSN,HRP,215542.00,190324,11.675,,0.465,0.469,,0.696,24,2,8.837,W*26
$GNRMC,215642.00,A,3737.7550153,N,12704.7378329,E,0.0,,190324,8.8,W,D*1A
$PSSN,HRP,215642.00,190324,11.587,,0.813,0.466,,0.697,24,2,8.837,W*28
$GNRMC,215742.00,A,3737.7550130,N,12704.7378738,E,0.0,,190324,8.8,W,D*1A
$PSSN,HRP,215742.00,190324,11.577,,0.639,0.463,,0.680,25,2,8.837,W*22
$GNRMC,215842.00,A,3737.7549949,N,12704.7378672,E,0.0,,190324,8.8,W,D*14
$PSSN,HRP,215842.00,190324,11.686,,0.610,0.459,,0.674,25,2,8.837,W*29
$GNRMC,215942.00,A,3737.7549953,N,12704.7378870,E,0.0,,190324,8.8,W,D*12
$PSSN,HRP,215942.00,190324,11.323,,1.229,0.459,,0.679,25,2,8.837,W*20
$GNRMC,220042.00,A,3737.7549931,N,12704.7378815,E,0.0,,190324,8.8,W,D*1A
$PSSN,HRP,220042.00,190324,11.424,,0.926,0.455,,0.678,25,2,8.837,W*27
$GNRMC,220142.00,A,3737.7549912,N,12704.7379033,E,0.0,,190324,8.8,W,D*17
$PSSN,HRP,220142.00,190324,11.379,,1.061,0.456,,0.682,25,2,8.837,W*24
$GNRMC,220242.00,A,3737.7549907,N,12704.7378866,E,0.0,,190324,8.8,W,D*19
$PSSN,HRP,220242.00,190324,11.227,,1.236,0.455,,0.685,25,2,8.837,W*29
$GNRMC,220342.00,A,3737.7549915,N,12704.7378893,E,0.0,,190324,8.8,W,D*11
$PSSN,HRP,220342.00,190324,11.498,,1.096,0.453,,0.692,25,2,8.837,W*22
$GNRMC,220442.00,A,3737.7549906,N,12704.7378766,E,0.0,,190324,8.8,W,D*11
$PSSN,HRP,220442.00,190324,11.479,,1.071,0.451,,0.692,25,2,8.837,W*21
$GNRMC,220542.00,A,3737.7549949,N,12704.7378817,E,0.0,,190324,8.8,W,D*12
$PSSN,HRP,220542.00,190324,11.566,,0.846,0.449,,0.690,25,2,8.837,W*29
$GNRMC,220642.00,A,3737.7549882,N,12704.7378793,E,0.0,,190324,8.8,W,D*14
$PSSN,HRP,220642.00,190324,11.494,,0.857,0.446,,0.686,25,2,8.837,W*2E
$GNRMC,220742.00,A,3737.7549887,N,12704.7378713,E,0.0,,190324,8.8,W,D*18
$PSSN,HRP,220742.00,190324,11.399,,1.126,0.444,,0.668,26,2,8.837,W*2A
$GNRMC,220842.00,A,3737.7549917,N,12704.7378632,E,0.0,,190324,8.8,W,D*1D
$PSSN,HRP,220842.00,190324,11.496,,1.006,0.446,,0.670,26,2,8.837,W*25
$GNRMC,220942.00,A,3737.7549906,N,12704.7378532,E,0.0,,190324,8.8,W,D*1F
$PSSN,HRP,220942.00,190324,11.884,,0.454,0.443,,0.667,26,2,8.837,W*2A
$GNRMC,221042.00,A,3737.7549893,N,12704.7378515,E,0.0,,190324,8.8,W,D*1F
$PSSN,HRP,221042.00,190324,11.755,,0.644,0.446,,0.667,26,2,8.837,W*27
$GNRMC,221142.00,A,3737.7549920,N,12704.7378586,E,0.0,,190324,8.8,W,D*1D
$PSSN,HRP,221142.00,190324,11.701,,0.500,0.444,,0.665,26,2,8.837,W*24
$GNRMC,221242.00,A,3737.7549905,N,12704.7378650,E,0.0,,190324,8.8,W,D*11
$PSSN,HRP,221242.00,190324,11.893,,0.379,0.445,,0.669,26,2,8.837,W*26
$GNRMC,221342.00,A,3737.7549889,N,12704.7378498,E,0.0,,190324,8.8,W,D*13
$PSSN,HRP,221342.00,190324,11.759,,0.631,0.447,,0.673,26,2,8.837,W*2E
$GNRMC,221442.00,A,3737.7549875,N,12704.7378632,E,0.0,,190324,8.8,W,D*15
$PSSN,HRP,221442.00,190324,11.675,,0.781,0.447,,0.673,26,2,8.837,W*2C
$GNRMC,221542.00,A,3737.7549863,N,12704.7378485,E,0.0,,190324,8.8,W,D*1D
$PSSN,HRP,221542.00,190324,11.557,,1.132,0.448,,0.673,26,2,8.837,W*2E
$GNRMC,221642.00,A,3737.7549854,N,12704.7378468,E,0.0,,190324,8.8,W,D*19
$PSSN,HRP,221642.00,190324,11.611,,1.018,0.447,,0.675,26,2,8.837,W*2C
$GNRMC,221742.00,A,3737.7549890,N,12704.7378399,E,0.0,,190324,8.8,W,D*19
$PSSN,HRP,221742.00,190324,11.489,,1.156,0.451,,0.685,26,2,8.837,W*2D
$GNRMC,221842.00,A,3737.7549882,N,12704.7378406,E,0.0,,190324,8.8,W,D*14
$PSSN,HRP,221842.00,190324,11.314,,1.407,0.494,,0.711,25,2,8.837,W*26
$GNRMC,221942.00,A,3737.7549869,N,12704.7378294,E,0.0,,190324,8.8,W,D*1D
$PSSN,HRP,221942.00,190324,11.322,,1.398,0.492,,0.710,25,2,8.837,W*24
$GNRMC,222042.00,A,3737.7549911,N,12704.7378386,E,0.0,,190324,8.8,W,D*1B
$PSSN,HRP,222042.00,190324,11.519,,1.281,0.491,,0.720,24,2,8.837,W*28
$GNRMC,222142.00,A,3737.7549900,N,12704.7378435,E,0.0,,190324,8.8,W,D*15
$PSSN,HRP,222142.00,190324,11.570,,0.942,0.487,,0.720,24,2,8.837,W*24
$GNRMC,222242.00,A,3737.7549918,N,12704.7378657,E,0.0,,190324,8.8,W,D*19
$PSSN,HRP,222242.00,190324,11.391,,1.193,0.483,,0.717,24,2,8.837,W*2B
$GNRMC,222342.00,A,3737.7549895,N,12704.7378582,E,0.0,,190324,8.8,W,D*17
$PSSN,HRP,222342.00,190324,11.419,,1.307,0.477,,0.702,25,2,8.837,W*2C
$GNRMC,222442.00,A,3737.7549946,N,12704.7378411,E,0.0,,190324,8.8,W,D*14
$PSSN,HRP,222442.00,190324,11.426,,1.292,0.466,,0.655,26,2,8.837,W*2A
$GNRMC,222542.00,A,3737.7549934,N,12704.7378437,E,0.0,,190324,8.8,W,D*14
$PSSN,HRP,222542.00,190324,11.657,,0.671,0.450,,0.633,27,2,8.837,W*23
$GNRMC,222642.00,A,3737.7549891,N,12704.7378405,E,0.0,,190324,8.8,W,D*18
$PSSN,HRP,222642.00,190324,11.559,,0.816,0.435,,0.623,27,2,8.837,W*20
$GNRMC,222742.00,A,3737.7549876,N,12704.7378349,E,0.0,,190324,8.8,W,D*1F
$PSSN,HRP,222742.00,190324,11.615,,0.993,0.434,,0.621,27,2,8.837,W*25
$GNRMC,222842.00,A,3737.7549863,N,12704.7378396,E,0.0,,190324,8.8,W,D*16
$PSSN,HRP,222842.00,190324,11.584,,0.474,0.432,,0.619,27,2,8.837,W*28
$GNRMC,222942.00,A,3737.7549860,N,12704.7378393,E,0.0,,190324,8.8,W,D*11
$PSSN,HRP,222942.00,190324,11.548,,0.788,0.433,,0.627,26,2,8.837,W*24
$GNRMC,223042.00,A,3737.7549835,N,12704.7378169,E,0.0,,190324,8.8,W,D*1E
$PSSN,HRP,223042.00,190324,11.803,,0.426,0.449,,0.646,26,2,8.837,W*23
$GNRMC,223142.00,A,3737.7549815,N,12704.7378466,E,0.0,,190324,8.8,W,D*17
$PSSN,HRP,223142.00,190324,11.709,,0.463,0.433,,0.628,26,2,8.837,W*23
$GNRMC,223242.00,A,3737.7549828,N,12704.7378479,E,0.0,,190324,8.8,W,D*14
$PSSN,HRP,223242.00,190324,11.869,,0.213,0.420,,0.608,27,2,8.837,W*29
$GNRMC,223342.00,A,3737.7549815,N,12704.7378247,E,0.0,,190324,8.8,W,D*10
$PSSN,HRP,223342.00,190324,11.662,,0.448,0.419,,0.610,27,2,8.837,W*26
$GNRMC,223442.00,A,3737.7549819,N,12704.7378273,E,0.0,,190324,8.8,W,D*1C
$PSSN,HRP,223442.00,190324,11.819,,0.330,0.414,,0.603,27,2,8.837,W*24
$GNRMC,223542.00,A,3737.7549791,N,12704.7378279,E,0.0,,190324,8.8,W,D*18
$PSSN,HRP,223542.00,190324,11.833,,0.210,0.418,,0.614,27,2,8.837,W*24
$GNRMC,223642.00,A,3737.7549827,N,12704.7378198,E,0.0,,190324,8.8,W,D*15
$PSSN,HRP,223642.00,190324,11.707,,0.585,0.417,,0.614,26,2,8.837,W*2A
$GNRMC,223742.00,A,3737.7549776,N,12704.7378258,E,0.0,,190324,8.8,W,D*10
$PSSN,HRP,223742.00,190324,11.821,,0.631,0.413,,0.614,26,2,8.837,W*28
$GNRMC,223842.00,A,3737.7549798,N,12704.7378295,E,0.0,,190324,8.8,W,D*1E
$PSSN,HRP,223842.00,190324,11.826,,0.347,0.409,,0.562,27,2,8.837,W*2C
$GNRMC,223942.00,A,3737.7549806,N,12704.7378280,E,0.0,,190324,8.8,W,D*13
$PSSN,HRP,223942.00,190324,11.978,,0.396,0.410,,0.564,27,2,8.837,W*25
$GNRMC,224042.00,A,3737.7549811,N,12704.7378259,E,0.0,,190324,8.8,W,D*1F
$PSSN,HRP,224042.00,190324,12.068,,0.605,0.416,,0.562,27,2,8.837,W*2F
$GNRMC,224142.00,A,3737.7549815,N,12704.7378389,E,0.0,,190324,8.8,W,D*16
$PSSN,HRP,224142.00,190324,12.004,,0.046,0.402,,0.557,27,2,8.837,W*26
$GNRMC,224242.00,A,3737.7549861,N,12704.7378366,E,0.0,,190324,8.8,W,D*17
$PSSN,HRP,224242.00,190324,12.195,,0.131,0.396,,0.549,28,2,8.837,W*27
$GNRMC,224342.00,A,3737.7549868,N,12704.7378414,E,0.0,,190324,8.8,W,D*1D
$PSSN,HRP,224342.00,190324,12.030,,0.257,0.395,,0.551,28,2,8.837,W*21
$GNRMC,224442.00,A,3737.7549842,N,12704.7378559,E,0.0,,190324,8.8,W,D*1A
$PSSN,HRP,224442.00,190324,12.171,,0.028,0.396,,0.553,28,2,8.837,W*29
$GNRMC,224542.00,A,3737.7549835,N,12704.7378457,E,0.0,,190324,8.8,W,D*14
$PSSN,HRP,224542.00,190324,11.921,,0.191,0.407,,0.565,26,2,8.837,W*21
$GNRMC,224642.00,A,3737.7549874,N,12704.7378423,E,0.0,,190324,8.8,W,D*11
$PSSN,HRP,224642.00,190324,11.819,,0.188,0.408,,0.569,26,2,8.837,W*23
$GNRMC,224742.00,A,3737.7549862,N,12704.7378399,E,0.0,,190324,8.8,W,D*11
$PSSN,HRP,224742.00,190324,11.832,,0.333,0.397,,0.563,26,2,8.837,W*22
$GNRMC,224842.00,A,3737.7549871,N,12704.7378259,E,0.0,,190324,8.8,W,D*11
$PSSN,HRP,224842.00,190324,11.450,,0.159,0.392,,0.558,26,2,8.837,W*26
$GNRMC,224942.00,A,3737.7549882,N,12704.7378157,E,0.0,,190324,8.8,W,D*11
$PSSN,HRP,224942.00,190324,11.484,,0.089,0.395,,0.561,26,2,8.837,W*2F
$GNRMC,225042.00,A,3737.7549888,N,12704.7378136,E,0.0,,190324,8.8,W,D*14
$PSSN,HRP,225042.00,190324,11.534,,0.249,0.391,,0.559,26,2,8.837,W*2C
$GNRMC,225142.00,A,3737.7549898,N,12704.7378216,E,0.0,,190324,8.8,W,D*15
$PSSN,HRP,225142.00,190324,11.340,,0.287,0.389,,0.557,26,2,8.837,W*2D
$GNRMC,225242.00,A,3737.7549902,N,12704.7378255,E,0.0,,190324,8.8,W,D*13
