$GNRMC,060506.00,A,3737.7555991,N,12704.7384333,E,0.0,,180324,8.8,W,D13
$PSSN,HRP,060506.00,180324,189.794,,1.007,0.917,,0.964,21,2,8.837,W1B
$GNRMC,060507.00,A,3737.7556001,N,12704.7384361,E,0.0,,180324,8.8,W,D16
$PSSN,HRP,060507.00,180324,189.926,,1.167,0.899,,0.954,21,2,8.837,W1E
$GNRMC,060508.00,A,3737.7556014,N,12704.7384490,E,0.0,,180324,8.8,W,D14
$PSSN,HRP,060508.00,180324,189.528,,0.788,0.913,,0.962,21,2,8.837,W13
$GNRMC,060509.00,A,3737.7555990,N,12704.7384349,E,0.0,,180324,8.8,W,D10
$PSSN,HRP,060509.00,180324,189.864,,1.092,0.908,,0.961,21,2,8.837,W13
$GNRMC,060510.00,A,3737.7555984,N,12704.7384316,E,0.0,,180324,8.8,W,D17
$PSSN,HRP,060510.00,180324,189.628,,0.820,0.909,,0.961,21,2,8.837,W1C
$GNRMC,060511.00,A,3737.7556004,N,12704.7384402,E,0.0,,180324,8.8,W,D16
$PSSN,HRP,060511.00,180324,189.549,,0.908,0.912,,0.963,21,2,8.837,W1A
$GNRMC,060512.00,A,3737.7555994,N,12704.7384412,E,0.0,,180324,8.8,W,D17
$PSSN,HRP,060512.00,180324,189.872,,1.129,0.906,,0.958,21,2,8.837,W1B
$GNRMC,060513.00,A,3737.7556006,N,12704.7384454,E,0.0,,180324,8.8,W,D15
$PSSN,HRP,060513.00,180324,189.843,,1.101,0.916,,0.965,21,2,8.837,W1D
$GNRMC,060514.00,A,3737.7555990,N,12704.7384432,E,0.0,,180324,8.8,W,D17
$PSSN,HRP,060514.00,180324,189.696,,0.842,0.907,,0.960,21,2,8.837,W16
$GNRMC,060515.00,A,3737.7555973,N,12704.7384412,E,0.0,,180324,8.8,W,D19
$PSSN,HRP,060515.00,180324,189.829,,1.166,0.904,,0.957,21,2,8.837,W14
$GNRMC,060516.00,A,3737.7556016,N,12704.7384447,E,0.0,,180324,8.8,W,D13
$PSSN,HRP,060516.00,180324,190.005,,1.239,0.906,,0.957,21,2,8.837,W12
$GNRMC,060517.00,A,3737.7556022,N,12704.7384435,E,0.0,,180324,8.8,W,D10
$PSSN,HRP,060517.00,180324,189.931,,1.230,0.901,,0.954,21,2,8.837,W18
$GNRMC,060518.00,A,3737.7555994,N,12704.7384343,E,0.0,,180324,8.8,W,D1E
$PSSN,HRP,060518.00,180324,189.859,,1.171,0.911,,0.962,21,2,8.837,W1A
$GNRMC,060519.00,A,3737.7556004,N,12704.7384407,E,0.0,,180324,8.8,W,D1B
$PSSN,HRP,060519.00,180324,189.852,,1.143,0.916,,0.963,21,2,8.837,W17
$GNRMC,060520.00,A,3737.7556028,N,12704.7384272,E,0.0,,180324,8.8,W,D1B
$PSSN,HRP,060520.00,180324,190.198,,0.797,0.903,,0.956,21,2,8.837,W16
$GNRMC,060521.00,A,3737.7556026,N,12704.7384729,E,0.3,,180324,8.8,W,D1C
$PSSN,HRP,060521.00,180324,190.134,,-0.153,0.917,,0.966,16,2,8.837,W30
$GNRMC,060522.00,A,3737.7555808,N,12704.7384284,E,1.0,,180324,8.8,W,D18
$PSSN,HRP,060522.00,180324,191.823,,-15.044,1.012,,1.041,18,2,8.837,W00
$GNRMC,060523.00,A,3737.7556524,N,12704.7384418,E,0.0,,180324,8.8,W,D1B
$PSSN,HRP,060523.00,180324,189.227,,-0.358,0.906,,0.976,19,2,8.837,W3C
$GNRMC,060524.00,A,3737.7555687,N,12704.7384456,E,0.7,192.6,180324,8.8,W,D3A
$PSSN,HRP,060524.00,180324,188.511,,-23.703,1.105,,1.086,19,2,8.837,W0E
$GNRMC,060525.00,A,3737.7556571,N,12704.7384452,E,0.1,12.0,180324,8.8,W,D0F
$PSSN,HRP,060525.00,180324,187.427,,-2.289,1.201,,1.280,20,2,8.837,W39
$GNRMC,060526.00,A,3737.7556464,N,12704.7384379,E,0.1,,180324,8.8,W,D1A
$PSSN,HRP,060526.00,180324,188.580,,-0.643,1.027,,1.152,22,2,8.837,W31
$GNRMC,060527.00,A,3737.7555633,N,12704.7384423,E,0.7,,180324,8.8,W,D16
$PSSN,HRP,060527.00,180324,188.167,,-24.736,1.275,,1.246,21,2,8.837,W08
$GNRMC,060528.00,A,3737.7556585,N,12704.7384194,E,0.1,,180324,8.8,W,D1B
$PSSN,HRP,060528.00,180324,188.105,,-0.139,1.089,,1.122,23,2,8.837,W3E
$GNRMC,060529.00,A,3737.7555783,N,12704.7384138,E,1.2,191.7,180324,8.8,W,D39
$PSSN,HRP,060529.00,180324,187.497,,-23.231,1.249,,1.182,23,2,8.837,W00
$GNRMC,060530.00,A,3737.7556393,N,12704.7384186,E,0.7,9.4,180324,8.8,W,D35
$PSSN,HRP,060530.00,180324,186.422,,-10.688,1.232,,1.237,23,2,8.837,W00
$GNRMC,060531.00,A,3737.7556550,N,12704.7384158,E,0.0,,180324,8.8,W,D1A
$PSSN,HRP,060531.00,180324,188.547,,-0.127,1.036,,1.132,22,2,8.837,W3F
$GNRMC,060532.00,A,3737.7555364,N,12704.7384185,E,0.3,185.6,180324,8.8,W,D3C
$PSSN,HRP,060532.00,180324,186.498,,-31.275,1.266,,1.116,23,2,8.837,W07
$GNRMC,060533.00,A,3737.7556665,N,12704.7384395,E,0.2,20.6,180324,8.8,W,D06
$PSSN,HRP,060533.00,180324,188.213,,-0.379,1.168,,1.193,23,2,8.837,W32
$GNRMC,060534.00,A,3737.7555551,N,12704.7384034,E,0.8,192.0,180324,8.8,W,D3A
$PSSN,HRP,060534.00,180324,185.744,,-29.655,1.404,,1.207,21,2,8.837,W0C
$GNRMC,060535.00,A,3737.7556669,N,12704.7384432,E,0.4,20.2,180324,8.8,W,D04
$PSSN,HRP,060535.00,180324,186.837,,-5.371,1.238,,1.251,22,2,8.837,W31
$GNRMC,060536.00,A,3737.7556188,N,12704.7384194,E,0.9,,180324,8.8,W,D15
$PSSN,HRP,060536.00,180324,188.582,,-14.948,1.236,,1.244,22,2,8.837,W05
$GNRMC,060537.00,A,3737.7556228,N,12704.7384239,E,1.1,6.2,180324,8.8,W,D3A
$PSSN,HRP,060537.00,180324,187.929,,-13.409,1.274,,1.267,22,2,8.837,W0E
$GNRMC,060538.00,A,3737.7556547,N,12704.7384210,E,0.1,,180324,8.8,W,D1B
$PSSN,HRP,060538.00,180324,188.946,,-0.821,1.106,,1.186,22,2,8.837,W39
$GNRMC,060539.00,A,3737.7555531,N,12704.7384305,E,0.7,175.7,180324,8.8,W,D31
$PSSN,HRP,060539.00,180324,185.504,,-29.284,1.369,,1.209,22,2,8.837,W0E
$GNRMC,060540.00,A,3737.7556620,N,12704.7384262,E,0.1,,180324,8.8,W,D13
$PSSN,HRP,060540.00,180324,188.299,,-0.742,1.167,,1.226,22,2,8.837,W3B
$GNRMC,060541.00,A,3737.7555321,N,12704.7383892,E,0.2,186.7,180324,8.8,W,D32
$PSSN,HRP,060541.00,180324,184.493,,-32.508,1.250,,1.089,22,2,8.837,W07
$GNRMC,060542.00,A,3737.7556457,N,12704.7384168,E,0.1,,180324,8.8,W,D1A
$PSSN,HRP,060542.00,180324,187.947,,-1.221,1.189,,1.236,22,2,8.837,W3E
$GNRMC,060543.00,A,3737.7555199,N,12704.7383981,E,0.3,194.2,180324,8.8,W,D35
$PSSN,HRP,060543.00,180324,184.102,,-33.600,1.260,,1.067,22,2,8.837,W01
$GNRMC,060544.00,A,3737.7556501,N,12704.7384109,E,0.2,,180324,8.8,W,D1A
$PSSN,HRP,060544.00,180324,187.256,,-1.308,1.195,,1.219,23,2,8.837,W38
$GNRMC,060545.00,A,3737.7556029,N,12704.7384008,E,0.1,,180324,8.8,W,D17
$PSSN,HRP,060545.00,180324,186.764,,-2.249,1.057,,1.158,22,2,8.837,W33
$GNRMC,060546.00,A,3737.7555955,N,12704.7384116,E,0.1,,180324,8.8,W,D1B
$PSSN,HRP,060546.00,180324,188.010,,0.392,1.078,,1.188,19,2,8.837,W1A
$GNRMC,060547.00,A,3737.7555988,N,12704.7384058,E,0.0,,180324,8.8,W,D10
$PSSN,HRP,060547.00,180324,189.104,,0.668,1.043,,1.166,21,2,8.837,W1D
$GNRMC,060548.00,A,3737.7555973,N,12704.7383996,E,0.0,,180324,8.8,W,D17
$PSSN,HRP,060548.00,180324,189.186,,0.674,1.038,,1.145,21,2,8.837,W18
$GNRMC,060549.00,A,3737.7555984,N,12704.7384007,E,0.0,,180324,8.8,W,D18
$PSSN,HRP,060549.00,180324,189.725,,1.012,0.795,,0.926,21,2,8.837,W1C
$GNRMC,060550.00,A,3737.7555994,N,12704.7384100,E,0.0,,180324,8.8,W,D17
$PSSN,HRP,060550.00,180324,189.630,,1.197,0.748,,0.882,23,2,8.837,W10
$GNRMC,060551.00,A,3737.7555991,N,12704.7384020,E,0.0,,180324,8.8,W,D10
$PSSN,HRP,060551.00,180324,189.770,,1.180,0.747,,0.878,23,2,8.837,W18
$GNRMC,060552.00,A,3737.7555991,N,12704.7384019,E,0.0,,180324,8.8,W,D19
$PSSN,HRP,060552.00,180324,189.565,,1.249,0.752,,0.881,24,2,8.837,W1E
$GNRMC,060553.00,A,3737.7555983,N,12704.7383987,E,0.0,,180324,8.8,W,D12
$PSSN,HRP,060553.00,180324,189.410,,1.047,0.757,,0.887,23,2,8.837,W14
$GNRMC,060554.00,A,3737.7555972,N,12704.7383948,E,0.0,,180324,8.8,W,D18
$PSSN,HRP,060554.00,180324,189.642,,1.154,0.751,,0.881,23,2,8.837,W15
$GNRMC,060555.00,A,3737.7556000,N,12704.7383903,E,0.0,,180324,8.8,W,D19
$PSSN,HRP,060555.00,180324,189.553,,1.226,0.752,,0.881,23,2,8.837,W12
$GNRMC,060556.00,A,3737.7556013,N,12704.7383891,E,0.0,,180324,8.8,W,D12
$PSSN,HRP,060556.00,180324,189.577,,1.208,0.752,,0.882,23,2,8.837,W18
$GNRMC,060557.00,A,3737.7556027,N,12704.7384018,E,0.0,,180324,8.8,W,D1A
$PSSN,HRP,060557.00,180324,189.757,,1.346,0.759,,0.887,23,2,8.837,W1C
$GNRMC,060558.00,A,3737.7556014,N,12704.7383913,E,0.0,,180324,8.8,W,D10
$PSSN,HRP,060558.00,180324,189.467,,1.130,0.761,,0.890,23,2,8.837,W1D
$GNRMC,060559.00,A,3737.7556030,N,12704.7383936,E,0.0,,180324,8.8,W,D10
$PSSN,HRP,060559.00,180324,189.355,,0.985,0.704,,0.867,24,2,8.837,W11
$GNRMC,060600.00,A,3737.7556035,N,12704.7384010,E,0.0,,180324,8.8,W,D10
$PSSN,HRP,060600.00,180324,189.484,,1.321,0.707,,0.870,24,2,8.837,W15
$GNRMC,060601.00,A,3737.7556007,N,12704.7384076,E,0.0,,180324,8.8,W,D*10