$GNRMC,025346.00,A,3737.7554895,N,12704.7384195,E,0.0,,190324,8.8,W,D*1B
$PSSN,HRP,025346.00,190324,192.745,,1.940,1.305,,1.290,17,2,8.837,W*19
$GNRMC,025346.50,A,3737.7554895,N,12704.7384160,E,0.0,,190324,8.8,W,D*14
$PSSN,HRP,025346.50,190324,192.624,,1.751,1.303,,1.288,17,2,8.837,W*1B
$GNRMC,025347.00,A,3737.7554887,N,12704.7384293,E,0.0,,190324,8.8,W,D*1C
$PSSN,HRP,025347.00,190324,192.504,,1.735,1.282,,1.266,17,2,8.837,W*14
$GNRMC,025347.50,A,3737.7554888,N,12704.7384209,E,0.0,,190324,8.8,W,D*15
$PSSN,HRP,025347.50,190324,192.548,,1.685,1.295,,1.281,17,2,8.837,W*1C
$GNRMC,025348.00,A,3737.7554888,N,12704.7384184,E,0.0,,190324,8.8,W,D*19
$PSSN,HRP,025348.00,190324,192.521,,1.542,1.309,,1.298,16,2,8.837,W*1C
$GNRMC,025348.50,A,3737.7554861,N,12704.7384156,E,0.0,,190324,8.8,W,D*14
$PSSN,HRP,025348.50,190324,192.308,,1.354,1.323,,1.316,17,2,8.837,W*1B
$GNRMC,025349.00,A,3737.7554837,N,12704.7384078,E,0.0,,190324,8.8,W,D*1E
$PSSN,HRP,025349.00,190324,191.987,,1.262,1.314,,1.305,16,2,8.837,W*12
$GNRMC,025349.50,A,3737.7554832,N,12704.7384138,E,0.0,,190324,8.8,W,D*1B
$PSSN,HRP,025349.50,190324,192.042,,1.174,1.314,,1.309,17,2,8.837,W*1D
$GNRMC,025350.00,A,3737.7554834,N,12704.7384202,E,0.0,,190324,8.8,W,D*1A
$PSSN,HRP,025350.00,190324,192.098,,1.340,1.316,,1.312,17,2,8.837,W*1A
$GNRMC,025350.50,A,3737.7554817,N,12704.7384236,E,0.0,,190324,8.8,W,D*19
$PSSN,HRP,025350.50,190324,192.150,,1.308,1.304,,1.299,17,2,8.837,W*17
$GNRMC,025351.00,A,3737.7554805,N,12704.7384288,E,0.0,,190324,8.8,W,D*1B
$PSSN,HRP,025351.00,190324,192.207,,1.312,1.278,,1.267,16,2,8.837,W*13
$GNRMC,025351.50,A,3737.7554798,N,12704.7384359,E,0.0,,190324,8.8,W,D*18
$PSSN,HRP,025351.50,190324,192.240,,1.361,1.287,,1.277,16,2,8.837,W*10
$GNRMC,025352.00,A,3737.7554782,N,12704.7384382,E,0.0,,190324,8.8,W,D*13
$PSSN,HRP,025352.00,190324,192.406,,1.357,1.295,,1.289,16,2,8.837,W*15
$GNRMC,025352.50,A,3737.7554790,N,12704.7384408,E,0.0,,190324,8.8,W,D*10
$PSSN,HRP,025352.50,190324,191.981,,1.131,1.308,,1.302,17,2,8.837,W*15
$GNRMC,025353.00,A,3737.7554788,N,12704.7384334,E,0.0,,190324,8.8,W,D*15
$PSSN,HRP,025353.00,190324,191.800,,1.079,1.308,,1.299,16,2,8.837,W*16
$GNRMC,025353.50,A,3737.7554809,N,12704.7384353,E,0.0,,190324,8.8,W,D*17
$PSSN,HRP,025353.50,190324,191.396,,0.556,1.457,,1.457,15,2,8.837,W*14
$GNRMC,025354.00,A,3737.7554833,N,12704.7384387,E,0.0,,190324,8.8,W,D*15
$PSSN,HRP,025354.00,190324,190.893,,-0.057,1.628,,1.628,15,2,8.837,W*30
$GNRMC,025354.50,A,3737.7554786,N,12704.7384536,E,0.0,,190324,8.8,W,D*1D
$PSSN,HRP,025354.50,190324,190.424,,-0.183,1.758,,1.751,15,2,8.837,W*34
$GNRMC,025355.00,A,3737.7554763,N,12704.7384502,E,0.1,,190324,8.8,W,D*14
$PSSN,HRP,025355.00,190324,190.575,,-0.774,1.632,,1.636,14,2,8.837,W*37
$GNRMC,025355.50,A,3737.7554818,N,12704.7384554,E,0.1,,190324,8.8,W,D*11
$PSSN,HRP,025355.50,190324,190.834,,-0.718,1.624,,1.629,16,2,8.837,W*3B
$GNRMC,025356.00,A,3737.7554845,N,12704.7384585,E,0.2,,190324,8.8,W,D*10
$PSSN,HRP,025356.00,190324,190.993,,0.028,1.629,,1.628,15,2,8.837,W*17
$GNRMC,025356.50,A,3737.7554903,N,12704.7384649,E,0.1,,190324,8.8,W,D*16
$PSSN,HRP,025356.50,190324,191.150,,0.579,1.610,,1.611,16,2,8.837,W*16
$GNRMC,025357.00,A,3737.7554889,N,12704.7384522,E,0.2,,190324,8.8,W,D*1C
$PSSN,HRP,025357.00,190324,191.157,,0.668,1.606,,1.606,16,2,8.837,W*17
$GNRMC,025357.50,A,3737.7554971,N,12704.7383654,E,0.4,272.6,190324,8.8,W,D*33
$PSSN,HRP,025357.50,190324,185.095,,1.301,1.653,,1.631,14,2,8.837,W*15
$GNRMC,025358.00,A,3737.7554940,N,12704.7383576,E,0.0,,190324,8.8,W,D*13
$PSSN,HRP,025358.00,190324,184.096,,1.113,1.692,,1.672,14,2,8.837,W*16
$GNRMC,025358.50,A,3737.7555205,N,12704.7383281,E,0.2,,190324,8.8,W,D*10
$PSSN,HRP,025358.50,190324,185.128,,1.820,1.842,,1.801,14,2,8.837,W*16
$GNRMC,025359.00,A,3737.7555050,N,12704.7383797,E,0.2,112.4,190324,8.8,W,D*3C
$PSSN,HRP,025359.00,190324,191.742,,1.970,2.075,,2.034,14,2,8.837,W*1B
$GNRMC,025359.50,A,3737.7555080,N,12704.7384446,E,0.0,,190324,8.8,W,D*16
$PSSN,HRP,025359.50,190324,193.249,,1.150,2.169,,2.147,16,2,8.837,W*13
$GNRMC,025400.00,A,3737.7555081,N,12704.7384433,E,0.1,,190324,8.8,W,D*1A
$PSSN,HRP,025400.00,190324,192.394,,0.778,2.142,,2.099,16,2,8.837,W*1B
$GNRMC,025400.50,A,3737.7555078,N,12704.7384419,E,0.0,,190324,8.8,W,D*10
$PSSN,HRP,025400.50,190324,192.237,,0.405,1.975,,1.923,15,2,8.837,W*18
$GNRMC,025401.00,A,3737.7555097,N,12704.7384375,E,0.0,,190324,8.8,W,D*18
$PSSN,HRP,025401.00,190324,191.476,,0.271,1.604,,1.603,15,2,8.837,W*1D
$GNRMC,025401.50,A,3737.7555079,N,12704.7383939,E,0.5,263.1,190324,8.8,W,D*35
$PSSN,HRP,025401.50,190324,188.795,,0.304,1.660,,1.620,14,2,8.837,W*1F
$GNRMC,025402.00,A,3737.7555240,N,12704.7383414,E,0.2,277.1,190324,8.8,W,D*3B
$PSSN,HRP,025402.00,190324,183.649,,0.354,1.682,,1.606,14,2,8.837,W*1F
$GNRMC,025402.50,A,3737.7555245,N,12704.7383591,E,0.0,,190324,8.8,W,D*18
$PSSN,HRP,025402.50,190324,184.073,,0.973,1.768,,1.702,14,2,8.837,W*1D
$GNRMC,025403.00,A,3737.7555278,N,12704.7383623,E,0.1,,190324,8.8,W,D*19
$PSSN,HRP,025403.00,190324,185.880,,1.440,2.078,,2.014,14,2,8.837,W*16
$GNRMC,025403.50,A,3737.7554850,N,12704.7383954,E,0.4,138.8,190324,8.8,W,D*3B
$PSSN,HRP,025403.50,190324,190.076,,1.629,2.272,,2.188,17,2,8.837,W*14
$GNRMC,025404.00,A,3737.7554854,N,12704.7384427,E,0.0,,190324,8.8,W,D*1B
$PSSN,HRP,025404.00,190324,193.426,,1.539,1.974,,1.961,17,2,8.837,W*14
$GNRMC,025404.50,A,3737.7554849,N,12704.7384465,E,0.1,,190324,8.8,W,D*15
$PSSN,HRP,025404.50,190324,192.903,,1.330,1.810,,1.780,14,2,8.837,W*14
$GNRMC,025405.00,A,3737.7554865,N,12704.7384579,E,0.0,,190324,8.8,W,D*12
$PSSN,HRP,025405.00,190324,191.970,,0.947,1.641,,1.569,14,2,8.837,W*13
$GNRMC,025405.50,A,3737.7555066,N,12704.7384160,E,0.9,299.8,190324,8.8,W,D*3C
$PSSN,HRP,025405.50,190324,187.270,,1.023,1.733,,1.623,13,2,8.837,W*1E
$GNRMC,025406.00,A,3737.7555092,N,12704.7383920,E,0.1,285.8,190324,8.8,W,D*3F
$PSSN,HRP,025406.00,190324,182.729,,0.470,1.680,,1.645,13,2,8.837,W*1E
$GNRMC,025406.50,A,3737.7555033,N,12704.7383712,E,0.1,,190324,8.8,W,D*17
$PSSN,HRP,025406.50,190324,183.091,,1.422,1.803,,1.771,14,2,8.837,W*1C
$GNRMC,025407.00,A,3737.7555017,N,12704.7383736,E,0.0,,190324,8.8,W,D*12
$PSSN,HRP,025407.00,190324,184.415,,2.542,2.040,,2.008,14,2,8.837,W*15
$GNRMC,025407.50,A,3737.7554952,N,12704.7383678,E,0.2,,190324,8.8,W,D*17
$PSSN,HRP,025407.50,190324,187.810,,3.062,2.176,,2.127,16,2,8.837,W*16
$GNRMC,025408.00,A,3737.7554835,N,12704.7384101,E,0.1,106.4,190324,8.8,W,D*3D
$PSSN,HRP,025408.00,190324,192.767,,2.655,1.985,,1.973,15,2,8.837,W*1A
$GNRMC,025408.50,A,3737.7554749,N,12704.7384600,E,0.0,,190324,8.8,W,D*16
$PSSN,HRP,025408.50,190324,192.899,,1.814,2.007,,1.993,15,2,8.837,W*17
$GNRMC,025409.00,A,3737.7554745,N,12704.7384599,E,0.1,,190324,8.8,W,D*1C
$PSSN,HRP,025409.00,190324,191.826,,0.653,2.152,,2.085,15,2,8.837,W*14
$GNRMC,025409.50,A,3737.7554835,N,12704.7384739,E,0.0,,190324,8.8,W,D*18
$PSSN,HRP,025409.50,190324,191.906,,0.871,2.257,,2.145,15,2,8.837,W*17
$GNRMC,025410.00,A,3737.7554828,N,12704.7384799,E,0.1,,190324,8.8,W,D*12
$PSSN,HRP,025410.00,190324,192.221,,0.808,2.249,,2.147,15,2,8.837,W*14
$GNRMC,025410.50,A,3737.7554807,N,12704.7384436,E,0.5,,190324,8.8,W,D*18
$PSSN,HRP,025410.50,190324,189.938,,0.701,2.016,,1.950,15,2,8.837,W*1B
$GNRMC,025411.00,A,3737.7554899,N,12704.7383876,E,0.0,,190324,8.8,W,D*11
$PSSN,HRP,025411.00,190324,184.075,,0.787,1.668,,1.634,15,2,8.837,W*1D
$GNRMC,025411.50,A,3737.7554998,N,12704.7383561,E,0.1,,190324,8.8,W,D*1E
$PSSN,HRP,025411.50,190324,181.847,,1.873,1.801,,1.760,14,2,8.837,W*11
$GNRMC,025412.00,A,3737.7554990,N,12704.7383596,E,0.0,,190324,8.8,W,D*19
$PSSN,HRP,025412.00,190324,182.605,,2.498,2.084,,2.045,14,2,8.837,W*13
$GNRMC,025412.50,A,3737.7556041,N,12704.7383805,E,0.3,,190324,8.8,W,D*1F
$PSSN,HRP,025412.50,190324,184.534,,2.972,2.271,,2.216,16,2,8.837,W*16
$GNRMC,025413.00,A,3737.7556044,N,12704.7384079,E,0.3,,190324,8.8,W,D*1A
$PSSN,HRP,025413.00,190324,188.665,,3.202,2.046,,2.042,16,2,8.837,W*11
$GNRMC,025413.50,A,3737.7556078,N,12704.7384634,E,0.2,93.9,190324,8.8,W,D*03
$PSSN,HRP,025413.50,190324,192.295,,2.100,1.769,,1.807,15,2,8.837,W*14
$GNRMC,025414.00,A,3737.7556373,N,12704.7384872,E,0.0,,190324,8.8,W,D*1A
$PSSN,HRP,025414.00,190324,192.168,,1.153,1.480,,1.576,15,2,8.837,W*1D
$GNRMC,025414.50,A,3737.7556512,N,12704.7384962,E,0.0,,190324,8.8,W,D*1E
$PSSN,HRP,025414.50,190324,191.775,,0.938,1.519,,1.590,15,2,8.837,W*1C
$GNRMC,025415.00,A,3737.7556473,N,12704.7385049,E,0.0,,190324,8.8,W,D*1D
$PSSN,HRP,025415.00,190324,190.834,,0.679,1.631,,1.621,15,2,8.837,W*19
$GNRMC,025415.50,A,3737.7556454,N,12704.7384862,E,0.5,,190324,8.8,W,D*18
$PSSN,HRP,025415.50,190324,189.100,,0.757,1.723,,1.646,15,2,8.837,W*14
$GNRMC,025416.00,A,3737.7556413,N,12704.7384247,E,0.3,265.6,190324,8.8,W,D*3F
$PSSN,HRP,025416.00,190324,184.003,,0.733,1.648,,1.623,15,2,8.837,W*10
$GNRMC,025416.50,A,3737.7556346,N,12704.7384078,E,0.1,,190324,8.8,W,D*18
$PSSN,HRP,025416.50,190324,182.600,,1.409,1.570,,1.609,14,2,8.837,W*1C
$GNRMC,025417.00,A,3737.7556333,N,12704.7384089,E,0.0,,190324,8.8,W,D*11
$PSSN,HRP,025417.00,190324,182.984,,2.059,1.487,,1.581,14,2,8.837,W*13
$GNRMC,025417.50,A,3737.7556196,N,12704.7383398,E,0.3,,190324,8.8,W,D*1E
$PSSN,HRP,025417.50,190324,186.258,,2.465,1.444,,1.528,16,2,8.837,W*1D
$GNRMC,025418.00,A,3737.7556108,N,12704.7383782,E,0.3,101.4,190324,8.8,W,D*36
$PSSN,HRP,025418.00,190324,190.842,,3.088,1.433,,1.485,16,2,8.837,W*11
$GNRMC,025418.50,A,3737.7556017,N,12704.7384290,E,0.1,,190324,8.8,W,D*15
$PSSN,HRP,025418.50,190324,192.727,,1.976,1.435,,1.469,16,2,8.837,W*14
$GNRMC,025419.00,A,3737.7555916,N,12704.7384591,E,0.0,,190324,8.8,W,D*1D
$PSSN,HRP,025419.00,190324,191.974,,0.860,1.492,,1.529,15,2,8.837,W*17
$GNRMC,025419.50,A,3737.7555872,N,12704.7384635,E,0.0,,190324,8.8,W,D*16
$PSSN,HRP,025419.50,190324,191.875,,0.882,1.590,,1.594,13,2,8.837,W*1D
$GNRMC,025420.00,A,3737.7555835,N,12704.7384560,E,0.0,,190324,8.8,W,D*19
$PSSN,HRP,025420.00,190324,191.798,,0.936,1.622,,1.606,13,2,8.837,W*12
$GNRMC,025420.50,A,3737.7555837,N,12704.7384613,E,0.0,,190324,8.8,W,D*19
$PSSN,HRP,025420.50,190324,191.818,,0.889,1.621,,1.596,16,2,8.837,W*19
$GNRMC,025421.00,A,3737.7555968,N,12704.7384210,E,0.6,,190324,8.8,W,D*17
$PSSN,HRP,025421.00,190324,187.475,,1.097,1.664,,1.626,16,2,8.837,W*12
$GNRMC,025421.50,A,3737.7555973,N,12704.7383634,E,0.3,276.5,190324,8.8,W,D*30
$PSSN,HRP,025421.50,190324,183.229,,1.320,1.632,,1.605,15,2,8.837,W*12
$GNRMC,025422.00,A,3737.7555930,N,12704.7383408,E,0.0,,190324,8.8,W,D*17
$PSSN,HRP,025422.00,190324,181.844,,1.406,1.579,,1.586,15,2,8.837,W*10
$GNRMC,025422.50,A,3737.7556078,N,12704.7383305,E,0.2,,190324,8.8,W,D*1C
$PSSN,HRP,025422.50,190324,183.509,,2.074,1.727,,1.719,16,2,8.837,W*1F
$GNRMC,025423.00,A,3737.7556106,N,12704.7383622,E,0.2,,190324,8.8,W,D*10
$PSSN,HRP,025423.00,190324,187.518,,3.123,2.057,,2.028,16,2,8.837,W*18
$GNRMC,025423.50,A,3737.7556053,N,12704.7384091,E,0.2,98.7,190324,8.8,W,D*05
$PSSN,HRP,025423.50,190324,190.478,,2.663,2.199,,2.176,16,2,8.837,W*17
$GNRMC,025424.00,A,3737.7555941,N,12704.7384248,E,0.2,,190324,8.8,W,D*10
$PSSN,HRP,025424.00,190324,192.532,,1.977,1.964,,1.964,15,2,8.837,W*13
$GNRMC,025424.50,A,3737.7555916,N,12704.7384520,E,0.1,,190324,8.8,W,D*1D
$PSSN,HRP,025424.50,190324,192.560,,1.203,1.748,,1.740,15,2,8.837,W*11
$GNRMC,025425.00,A,3737.7555901,N,12704.7384615,E,0.0,,190324,8.8,W,D*1B
$PSSN,HRP,025425.00,190324,191.876,,0.778,1.642,,1.624,15,2,8.837,W*1C
$GNRMC,025425.50,A,3737.7555897,N,12704.7384778,E,0.0,,190324,8.8,W,D*1A
$PSSN,HRP,025425.50,190324,191.582,,0.528,1.624,,1.608,15,2,8.837,W*16
$GNRMC,025426.00,A,3737.7555963,N,12704.7384494,E,0.5,,190324,8.8,W,D*12
$PSSN,HRP,025426.00,190324,188.353,,0.534,1.654,,1.622,15,2,8.837,W*10
$GNRMC,025426.50,A,3737.7556059,N,12704.7383898,E,0.3,276.0,190324,8.8,W,D*38
$PSSN,HRP,025426.50,190324,183.897,,0.768,1.627,,1.590,13,2,8.837,W*1E
$GNRMC,025427.00,A,3737.7556037,N,12704.7383433,E,0.1,,190324,8.8,W,D*16
$PSSN,HRP,025427.00,190324,182.055,,0.921,1.578,,1.576,13,2,8.837,W*1F
$GNRMC,025427.50,A,3737.7556077,N,12704.7383484,E,0.0,,190324,8.8,W,D*1A
$PSSN,HRP,025427.50,190324,183.038,,1.911,1.782,,1.784,16,2,8.837,W*1F
$GNRMC,025428.00,A,3737.7556112,N,12704.7383671,E,0.3,,190324,8.8,W,D*19
$PSSN,HRP,025428.00,190324,185.971,,2.573,2.015,,1.989,16,2,8.837,W*15
$GNRMC,025428.50,A,3737.7556106,N,12704.7384127,E,0.5,96.8,190324,8.8,W,D*05
$PSSN,HRP,025428.50,190324,190.590,,2.675,2.165,,2.148,16,2,8.837,W*12
$GNRMC,025429.00,A,3737.7555997,N,12704.7384352,E,0.1,,190324,8.8,W,D*1F
$PSSN,HRP,025429.00,190324,192.762,,2.807,1.947,,1.951,15,2,8.837,W*1B
$GNRMC,025429.50,A,3737.7555964,N,12704.7384595,E,0.1,,190324,8.8,W,D*1B
$PSSN,HRP,025429.50,190324,192.847,,1.867,1.707,,1.712,16,2,8.837,W*13
$GNRMC,025430.00,A,3737.7555953,N,12704.7384730,E,0.0,,190324,8.8,W,D*1E
$PSSN,HRP,025430.00,190324,192.216,,1.042,1.582,,1.585,16,2,8.837,W*1C
$GNRMC,025430.50,A,3737.7555942,N,12704.7384759,E,0.0,,190324,8.8,W,D*14
$PSSN,HRP,025430.50,190324,191.637,,0.446,1.555,,1.536,16,2,8.837,W*1E
$GNRMC,025431.00,A,3737.7555925,N,12704.7384728,E,0.0,,190324,8.8,W,D*17
$PSSN,HRP,025431.00,190324,191.127,,0.240,1.542,,1.507,16,2,8.837,W*18
$GNRMC,025431.50,A,3737.7555938,N,12704.7384747,E,0.1,,190324,8.8,W,D*16
$PSSN,HRP,025431.50,190324,191.378,,0.226,1.534,,1.482,16,2,8.837,W*18
$GNRMC,025432.00,A,3737.7556029,N,12704.7384078,E,0.5,284.1,190324,8.8,W,D*34
$PSSN,HRP,025432.00,190324,186.635,,0.664,1.575,,1.495,16,2,8.837,W*15
$GNRMC,025432.50,A,3737.7556084,N,12704.7383519,E,0.2,275.6,190324,8.8,W,D*3D
$PSSN,HRP,025432.50,190324,181.823,,0.939,1.487,,1.396,16,2,8.837,W*11
$GNRMC,025433.00,A,3737.7556085,N,12704.7383551,E,0.1,,190324,8.8,W,D*1F
$PSSN,HRP,025433.00,190324,181.684,,1.167,1.360,,1.290,16,2,8.837,W*1D
$GNRMC,025433.50,A,3737.7556062,N,12704.7383317,E,0.1,,190324,8.8,W,D*17
$PSSN,HRP,025433.50,190324,182.569,,2.110,1.553,,1.508,14,2,8.837,W*1A
$GNRMC,025434.00,A,3737.7556092,N,12704.7383561,E,0.3,,190324,8.8,W,D*1F
$PSSN,HRP,025434.00,190324,185.178,,2.905,2.046,,2.024,14,2,8.837,W*1D
$GNRMC,025434.50,A,3737.7556146,N,12704.7383799,E,0.3,,190324,8.8,W,D*17
$PSSN,HRP,025434.50,190324,188.300,,2.991,2.258,,2.264,16,2,8.837,W*1C
$GNRMC,025435.00,A,3737.7556060,N,12704.7384320,E,0.1,101.8,190324,8.8,W,D*33
$PSSN,HRP,025435.00,190324,191.831,,2.981,1.990,,1.990,16,2,8.837,W*17
$GNRMC,025435.50,A,3737.7555918,N,12704.7384709,E,0.0,,190324,8.8,W,D*1B
$PSSN,HRP,025435.50,190324,192.757,,1.743,1.699,,1.718,15,2,8.837,W*16
$GNRMC,025436.00,A,3737.7555858,N,12704.7384857,E,0.0,,190324,8.8,W,D*1C
$PSSN,HRP,025436.00,190324,191.882,,0.557,1.556,,1.576,14,2,8.837,W*19
$GNRMC,025436.50,A,3737.7555896,N,12704.7384871,E,0.0,,190324,8.8,W,D*1F
$PSSN,HRP,025436.50,190324,191.744,,0.666,1.566,,1.577,15,2,8.837,W*1B
$GNRMC,025437.00,A,3737.7555967,N,12704.7384882,E,0.0,,190324,8.8,W,D*18
$PSSN,HRP,025437.00,190324,191.581,,0.678,1.581,,1.581,15,2,8.837,W*1B
$GNRMC,025437.50,A,3737.7555962,N,12704.7384841,E,0.0,,190324,8.8,W,D*17
$PSSN,HRP,025437.50,190324,191.048,,0.187,1.541,,1.496,16,2,8.837,W*11
$GNRMC,025438.00,A,3737.7556016,N,12704.7384526,E,0.3,,190324,8.8,W,D*1B
$PSSN,HRP,025438.00,190324,188.394,,-0.285,1.508,,1.412,16,2,8.837,W*3C
$GNRMC,025438.50,A,3737.7556124,N,12704.7383890,E,0.3,274.4,190324,8.8,W,D*32
$PSSN,HRP,025438.50,190324,183.351,,-0.341,1.491,,1.386,16,2,8.837,W*39
$GNRMC,025439.00,A,3737.7556148,N,12704.7383548,E,0.2,,190324,8.8,W,D*1E
$PSSN,HRP,025439.00,190324,181.466,,-0.186,1.444,,1.373,16,2,8.837,W*37
$GNRMC,025439.50,A,3737.7556155,N,12704.7383579,E,0.1,,190324,8.8,W,D*16
$PSSN,HRP,025439.50,190324,183.005,,1.252,1.630,,1.570,17,2,8.837,W*12
$GNRMC,025440.00,A,3737.7556150,N,12704.7383782,E,0.2,,190324,8.8,W,D*1D
$PSSN,HRP,025440.00,190324,186.855,,2.411,1.873,,1.782,17,2,8.837,W*15
$GNRMC,025440.50,A,3737.7556068,N,12704.7384407,E,0.3,103.5,190324,8.8,W,D*33
$PSSN,HRP,025440.50,190324,190.122,,1.486,2.011,,1.907,16,2,8.837,W*1E
$GNRMC,025441.00,A,3737.7555934,N,12704.7384581,E,0.1,,190324,8.8,W,D*10
$PSSN,HRP,025441.00,190324,191.078,,0.676,1.807,,1.725,16,2,8.837,W*1B
$GNRMC,025441.50,A,3737.7555931,N,12704.7384630,E,0.0,,190324,8.8,W,D*18
$PSSN,HRP,025441.50,190324,191.064,,0.223,1.583,,1.493,16,2,8.837,W*18
$GNRMC,025442.00,A,3737.7555937,N,12704.7384762,E,0.0,,190324,8.8,W,D*1E
$PSSN,HRP,025442.00,190324,190.774,,-0.288,1.457,,1.360,16,2,8.837,W*36
$GNRMC,025442.50,A,3737.7555950,N,12704.7384741,E,0.0,,190324,8.8,W,D*1B
$PSSN,HRP,025442.50,190324,190.723,,-0.030,1.450,,1.353,16,2,8.837,W*37
$GNRMC,025443.00,A,3737.7555952,N,12704.7384662,E,0.0,,190324,8.8,W,D*1D
$PSSN,HRP,025443.00,190324,191.175,,0.153,1.449,,1.353,16,2,8.837,W*16
$GNRMC,025443.50,A,3737.7555931,N,12704.7384689,E,0.0,,190324,8.8,W,D*18
$PSSN,HRP,025443.50,190324,191.333,,0.201,1.464,,1.362,16,2,8.837,W*1A
$GNRMC,025444.00,A,3737.7555970,N,12704.7384121,E,0.7,294.3,190324,8.8,W,D*3F
$PSSN,HRP,025444.00,190324,186.870,,0.252,1.539,,1.403,17,2,8.837,W*1C
$GNRMC,025444.50,A,3737.7555955,N,12704.7383597,E,0.3,275.0,190324,8.8,W,D*3B
$PSSN,HRP,025444.50,190324,182.176,,0.406,1.488,,1.385,16,2,8.837,W*16
$GNRMC,025445.00,A,3737.7556004,N,12704.7383551,E,0.0,,190324,8.8,W,D*16
$PSSN,HRP,025445.00,190324,182.179,,0.562,1.350,,1.323,16,2,8.837,W*10
$GNRMC,025445.50,A,3737.7556143,N,12704.7383570,E,0.2,,190324,8.8,W,D*10
$PSSN,HRP,025445.50,190324,184.267,,1.433,1.509,,1.456,17,2,8.837,W*15
$GNRMC,025446.00,A,3737.7556145,N,12704.7383809,E,0.3,,190324,8.8,W,D*12
$PSSN,HRP,025446.00,190324,188.725,,2.343,1.872,,1.785,17,2,8.837,W*13
$GNRMC,025446.50,A,3737.7555996,N,12704.7384460,E,0.1,,190324,8.8,W,D*14
$PSSN,HRP,025446.50,190324,191.883,,1.442,2.016,,1.911,16,2,8.837,W*13
$GNRMC,025447.00,A,3737.7555955,N,12704.7384519,E,0.0,,190324,8.8,W,D*11
$PSSN,HRP,025447.00,190324,191.952,,0.741,1.793,,1.717,16,2,8.837,W*1A
$GNRMC,025447.50,A,3737.7555998,N,12704.7384952,E,0.0,,190324,8.8,W,D*16
$PSSN,HRP,025447.50,190324,191.833,,0.499,1.840,,1.738,16,2,8.837,W*13
$GNRMC,025448.00,A,3737.7555976,N,12704.7384917,E,0.0,,190324,8.8,W,D*1D
$PSSN,HRP,025448.00,190324,191.460,,0.080,1.948,,1.773,16,2,8.837,W*19
$GNRMC,025448.50,A,3737.7555949,N,12704.7384831,E,0.0,,190324,8.8,W,D*11
$PSSN,HRP,025448.50,190324,191.407,,0.055,2.012,,1.789,16,2,8.837,W*15
$GNRMC,025449.00,A,3737.7555939,N,12704.7384802,E,0.1,,190324,8.8,W,D*13
$PSSN,HRP,025449.00,190324,190.798,,-0.304,1.974,,1.784,17,2,8.837,W*39
$GNRMC,025449.50,A,3737.7556044,N,12704.7384397,E,0.7,,190324,8.8,W,D*17
$PSSN,HRP,025449.50,190324,187.832,,-0.047,1.748,,1.611,17,2,8.837,W*3D
$GNRMC,025450.00,A,3737.7556066,N,12704.7383835,E,0.2,277.7,190324,8.8,W,D*30
$PSSN,HRP,025450.00,190324,182.797,,-0.234,1.477,,1.356,16,2,8.837,W*3B
$GNRMC,025450.50,A,3737.7556121,N,12704.7383411,E,0.1,,190324,8.8,W,D*15
$PSSN,HRP,025450.50,190324,183.427,,1.211,1.626,,1.546,18,2,8.837,W*13
$GNRMC,025451.00,A,3737.7556112,N,12704.7383445,E,0.1,,190324,8.8,W,D*10
$PSSN,HRP,025451.00,190324,184.861,,3.169,2.060,,2.036,18,2,8.837,W*16
$GNRMC,025451.50,A,3737.7556141,N,12704.7383440,E,0.1,,190324,8.8,W,D*16
$PSSN,HRP,025451.50,190324,186.817,,3.094,2.192,,2.158,17,2,8.837,W*19
$GNRMC,025452.00,A,3737.7556135,N,12704.7384029,E,0.4,97.4,190324,8.8,W,D*0E
$PSSN,HRP,025452.00,190324,190.974,,3.061,1.822,,1.712,17,2,8.837,W*1C
$GNRMC,025452.50,A,3737.7555973,N,12704.7384256,E,0.2,,190324,8.8,W,D*1A
$PSSN,HRP,025452.50,190324,191.653,,1.909,1.535,,1.460,16,2,8.837,W*1B
$GNRMC,025453.00,A,3737.7555884,N,12704.7384431,E,0.0,,190324,8.8,W,D*12
$PSSN,HRP,025453.00,190324,191.627,,1.050,1.367,,1.322,15,2,8.837,W*1A
$GNRMC,025453.50,A,3737.7555917,N,12704.7384531,E,0.0,,190324,8.8,W,D*1D
$PSSN,HRP,025453.50,190324,191.758,,0.741,1.410,,1.351,16,2,8.837,W*10
$GNRMC,025454.00,A,3737.7555981,N,12704.7384659,E,0.0,,190324,8.8,W,D*1D
$PSSN,HRP,025454.00,190324,191.424,,0.433,1.463,,1.386,16,2,8.837,W*12
$GNRMC,025454.50,A,3737.7555972,N,12704.7384572,E,0.0,,190324,8.8,W,D*1E
$PSSN,HRP,025454.50,190324,191.228,,0.490,1.494,,1.395,16,2,8.837,W*1E
$GNRMC,025455.00,A,3737.7556067,N,12704.7383950,E,0.4,289.7,190324,8.8,W,D*31
$PSSN,HRP,025455.00,190324,186.408,,0.515,1.478,,1.374,16,2,8.837,W*19
$GNRMC,025455.50,A,3737.7556042,N,12704.7383586,E,0.2,275.0,190324,8.8,W,D*36
$PSSN,HRP,025455.50,190324,182.664,,0.647,1.411,,1.326,16,2,8.837,W*1C
$GNRMC,025456.00,A,3737.7556061,N,12704.7383349,E,0.0,,190324,8.8,W,D*18
$PSSN,HRP,025456.00,190324,180.974,,0.956,1.347,,1.298,16,2,8.837,W*19
$GNRMC,025456.50,A,3737.7556185,N,12704.7383066,E,0.0,,190324,8.8,W,D*18
$PSSN,HRP,025456.50,190324,181.506,,1.861,1.585,,1.513,17,2,8.837,W*1D
$GNRMC,025457.00,A,3737.7556171,N,12704.7383408,E,0.3,,190324,8.8,W,D*18
$PSSN,HRP,025457.00,190324,184.891,,2.346,1.865,,1.726,17,2,8.837,W*15
$GNRMC,025457.50,A,3737.7556148,N,12704.7383795,E,0.5,97.5,190324,8.8,W,D*03
$PSSN,HRP,025457.50,190324,189.097,,2.161,2.021,,1.880,17,2,8.837,W*1C
$GNRMC,025458.00,A,3737.7556014,N,12704.7384241,E,0.1,102.7,190324,8.8,W,D*31
$PSSN,HRP,025458.00,190324,192.334,,1.815,1.791,,1.719,16,2,8.837,W*1E
$GNRMC,025458.50,A,3737.7555961,N,12704.7384413,E,0.0,,190324,8.8,W,D*16
$PSSN,HRP,025458.50,190324,191.471,,0.760,1.578,,1.488,15,2,8.837,W*1F
$GNRMC,025459.00,A,3737.7555935,N,12704.7384529,E,0.0,,190324,8.8,W,D*1B
$PSSN,HRP,025459.00,190324,190.774,,-0.106,1.460,,1.356,15,2,8.837,W*3B
$GNRMC,025459.50,A,3737.7555966,N,12704.7384480,E,0.0,,190324,8.8,W,D*1A
$PSSN,HRP,025459.50,190324,190.283,,-0.295,1.455,,1.350,16,2,8.837,W*39
$GNRMC,025500.00,A,3737.7556027,N,12704.7383753,E,0.5,290.1,190324,8.8,W,D*36
$PSSN,HRP,025500.00,190324,185.265,,-0.303,1.514,,1.378,17,2,8.837,W*3C
$GNRMC,025500.50,A,3737.7556097,N,12704.7383459,E,0.2,274.9,190324,8.8,W,D*34
$PSSN,HRP,025500.50,190324,181.973,,0.536,1.830,,1.740,17,2,8.837,W*18
$GNRMC,025501.00,A,3737.7556082,N,12704.7383416,E,0.0,,190324,8.8,W,D*1B
$PSSN,HRP,025501.00,190324,182.264,,1.239,2.153,,2.100,17,2,8.837,W*15
$GNRMC,025501.50,A,3737.7556155,N,12704.7383552,E,0.3,,190324,8.8,W,D*17
$PSSN,HRP,025501.50,190324,185.283,,1.230,2.367,,2.306,17,2,8.837,W*16
$GNRMC,025502.00,A,3737.7556105,N,12704.7384235,E,0.4,97.8,190324,8.8,W,D*0A
$PSSN,HRP,025502.00,190324,190.547,,1.280,1.837,,1.719,16,2,8.837,W*15
$GNRMC,025502.50,A,3737.7556004,N,12704.7384501,E,0.0,,190324,8.8,W,D*13
$PSSN,HRP,025502.50,190324,191.955,,1.150,1.550,,1.472,16,2,8.837,W*12
$GNRMC,025503.00,A,3737.7555980,N,12704.7384621,E,0.0,,190324,8.8,W,D*10
$PSSN,HRP,025503.00,190324,191.584,,1.173,1.429,,1.358,15,2,8.837,W*14
$GNRMC,025503.50,A,3737.7555988,N,12704.7384632,E,0.0,,190324,8.8,W,D*1F
$PSSN,HRP,025503.50,190324,191.731,,1.263,1.523,,1.481,15,2,8.837,W*17
$GNRMC,025504.00,A,3737.7555968,N,12704.7384458,E,0.0,,190324,8.8,W,D*1D
$PSSN,HRP,025504.00,190324,191.595,,1.049,1.638,,1.630,15,2,8.837,W*12
$GNRMC,025504.50,A,3737.7556078,N,12704.7384072,E,0.4,,190324,8.8,W,D*1B
$PSSN,HRP,025504.50,190324,187.887,,1.577,1.739,,1.740,15,2,8.837,W*10
$GNRMC,025505.00,A,3737.7556141,N,12704.7383639,E,0.1,275.4,190324,8.8,W,D*35
$PSSN,HRP,025505.00,190324,184.578,,1.521,1.634,,1.612,14,2,8.837,W*12
$GNRMC,025505.50,A,3737.7556143,N,12704.7383379,E,0.0,,190324,8.8,W,D*18
$PSSN,HRP,025505.50,190324,183.747,,1.800,1.836,,1.818,15,2,8.837,W*19
$GNRMC,025506.00,A,3737.7556127,N,12704.7383428,E,0.0,,190324,8.8,W,D*1F
$PSSN,HRP,025506.00,190324,184.506,,2.086,2.080,,2.055,15,2,8.837,W*1E
$GNRMC,025506.50,A,3737.7556122,N,12704.7383640,E,0.3,,190324,8.8,W,D*10
$PSSN,HRP,025506.50,190324,187.299,,2.109,2.175,,2.095,15,2,8.837,W*18
$GNRMC,025507.00,A,3737.7555988,N,12704.7384386,E,0.1,98.0,190324,8.8,W,D*0A
$PSSN,HRP,025507.00,190324,193.046,,1.683,1.807,,1.711,14,2,8.837,W*19
$GNRMC,025507.50,A,3737.7556037,N,12704.7384755,E,0.0,,190324,8.8,W,D*15
$PSSN,HRP,025507.50,190324,192.675,,0.927,1.861,,1.749,15,2,8.837,W*17
$GNRMC,025508.00,A,3737.7556000,N,12704.7384642,E,0.0,,190324,8.8,W,D*1C
$PSSN,HRP,025508.00,190324,192.104,,0.348,1.942,,1.796,15,2,8.837,W*1D
$GNRMC,025508.50,A,3737.7555953,N,12704.7384653,E,0.0,,190324,8.8,W,D*15
$PSSN,HRP,025508.50,190324,191.848,,0.188,2.026,,1.830,16,2,8.837,W*1C
$GNRMC,025509.00,A,3737.7555941,N,12704.7384576,E,0.0,,190324,8.8,W,D*16
$PSSN,HRP,025509.00,190324,191.046,,-0.197,1.996,,1.801,16,2,8.837,W*3E
$GNRMC,025509.50,A,3737.7556017,N,12704.7383999,E,0.4,285.5,190324,8.8,W,D*30
$PSSN,HRP,025509.50,190324,186.915,,0.309,1.766,,1.611,16,2,8.837,W*14
$GNRMC,025510.00,A,3737.7556015,N,12704.7383407,E,0.2,270.9,190324,8.8,W,D*35
$PSSN,HRP,025510.00,190324,181.803,,0.378,1.516,,1.396,16,2,8.837,W*11
$GNRMC,025510.50,A,3737.7556097,N,12704.7383302,E,0.0,,190324,8.8,W,D*18
$PSSN,HRP,025510.50,190324,182.561,,1.409,1.659,,1.586,17,2,8.837,W*10
$GNRMC,025511.00,A,3737.7556109,N,12704.7383622,E,0.3,,190324,8.8,W,D*1E
$PSSN,HRP,025511.00,190324,186.568,,2.374,2.081,,2.062,17,2,8.837,W*1B
$GNRMC,025511.50,A,3737.7555996,N,12704.7384446,E,0.2,103.0,190324,8.8,W,D*3C
$PSSN,HRP,025511.50,190324,192.139,,1.992,2.252,,2.259,17,2,8.837,W*1C
$GNRMC,025512.00,A,3737.7555978,N,12704.7384598,E,0.0,,190324,8.8,W,D*16
$PSSN,HRP,025512.00,190324,192.927,,1.286,1.779,,1.680,17,2,8.837,W*1F
$GNRMC,025512.50,A,3737.7555967,N,12704.7384642,E,0.0,,190324,8.8,W,D*19
$PSSN,HRP,025512.50,190324,192.904,,1.142,1.667,,1.626,15,2,8.837,W*10
$GNRMC,025513.00,A,3737.7555963,N,12704.7384657,E,0.0,,190324,8.8,W,D*1D
$PSSN,HRP,025513.00,190324,192.257,,0.888,1.607,,1.612,15,2,8.837,W*16
$GNRMC,025513.50,A,3737.7555977,N,12704.7384620,E,0.0,,190324,8.8,W,D*1D
$PSSN,HRP,025513.50,190324,191.985,,0.729,1.607,,1.614,16,2,8.837,W*15
$GNRMC,025514.00,A,3737.7555973,N,12704.7384554,E,0.1,,190324,8.8,W,D*1A
$PSSN,HRP,025514.00,190324,191.148,,0.564,1.616,,1.616,16,2,8.837,W*17
$GNRMC,025514.50,A,3737.7556044,N,12704.7383771,E,0.4,284.6,190324,8.8,W,D*30
$PSSN,HRP,025514.50,190324,185.912,,0.803,1.641,,1.588,16,2,8.837,W*1A
$GNRMC,025515.00,A,3737.7556082,N,12704.7383410,E,0.1,271.0,190324,8.8,W,D*33
$PSSN,HRP,025515.00,190324,182.683,,0.831,1.588,,1.521,16,2,8.837,W*1A
$GNRMC,025515.50,A,3737.7556116,N,12704.7383232,E,0.2,,190324,8.8,W,D*15
$PSSN,HRP,025515.50,190324,182.550,,1.439,1.672,,1.585,17,2,8.837,W*1E
$GNRMC,025516.00,A,3737.7556137,N,12704.7383465,E,0.3,,190324,8.8,W,D*15
$PSSN,HRP,025516.00,190324,186.292,,2.066,1.855,,1.749,17,2,8.837,W*11
$GNRMC,025516.50,A,3737.7555987,N,12704.7384426,E,0.2,103.4,190324,8.8,W,D*39
$PSSN,HRP,025516.50,190324,191.857,,1.585,1.931,,1.830,17,2,8.837,W*18
$GNRMC,025517.00,A,3737.7555990,N,12704.7384582,E,0.1,,190324,8.8,W,D*1F
$PSSN,HRP,025517.00,190324,193.149,,1.463,1.773,,1.691,17,2,8.837,W*1C
$GNRMC,025517.50,A,3737.7555956,N,12704.7384575,E,0.0,,190324,8.8,W,D*19
$PSSN,HRP,025517.50,190324,193.017,,1.346,1.562,,1.472,16,2,8.837,W*1F
$GNRMC,025518.00,A,3737.7555920,N,12704.7384573,E,0.0,,190324,8.8,W,D*14
$PSSN,HRP,025518.00,190324,192.732,,1.228,1.446,,1.351,16,2,8.837,W*1C
$GNRMC,025518.50,A,3737.7555927,N,12704.7384613,E,0.0,,190324,8.8,W,D*13
$PSSN,HRP,025518.50,190324,192.297,,0.996,1.437,,1.343,16,2,8.837,W*19
$GNRMC,025519.00,A,3737.7555943,N,12704.7384615,E,0.0,,190324,8.8,W,D*13
$PSSN,HRP,025519.00,190324,191.860,,0.851,1.432,,1.341,16,2,8.837,W*11
$GNRMC,025519.50,A,3737.7556046,N,12704.7383999,E,0.5,286.9,190324,8.8,W,D*3B
$PSSN,HRP,025519.50,190324,186.954,,1.397,1.471,,1.361,16,2,8.837,W*11
$GNRMC,025520.00,A,3737.7556075,N,12704.7383527,E,0.2,275.0,190324,8.8,W,D*3F
$PSSN,HRP,025520.00,190324,183.297,,1.451,1.480,,1.368,16,2,8.837,W*15
$GNRMC,025520.50,A,3737.7556119,N,12704.7383364,E,0.0,,190324,8.8,W,D*1C
$PSSN,HRP,025520.50,190324,183.718,,2.156,1.637,,1.562,17,2,8.837,W*10
$GNRMC,025521.00,A,3737.7556131,N,12704.7383631,E,0.4,,190324,8.8,W,D*13
$PSSN,HRP,025521.00,190324,188.309,,3.242,2.067,,2.030,17,2,8.837,W*1D
$GNRMC,025521.50,A,3737.7555991,N,12704.7384449,E,0.0,102.4,190324,8.8,W,D*30
$PSSN,HRP,025521.50,190324,192.580,,1.945,2.215,,2.224,17,2,8.837,W*1A
$GNRMC,025522.00,A,3737.7555969,N,12704.7384547,E,0.1,,190324,8.8,W,D*16
$PSSN,HRP,025522.00,190324,192.671,,0.964,1.794,,1.696,17,2,8.837,W*12
$GNRMC,025522.50,A,3737.7555965,N,12704.7384583,E,0.0,,190324,8.8,W,D*16
$PSSN,HRP,025522.50,190324,192.223,,0.788,1.713,,1.656,15,2,8.837,W*19
$GNRMC,025523.00,A,3737.7555947,N,12704.7384663,E,0.0,,190324,8.8,W,D*1F
$PSSN,HRP,025523.00,190324,191.913,,0.649,1.617,,1.622,15,2,8.837,W*1C
$GNRMC,025523.50,A,3737.7555944,N,12704.7384644,E,0.0,,190324,8.8,W,D*1C
$PSSN,HRP,025523.50,190324,191.711,,0.594,1.606,,1.615,16,2,8.837,W*11
$GNRMC,025524.00,A,3737.7555936,N,12704.7384687,E,0.0,,190324,8.8,W,D*14
$PSSN,HRP,025524.00,190324,191.434,,0.624,1.601,,1.607,16,2,8.837,W*1B
$GNRMC,025524.50,A,3737.7556064,N,12704.7384201,E,0.5,,190324,8.8,W,D*13
$PSSN,HRP,025524.50,190324,187.606,,0.889,1.602,,1.565,17,2,8.837,W*16
$GNRMC,025525.00,A,3737.7556043,N,12704.7383786,E,0.3,271.3,190324,8.8,W,D*30
$PSSN,HRP,025525.00,190324,183.824,,0.883,1.585,,1.514,16,2,8.837,W*19
$GNRMC,025525.50,A,3737.7556090,N,12704.7383411,E,0.1,,190324,8.8,W,D*1D
$PSSN,HRP,025525.50,190324,183.224,,1.954,1.724,,1.644,17,2,8.837,W*12
$GNRMC,025526.00,A,3737.7556084,N,12704.7383591,E,0.3,,190324,8.8,W,D*15
$PSSN,HRP,025526.00,190324,185.616,,2.373,1.891,,1.779,17,2,8.837,W*15
$GNRMC,025526.50,A,3737.7555981,N,12704.7384508,E,0.6,99.8,190324,8.8,W,D*0B
$PSSN,HRP,025526.50,190324,191.357,,2.245,2.035,,1.908,17,2,8.837,W*1C
$GNRMC,025527.00,A,3737.7555921,N,12704.7384699,E,0.1,,190324,8.8,W,D*1F
$PSSN,HRP,025527.00,190324,193.763,,1.974,1.843,,1.777,17,2,8.837,W*1F
$GNRMC,025527.50,A,3737.7555944,N,12704.7384653,E,0.0,,190324,8.8,W,D*1E
$PSSN,HRP,025527.50,190324,192.873,,1.480,1.900,,1.793,16,2,8.837,W*1E
$GNRMC,025528.00,A,3737.7555928,N,12704.7384691,E,0.0,,190324,8.8,W,D*10
$PSSN,HRP,025528.00,190324,192.237,,1.021,1.975,,1.808,16,2,8.837,W*1E
$GNRMC,025528.50,A,3737.7555902,N,12704.7384682,E,0.0,,190324,8.8,W,D*1F
$PSSN,HRP,025528.50,190324,191.732,,0.648,2.071,,1.840,16,2,8.837,W*12
$GNRMC,025529.00,A,3737.7555899,N,12704.7384683,E,0.0,,190324,8.8,W,D*19
$PSSN,HRP,025529.00,190324,191.372,,0.465,2.045,,1.844,16,2,8.837,W*18
$GNRMC,025529.50,A,3737.7556011,N,12704.7384379,E,0.3,,190324,8.8,W,D*14
$PSSN,HRP,025529.50,190324,188.885,,0.793,1.802,,1.667,16,2,8.837,W*1B
$GNRMC,025530.00,A,3737.7556128,N,12704.7383569,E,0.2,279.0,190324,8.8,W,D*31
$PSSN,HRP,025530.00,190324,184.161,,0.721,1.497,,1.396,16,2,8.837,W*1B
$GNRMC,025530.50,A,3737.7556105,N,12704.7383454,E,0.1,,190324,8.8,W,D*15
$PSSN,HRP,025530.50,190324,183.815,,1.661,1.467,,1.437,17,2,8.837,W*15
$GNRMC,025531.00,A,3737.7556097,N,12704.7383724,E,0.2,,190324,8.8,W,D*1C
$PSSN,HRP,025531.00,190324,186.952,,2.570,1.463,,1.511,17,2,8.837,W*17
$GNRMC,025531.50,A,3737.7556075,N,12704.7384281,E,0.3,,190324,8.8,W,D*19
$PSSN,HRP,025531.50,190324,190.470,,2.158,1.474,,1.539,16,2,8.837,W*1B
$GNRMC,025532.00,A,3737.7555952,N,12704.7384616,E,0.1,,190324,8.8,W,D*18
$PSSN,HRP,025532.00,190324,193.311,,1.900,1.405,,1.470,15,2,8.837,W*11
$GNRMC,025532.50,A,3737.7555923,N,12704.7384706,E,0.1,,190324,8.8,W,D*1B
$PSSN,HRP,025532.50,190324,192.424,,1.234,1.498,,1.539,16,2,8.837,W*13
$GNRMC,025533.00,A,3737.7555891,N,12704.7384791,E,0.0,,190324,8.8,W,D*18
$PSSN,HRP,025533.00,190324,191.321,,0.449,1.613,,1.617,16,2,8.837,W*15
$GNRMC,025533.50,A,3737.7555901,N,12704.7384777,E,0.0,,190324,8.8,W,D*1D
$PSSN,HRP,025533.50,190324,191.532,,0.658,1.640,,1.598,16,2,8.837,W*14
$GNRMC,025534.00,A,3737.7555892,N,12704.7384696,E,0.0,,190324,8.8,W,D*1A
$PSSN,HRP,025534.00,190324,191.421,,0.703,1.496,,1.462,16,2,8.837,W*17
$GNRMC,025534.50,A,3737.7555985,N,12704.7384488,E,0.3,,190324,8.8,W,D*16
$PSSN,HRP,025534.50,190324,188.811,,0.811,1.525,,1.463,17,2,8.837,W*10
$GNRMC,025535.00,A,3737.7556064,N,12704.7383746,E,0.3,282.4,190324,8.8,W,D*33
$PSSN,HRP,025535.00,190324,184.250,,0.815,1.532,,1.457,15,2,8.837,W*10
$GNRMC,025535.50,A,3737.7556090,N,12704.7383542,E,0.1,,190324,8.8,W,D*1B
$PSSN,HRP,025535.50,190324,182.574,,1.333,1.490,,1.424,17,2,8.837,W*13
$GNRMC,025536.00,A,3737.7556107,N,12704.7383528,E,0.0,,190324,8.8,W,D*1F
$PSSN,HRP,025536.00,190324,182.834,,1.444,1.368,,1.355,17,2,8.837,W*1A
$GNRMC,025536.50,A,3737.7556117,N,12704.7383729,E,0.2,,190324,8.8,W,D*1A
$PSSN,HRP,025536.50,190324,186.685,,2.255,1.407,,1.424,16,2,8.837,W*14
$GNRMC,025537.00,A,3737.7556010,N,12704.7384311,E,0.3,99.6,190324,8.8,W,D*09
$PSSN,HRP,025537.00,190324,192.365,,2.590,1.448,,1.498,15,2,8.837,W*1F
$GNRMC,025537.50,A,3737.7555867,N,12704.7384629,E,0.1,,190324,8.8,W,D*13
$PSSN,HRP,025537.50,190324,193.104,,1.584,1.791,,1.836,17,2,8.837,W*15
$GNRMC,025538.00,A,3737.7555856,N,12704.7384581,E,0.0,,190324,8.8,W,D*1B
$PSSN,HRP,025538.00,190324,192.320,,0.729,2.098,,2.065,16,2,8.837,W*1F
$GNRMC,025538.50,A,3737.7555862,N,12704.7384718,E,0.0,,190324,8.8,W,D*1B
$PSSN,HRP,025538.50,190324,192.184,,0.889,2.343,,2.194,16,2,8.837,W*19
$GNRMC,025539.00,A,3737.7555867,N,12704.7384669,E,0.0,,190324,8.8,W,D*1D
$PSSN,HRP,025539.00,190324,191.993,,1.142,2.164,,2.025,16,2,8.837,W*13
$GNRMC,025539.50,A,3737.7555879,N,12704.7384746,E,0.0,,190324,8.8,W,D*1B
$PSSN,HRP,025539.50,190324,191.710,,0.908,1.757,,1.681,16,2,8.837,W*1A
$GNRMC,025540.00,A,3737.7555914,N,12704.7384739,E,0.1,,190324,8.8,W,D*13
$PSSN,HRP,025540.00,190324,190.835,,0.578,1.527,,1.478,16,2,8.837,W*12
$GNRMC,025540.50,A,3737.7556000,N,12704.7383763,E,0.5,282.1,190324,8.8,W,D*32
$PSSN,HRP,025540.50,190324,185.322,,1.112,1.584,,1.494,16,2,8.837,W*1C
$GNRMC,025541.00,A,3737.7556050,N,12704.7383364,E,0.0,272.7,190324,8.8,W,D*3C
$PSSN,HRP,025541.00,190324,182.644,,1.317,1.565,,1.484,16,2,8.837,W*13
$GNRMC,025541.50,A,3737.7556114,N,12704.7383331,E,0.0,,190324,8.8,W,D*16
$PSSN,HRP,025541.50,190324,183.637,,2.378,1.812,,1.766,15,2,8.837,W*18
$GNRMC,025542.00,A,3737.7556092,N,12704.7383456,E,0.0,,190324,8.8,W,D*19
$PSSN,HRP,025542.00,190324,185.045,,3.384,2.077,,2.064,15,2,8.837,W*17
$GNRMC,025542.50,A,3737.7556107,N,12704.7383767,E,0.2,,190324,8.8,W,D*12
$PSSN,HRP,025542.50,190324,188.393,,3.109,2.235,,2.253,16,2,8.837,W*11
$GNRMC,025543.00,A,3737.7556016,N,12704.7384311,E,0.3,106.3,190324,8.8,W,D*3E
$PSSN,HRP,025543.00,190324,192.108,,2.723,2.012,,2.018,16,2,8.837,W*1B
$GNRMC,025543.50,A,3737.7555945,N,12704.7384580,E,0.1,,190324,8.8,W,D*11
$PSSN,HRP,025543.50,190324,193.428,,2.283,1.705,,1.723,16,2,8.837,W*19
$GNRMC,025544.00,A,3737.7555878,N,12704.7384564,E,0.0,,190324,8.8,W,D*17
$PSSN,HRP,025544.00,190324,192.493,,1.697,1.554,,1.576,16,2,8.837,W*1C
$GNRMC,025544.50,A,3737.7555895,N,12704.7384619,E,0.0,,190324,8.8,W,D*18
$PSSN,HRP,025544.50,190324,191.841,,1.360,1.567,,1.584,16,2,8.837,W*19
$GNRMC,025545.00,A,3737.7555914,N,12704.7384683,E,0.0,,190324,8.8,W,D*17
$PSSN,HRP,025545.00,190324,191.502,,0.938,1.580,,1.591,16,2,8.837,W*1C
$GNRMC,025545.50,A,3737.7555911,N,12704.7384618,E,0.0,,190324,8.8,W,D*15
$PSSN,HRP,025545.50,190324,191.450,,1.112,1.553,,1.539,16,2,8.837,W*12
$GNRMC,025546.00,A,3737.7556065,N,12704.7384055,E,0.4,,190324,8.8,W,D*11
$PSSN,HRP,025546.00,190324,187.797,,1.386,1.528,,1.480,17,2,8.837,W*1A
$GNRMC,025546.50,A,3737.7556030,N,12704.7383516,E,0.2,272.8,190324,8.8,W,D*36
$PSSN,HRP,025546.50,190324,183.494,,1.211,1.464,,1.428,17,2,8.837,W*1F
$GNRMC,025547.00,A,3737.7555987,N,12704.7383509,E,0.1,,190324,8.8,W,D*18
$PSSN,HRP,025547.00,190324,182.028,,1.142,1.415,,1.392,16,2,8.837,W*1D
$GNRMC,025547.50,A,3737.7556045,N,12704.7383393,E,0.1,,190324,8.8,W,D*1C
$PSSN,HRP,025547.50,190324,183.064,,1.836,1.426,,1.454,16,2,8.837,W*16
$GNRMC,025548.00,A,3737.7556095,N,12704.7383545,E,0.3,,190324,8.8,W,D*14
$PSSN,HRP,025548.00,190324,187.390,,2.642,1.445,,1.505,16,2,8.837,W*1E
$GNRMC,025548.50,A,3737.7556024,N,12704.7384371,E,0.2,102.7,190324,8.8,W,D*36
$PSSN,HRP,025548.50,190324,191.237,,1.882,1.472,,1.547,16,2,8.837,W*13
$GNRMC,025549.00,A,3737.7555995,N,12704.7384634,E,0.0,,190324,8.8,W,D*1E
$PSSN,HRP,025549.00,190324,192.661,,1.615,1.440,,1.497,16,2,8.837,W*1E
$GNRMC,025549.50,A,3737.7555954,N,12704.7384723,E,0.0,,190324,8.8,W,D*11
$PSSN,HRP,025549.50,190324,192.416,,1.466,1.544,,1.555,17,2,8.837,W*14
$GNRMC,025550.00,A,3737.7555942,N,12704.7384760,E,0.0,,190324,8.8,W,D*1C
$PSSN,HRP,025550.00,190324,192.052,,1.448,1.630,,1.625,17,2,8.837,W*15
$GNRMC,025550.50,A,3737.7555927,N,12704.7384688,E,0.0,,190324,8.8,W,D*1D
$PSSN,HRP,025550.50,190324,191.741,,1.261,1.658,,1.630,16,2,8.837,W*10
$GNRMC,025551.00,A,3737.7555942,N,12704.7384644,E,0.0,,190324,8.8,W,D*1A
$PSSN,HRP,025551.00,190324,191.428,,1.049,1.544,,1.505,16,2,8.837,W*1B
$GNRMC,025551.50,A,3737.7556026,N,12704.7383770,E,0.4,279.3,190324,8.8,W,D*33
$PSSN,HRP,025551.50,190324,186.099,,1.005,1.553,,1.487,16,2,8.837,W*13
$GNRMC,025552.00,A,3737.7556056,N,12704.7383436,E,0.2,270.7,190324,8.8,W,D*38
$PSSN,HRP,025552.00,190324,182.674,,0.842,1.536,,1.470,16,2,8.837,W*15
$GNRMC,025552.50,A,3737.7556086,N,12704.7383152,E,0.1,,190324,8.8,W,D*18
$PSSN,HRP,025552.50,190324,182.060,,2.050,1.532,,1.518,16,2,8.837,W*11
$GNRMC,025553.00,A,3737.7556099,N,12704.7383059,E,0.0,,190324,8.8,W,D*19
$PSSN,HRP,025553.00,190324,183.304,,3.131,1.536,,1.572,16,2,8.837,W*1A
$GNRMC,025553.50,A,3737.7556107,N,12704.7383456,E,0.1,,190324,8.8,W,D*10
$PSSN,HRP,025553.50,190324,186.559,,3.040,1.540,,1.592,16,2,8.837,W*1C
$GNRMC,025554.00,A,3737.7556009,N,12704.7384410,E,0.4,100.6,190324,8.8,W,D*34
$PSSN,HRP,025554.00,190324,191.625,,2.843,1.479,,1.525,16,2,8.837,W*1D
$GNRMC,025554.50,A,3737.7555917,N,12704.7384575,E,0.1,102.3,190324,8.8,W,D*34
$PSSN,HRP,025554.50,190324,192.686,,2.122,1.486,,1.532,15,2,8.837,W*19
$GNRMC,025555.00,A,3737.7555895,N,12704.7384551,E,0.1,,190324,8.8,W,D*13
$PSSN,HRP,025555.00,190324,191.799,,1.411,1.531,,1.559,15,2,8.837,W*17
$GNRMC,025555.50,A,3737.7555896,N,12704.7384613,E,0.0,,190324,8.8,W,D*11
$PSSN,HRP,025555.50,190324,191.833,,1.037,1.589,,1.596,17,2,8.837,W*1F
$GNRMC,025556.00,A,3737.7555898,N,12704.7384607,E,0.0,,190324,8.8,W,D*1C
$PSSN,HRP,025556.00,190324,191.533,,0.749,1.601,,1.612,16,2,8.837,W*16
$GNRMC,025556.50,A,3737.7555880,N,12704.7384634,E,0.0,,190324,8.8,W,D*10
$PSSN,HRP,025556.50,190324,191.782,,0.909,1.558,,1.557,16,2,8.837,W*1C
$GNRMC,025557.00,A,3737.7556000,N,12704.7384269,E,0.3,,190324,8.8,W,D*18
$PSSN,HRP,025557.00,190324,188.500,,0.894,1.531,,1.486,17,2,8.837,W*1E
$GNRMC,025557.50,A,3737.7556004,N,12704.7383560,E,0.1,273.0,190324,8.8,W,D*3A
$PSSN,HRP,025557.50,190324,183.554,,0.583,1.496,,1.456,16,2,8.837,W*1A
$GNRMC,025558.00,A,3737.7555979,N,12704.7383389,E,0.1,,190324,8.8,W,D*19
$PSSN,HRP,025558.00,190324,182.101,,0.344,1.473,,1.436,15,2,8.837,W*16
$GNRMC,025558.50,A,3737.7556045,N,12704.7383518,E,0.4,,190324,8.8,W,D*12
$PSSN,HRP,025558.50,190324,185.526,,1.589,1.473,,1.483,16,2,8.837,W*1E
$GNRMC,025559.00,A,3737.7556067,N,12704.7384000,E,0.5,97.4,190324,8.8,W,D*08
$PSSN,HRP,025559.00,190324,190.811,,2.766,1.452,,1.512,16,2,8.837,W*1D
$GNRMC,025559.50,A,3737.7555866,N,12704.7384174,E,0.1,,190324,8.8,W,D*15
$PSSN,HRP,025559.50,190324,192.251,,2.267,1.495,,1.556,15,2,8.837,W*18
$GNRMC,025600.00,A,3737.7555828,N,12704.7384275,E,0.0,,190324,8.8,W,D*16
$PSSN,HRP,025600.00,190324,191.751,,1.552,1.542,,1.568,14,2,8.837,W*11
$GNRMC,025600.50,A,3737.7555845,N,12704.7384362,E,0.0,,190324,8.8,W,D*1F
$PSSN,HRP,025600.50,190324,191.752,,1.342,1.609,,1.596,17,2,8.837,W*1E
$GNRMC,025601.00,A,3737.7555882,N,12704.7384513,E,0.0,,190324,8.8,W,D*10
$PSSN,HRP,025601.00,190324,191.842,,1.176,1.621,,1.629,17,2,8.837,W*1C
$GNRMC,025601.50,A,3737.7555895,N,12704.7384576,E,0.0,,190324,8.8,W,D*10
$PSSN,HRP,025601.50,190324,191.581,,0.717,1.597,,1.591,17,2,8.837,W*15
$GNRMC,025602.00,A,3737.7555937,N,12704.7384539,E,0.3,,190324,8.8,W,D*17
$PSSN,HRP,025602.00,190324,189.904,,0.641,1.562,,1.518,16,2,8.837,W*13
$GNRMC,025602.50,A,3737.7555941,N,12704.7383667,E,0.7,276.0,190324,8.8,W,D*35
$PSSN,HRP,025602.50,190324,184.609,,0.673,1.573,,1.514,15,2,8.837,W*17
$GNRMC,025603.00,A,3737.7555918,N,12704.7383365,E,0.1,274.6,190324,8.8,W,D*38
$PSSN,HRP,025603.00,190324,181.668,,0.526,1.529,,1.497,14,2,8.837,W*16
$GNRMC,025603.50,A,3737.7556014,N,12704.7383357,E,0.2,,190324,8.8,W,D*10
$PSSN,HRP,025603.50,190324,184.030,,1.817,1.522,,1.520,16,2,8.837,W*17
$GNRMC,025604.00,A,3737.7556091,N,12704.7383693,E,0.5,96.9,190324,8.8,W,D*0D
$PSSN,HRP,025604.00,190324,189.863,,2.853,1.485,,1.529,16,2,8.837,W*10
$GNRMC,025604.50,A,3737.7556011,N,12704.7384226,E,0.0,,190324,8.8,W,D*10
$PSSN,HRP,025604.50,190324,191.522,,1.953,1.478,,1.536,16,2,8.837,W*1A
$GNRMC,025605.00,A,3737.7555946,N,12704.7384539,E,0.0,,190324,8.8,W,D*15
$PSSN,HRP,025605.00,190324,191.377,,1.168,1.477,,1.526,16,2,8.837,W*16
$GNRMC,025605.50,A,3737.7555888,N,12704.7384654,E,0.1,,190324,8.8,W,D*1A
$PSSN,HRP,025605.50,190324,191.410,,0.980,1.545,,1.569,17,2,8.837,W*10
$GNRMC,025606.00,A,3737.7555846,N,12704.7384835,E,0.0,,190324,8.8,W,D*16
$PSSN,HRP,025606.00,190324,191.713,,0.919,1.603,,1.615,17,2,8.837,W*1F
$GNRMC,025606.50,A,3737.7555853,N,12704.7384676,E,0.0,,190324,8.8,W,D*1E
$PSSN,HRP,025606.50,190324,191.319,,0.839,1.597,,1.582,17,2,8.837,W*14
$GNRMC,025607.00,A,3737.7555916,N,12704.7384557,E,0.2,,190324,8.8,W,D*18
$PSSN,HRP,025607.00,190324,188.847,,0.611,1.502,,1.468,17,2,8.837,W*15
$GNRMC,025607.50,A,3737.7556113,N,12704.7383562,E,0.2,278.5,190324,8.8,W,D*34
$PSSN,HRP,025607.50,190324,184.042,,0.731,1.568,,1.554,16,2,8.837,W*11
$GNRMC,025608.00,A,3737.7556120,N,12704.7383232,E,0.0,,190324,8.8,W,D*18
$PSSN,HRP,025608.00,190324,182.080,,1.158,1.610,,1.623,16,2,8.837,W*14
$GNRMC,025608.50,A,3737.7556109,N,12704.7383203,E,0.0,,190324,8.8,W,D*14
$PSSN,HRP,025608.50,190324,183.351,,2.206,1.610,,1.654,16,2,8.837,W*14
$GNRMC,025609.00,A,3737.7556075,N,12704.7383469,E,0.2,,190324,8.8,W,D*12
$PSSN,HRP,025609.00,190324,187.588,,3.149,1.509,,1.552,16,2,8.837,W*11
$GNRMC,025609.50,A,3737.7555899,N,12704.7384370,E,0.1,107.9,190324,8.8,W,D*34
$PSSN,HRP,025609.50,190324,192.779,,2.096,1.482,,1.536,16,2,8.837,W*1E
$GNRMC,025610.00,A,3737.7555851,N,12704.7384674,E,0.1,,190324,8.8,W,D*1D
$PSSN,HRP,025610.00,190324,193.455,,1.667,1.458,,1.518,16,2,8.837,W*1F
$GNRMC,025610.50,A,3737.7555900,N,12704.7384163,E,0.0,,190324,8.8,W,D*1D
$PSSN,HRP,025610.50,190324,192.779,,1.110,1.529,,1.570,16,2,8.837,W*18
$GNRMC,025611.00,A,3737.7555945,N,12704.7383995,E,0.0,,190324,8.8,W,D*1E
$PSSN,HRP,025611.00,190324,192.210,,0.775,1.613,,1.628,16,2,8.837,W*16
$GNRMC,025611.50,A,3737.7555915,N,12704.7384407,E,0.0,,190324,8.8,W,D*1F
$PSSN,HRP,025611.50,190324,191.655,,0.654,1.673,,1.666,17,2,8.837,W*1A
$GNRMC,025612.00,A,3737.7555923,N,12704.7384257,E,0.0,,190324,8.8,W,D*1F
$PSSN,HRP,025612.00,190324,191.566,,0.812,1.613,,1.626,17,2,8.837,W*11
$GNRMC,025612.50,A,3737.7555943,N,12704.7384417,E,0.3,,190324,8.8,W,D*1D
$PSSN,HRP,025612.50,190324,188.887,,0.788,1.571,,1.544,17,2,8.837,W*12
$GNRMC,025613.00,A,3737.7556038,N,12704.7383490,E,0.3,279.7,190324,8.8,W,D*32
$PSSN,HRP,025613.00,190324,184.722,,0.636,1.558,,1.514,15,2,8.837,W*12
$GNRMC,025613.50,A,3737.7556021,N,12704.7383637,E,0.2,278.4,190324,8.8,W,D*33
$PSSN,HRP,025613.50,190324,182.786,,1.371,1.533,,1.514,16,2,8.837,W*16
$GNRMC,025614.00,A,3737.7556034,N,12704.7383664,E,0.2,,190324,8.8,W,D*14
$PSSN,HRP,025614.00,190324,184.517,,2.071,1.494,,1.534,16,2,8.837,W*16
$GNRMC,025614.50,A,3737.7556019,N,12704.7384229,E,0.5,96.9,190324,8.8,W,D*0B
$PSSN,HRP,025614.50,190324,190.269,,2.444,1.482,,1.526,16,2,8.837,W*1E
$GNRMC,025615.00,A,3737.7555944,N,12704.7384415,E,0.1,,190324,8.8,W,D*18
$PSSN,HRP,025615.00,190324,193.498,,3.123,1.451,,1.506,16,2,8.837,W*18
$GNRMC,025615.50,A,3737.7555885,N,12704.7384665,E,0.0,,190324,8.8,W,D*15
$PSSN,HRP,025615.50,190324,193.024,,2.372,1.518,,1.556,16,2,8.837,W*10
$GNRMC,025616.00,A,3737.7555840,N,12704.7384770,E,0.0,,190324,8.8,W,D*1F
$PSSN,HRP,025616.00,190324,192.026,,1.540,1.608,,1.617,16,2,8.837,W*15
$GNRMC,025616.50,A,3737.7555823,N,12704.7384840,E,0.0,,190324,8.8,W,D*13
$PSSN,HRP,025616.50,190324,191.871,,1.197,1.655,,1.643,16,2,8.837,W*1E
$GNRMC,025617.00,A,3737.7555793,N,12704.7384887,E,0.0,,190324,8.8,W,D*18
$PSSN,HRP,025617.00,190324,191.302,,0.682,1.589,,1.609,16,2,8.837,W*1B
$GNRMC,025617.50,A,3737.7555825,N,12704.7384774,E,0.0,,190324,8.8,W,D*1C
$PSSN,HRP,025617.50,190324,191.133,,0.604,1.601,,1.619,14,2,8.837,W*10
$GNRMC,025618.00,A,3737.7556012,N,12704.7384110,E,0.5,283.1,190324,8.8,W,D*3E
$PSSN,HRP,025618.00,190324,186.286,,0.878,1.635,,1.628,14,2,8.837,W*11
$GNRMC,025618.50,A,3737.7555907,N,12704.7384056,E,0.1,276.0,190324,8.8,W,D*39
$PSSN,HRP,025618.50,190324,183.283,,1.076,1.606,,1.619,16,2,8.837,W*13
$GNRMC,025619.00,A,3737.7555917,N,12704.7383895,E,0.1,,190324,8.8,W,D*11
$PSSN,HRP,025619.00,190324,182.135,,1.356,1.550,,1.579,16,2,8.837,W*1C
$GNRMC,025619.50,A,3737.7555996,N,12704.7383755,E,0.2,,190324,8.8,W,D*1D
$PSSN,HRP,025619.50,190324,184.056,,1.984,1.530,,1.569,13,2,8.837,W*1C
$GNRMC,025620.00,A,3737.7556090,N,12704.7384091,E,0.5,94.1,190324,8.8,W,D*03
$PSSN,HRP,025620.00,190324,190.411,,2.895,1.503,,1.541,13,2,8.837,W*19
$GNRMC,025620.50,A,3737.7555933,N,12704.7384382,E,0.0,,190324,8.8,W,D*13
$PSSN,HRP,025620.50,190324,193.399,,1.747,1.484,,1.544,13,2,8.837,W*10
$GNRMC,025621.00,A,3737.7555849,N,12704.7384547,E,0.0,,190324,8.8,W,D*14
$PSSN,HRP,025621.00,190324,192.654,,1.176,1.513,,1.562,12,2,8.837,W*1F
$GNRMC,025621.50,A,3737.7555831,N,12704.7384770,E,0.0,,190324,8.8,W,D*18
$PSSN,HRP,025621.50,190324,192.152,,0.873,1.579,,1.604,15,2,8.837,W*1E
$GNRMC,025622.00,A,3737.7555818,N,12704.7384831,E,0.0,,190324,8.8,W,D*1F
$PSSN,HRP,025622.00,190324,191.771,,0.660,1.613,,1.626,15,2,8.837,W*1F
$GNRMC,025622.50,A,3737.7555846,N,12704.7384841,E,0.3,,190324,8.8,W,D*15
$PSSN,HRP,025622.50,190324,190.132,,0.601,1.599,,1.583,17,2,8.837,W*12
$GNRMC,025623.00,A,3737.7556004,N,12704.7383958,E,0.6,280.2,190324,8.8,W,D*31
$PSSN,HRP,025623.00,190324,185.812,,0.745,1.536,,1.496,17,2,8.837,W*18
$GNRMC,025623.50,A,3737.7556002,N,12704.7383800,E,0.1,275.2,190324,8.8,W,D*33
$PSSN,HRP,025623.50,190324,182.613,,1.021,1.507,,1.543,13,2,8.837,W*1E
$GNRMC,025624.00,A,3737.7555993,N,12704.7383825,E,0.0,,190324,8.8,W,D*19
$PSSN,HRP,025624.00,190324,183.219,,1.136,1.505,,1.600,13,2,8.837,W*12
$GNRMC,025624.50,A,3737.7556004,N,12704.7384227,E,0.6,98.1,190324,8.8,W,D*0F
$PSSN,HRP,025624.50,190324,189.280,,1.936,1.532,,1.610,14,2,8.837,W*17
$GNRMC,025625.00,A,3737.7555877,N,12704.7384374,E,0.1,104.8,190324,8.8,W,D*39
$PSSN,HRP,025625.00,190324,193.861,,2.497,1.460,,1.523,12,2,8.837,W*1B
$GNRMC,025625.50,A,3737.7555914,N,12704.7384539,E,0.0,,190324,8.8,W,D*15
$PSSN,HRP,025625.50,190324,192.980,,1.789,1.536,,1.550,13,2,8.837,W*19
$GNRMC,025626.00,A,3737.7555914,N,12704.7384543,E,0.1,,190324,8.8,W,D*1F
$PSSN,HRP,025626.00,190324,191.899,,1.206,1.611,,1.617,13,2,8.837,W*11
$GNRMC,025626.50,A,3737.7555886,N,12704.7384701,E,0.1,,190324,8.8,W,D*14
$PSSN,HRP,025626.50,190324,191.785,,1.057,1.641,,1.643,15,2,8.837,W*12
$GNRMC,025627.00,A,3737.7555930,N,12704.7384698,E,0.4,,190324,8.8,W,D*18
$PSSN,HRP,025627.00,190324,189.841,,1.256,1.590,,1.601,15,2,8.837,W*12
$GNRMC,025627.50,A,3737.7556061,N,12704.7383646,E,0.5,275.4,190324,8.8,W,D*3C
$PSSN,HRP,025627.50,190324,184.914,,1.300,1.569,,1.552,15,2,8.837,W*1A
$GNRMC,025628.00,A,3737.7556050,N,12704.7383431,E,0.0,275.6,190324,8.8,W,D*31
$PSSN,HRP,025628.00,190324,182.944,,1.363,1.528,,1.506,15,2,8.837,W*12
$GNRMC,025628.50,A,3737.7556057,N,12704.7383533,E,0.4,,190324,8.8,W,D*1C
$PSSN,HRP,025628.50,190324,185.084,,1.973,1.541,,1.539,14,2,8.837,W*1C
$GNRMC,025629.00,A,3737.7556025,N,12704.7384082,E,0.5,97.8,190324,8.8,W,D*0C
$PSSN,HRP,025629.00,190324,190.672,,2.494,1.514,,1.548,14,2,8.837,W*12
$GNRMC,025629.50,A,3737.7555918,N,12704.7384415,E,0.0,,190324,8.8,W,D*1A
$PSSN,HRP,025629.50,190324,192.548,,1.749,1.521,,1.575,13,2,8.837,W*10
$GNRMC,025630.00,A,3737.7555843,N,12704.7384816,E,0.1,,190324,8.8,W,D*16
$PSSN,HRP,025630.00,190324,192.418,,1.012,1.553,,1.584,12,2,8.837,W*1A
$GNRMC,025630.50,A,3737.7555721,N,12704.7385540,E,0.0,,190324,8.8,W,D*16
$PSSN,HRP,025630.50,190324,192.233,,1.196,1.599,,1.603,14,2,8.837,W*11
$GNRMC,025631.00,A,3737.7555608,N,12704.7386199,E,0.0,,190324,8.8,W,D*1B
$PSSN,HRP,025631.00,190324,191.879,,1.056,1.619,,1.626,14,2,8.837,W*13
$GNRMC,025631.50,A,3737.7555676,N,12704.7385741,E,0.0,,190324,8.8,W,D*17
$PSSN,HRP,025631.50,190324,191.544,,1.049,1.614,,1.633,16,2,8.837,W*10
$GNRMC,025632.00,A,3737.7555835,N,12704.7385112,E,0.3,,190324,8.8,W,D*1B
$PSSN,HRP,025632.00,190324,189.001,,1.189,1.610,,1.621,16,2,8.837,W*11
$GNRMC,025632.50,A,3737.7556004,N,12704.7383801,E,0.3,279.3,190324,8.8,W,D*3B
$PSSN,HRP,025632.50,190324,184.628,,1.415,1.567,,1.589,16,2,8.837,W*16
$GNRMC,025633.00,A,3737.7556063,N,12704.7383333,E,0.0,,190324,8.8,W,D*16
$PSSN,HRP,025633.00,190324,182.812,,1.639,1.524,,1.559,16,2,8.837,W*15
$GNRMC,025633.50,A,3737.7556085,N,12704.7383263,E,0.1,,190324,8.8,W,D*1E
$PSSN,HRP,025633.50,190324,184.039,,2.091,1.502,,1.545,16,2,8.837,W*19
$GNRMC,025634.00,A,3737.7556057,N,12704.7383690,E,0.3,,190324,8.8,W,D*19
$PSSN,HRP,025634.00,190324,189.084,,2.830,1.464,,1.516,16,2,8.837,W*14
$GNRMC,025634.50,A,3737.7555938,N,12704.7384247,E,0.1,102.5,190324,8.8,W,D*3C
$PSSN,HRP,025634.50,190324,193.069,,1.936,1.447,,1.514,13,2,8.837,W*1B
$GNRMC,025635.00,A,3737.7555873,N,12704.7384617,E,0.0,,190324,8.8,W,D*1E
$PSSN,HRP,025635.00,190324,192.770,,1.100,1.473,,1.532,13,2,8.837,W*1F
$GNRMC,025635.50,A,3737.7555796,N,12704.7384723,E,0.0,,190324,8.8,W,D*19
$PSSN,HRP,025635.50,190324,192.427,,1.083,1.488,,1.479,17,2,8.837,W*1F
$GNRMC,025636.00,A,3737.7555783,N,12704.7384755,E,0.0,,190324,8.8,W,D*1A
$PSSN,HRP,025636.00,190324,191.833,,1.012,1.478,,1.403,17,2,8.837,W*19
$GNRMC,025636.50,A,3737.7555878,N,12704.7384761,E,0.3,,190324,8.8,W,D*10
$PSSN,HRP,025636.50,190324,190.108,,1.040,1.502,,1.382,17,2,8.837,W*19
$GNRMC,025637.00,A,3737.7556102,N,12704.7383563,E,0.5,281.4,190324,8.8,W,D*33
$PSSN,HRP,025637.00,190324,184.925,,1.046,1.495,,1.395,17,2,8.837,W*10
$GNRMC,025637.50,A,3737.7556062,N,12704.7383360,E,0.1,277.5,190324,8.8,W,D*38
$PSSN,HRP,025637.50,190324,182.516,,1.171,1.431,,1.381,14,2,8.837,W*12
$GNRMC,025638.00,A,3737.7556065,N,12704.7383417,E,0.0,,190324,8.8,W,D*1A
$PSSN,HRP,025638.00,190324,182.601,,0.955,1.366,,1.349,14,2,8.837,W*13
$GNRMC,025638.50,A,3737.7556054,N,12704.7383688,E,0.4,,190324,8.8,W,D*1D
$PSSN,HRP,025638.50,190324,186.872,,2.111,1.432,,1.444,16,2,8.837,W*1C
$GNRMC,025639.00,A,3737.7555968,N,12704.7384389,E,0.2,107.5,190324,8.8,W,D*34
$PSSN,HRP,025639.00,190324,192.657,,2.824,1.473,,1.533,16,2,8.837,W*1F
$GNRMC,025639.50,A,3737.7555921,N,12704.7384541,E,0.1,,190324,8.8,W,D*10
$PSSN,HRP,025639.50,190324,193.133,,2.532,1.564,,1.639,16,2,8.837,W*1A
$GNRMC,025640.00,A,3737.7555874,N,12704.7384556,E,0.0,,190324,8.8,W,D*1D
$PSSN,HRP,025640.00,190324,192.838,,2.154,1.578,,1.604,16,2,8.837,W*15
$GNRMC,025640.50,A,3737.7555844,N,12704.7384686,E,0.0,,190324,8.8,W,D*15
$PSSN,HRP,025640.50,190324,192.422,,1.679,1.618,,1.599,17,2,8.837,W*1F
$GNRMC,025641.00,A,3737.7555820,N,12704.7384847,E,0.1,,190324,8.8,W,D*11
$PSSN,HRP,025641.00,190324,190.763,,1.138,1.624,,1.630,17,2,8.837,W*12
$GNRMC,025641.50,A,3737.7555966,N,12704.7383647,E,0.6,276.7,190324,8.8,W,D*33
$PSSN,HRP,025641.50,190324,185.634,,1.206,1.668,,1.674,15,2,8.837,W*14
$GNRMC,025642.00,A,3737.7556025,N,12704.7383394,E,0.0,,190324,8.8,W,D*1F
$PSSN,HRP,025642.00,190324,183.712,,0.943,1.631,,1.647,15,2,8.837,W*16
$GNRMC,025642.50,A,3737.7556045,N,12704.7383434,E,0.0,,190324,8.8,W,D*11
$PSSN,HRP,025642.50,190324,184.131,,2.170,1.558,,1.587,16,2,8.837,W*19
$GNRMC,025643.00,A,3737.7556026,N,12704.7383923,E,0.3,,190324,8.8,W,D*18
$PSSN,HRP,025643.00,190324,188.026,,3.245,1.502,,1.551,16,2,8.837,W*16
$GNRMC,025643.50,A,3737.7555939,N,12704.7384522,E,0.1,107.6,190324,8.8,W,D*3F
$PSSN,HRP,025643.50,190324,192.686,,2.338,1.457,,1.520,16,2,8.837,W*19
$GNRMC,025644.00,A,3737.7555943,N,12704.7384539,E,0.1,,190324,8.8,W,D*14
$PSSN,HRP,025644.00,190324,192.586,,1.713,1.443,,1.508,16,2,8.837,W*19
$GNRMC,025644.50,A,3737.7555886,N,12704.7384809,E,0.0,,190324,8.8,W,D*16
$PSSN,HRP,025644.50,190324,192.271,,1.502,1.505,,1.552,15,2,8.837,W*1E
$GNRMC,025645.00,A,3737.7555812,N,12704.7385146,E,0.1,,190324,8.8,W,D*1D
$PSSN,HRP,025645.00,190324,191.875,,1.100,1.583,,1.608,15,2,8.837,W*13
$GNRMC,025645.50,A,3737.7555886,N,12704.7384843,E,0.2,,190324,8.8,W,D*1B
$PSSN,HRP,025645.50,190324,190.395,,1.559,1.584,,1.530,17,2,8.837,W*17
$GNRMC,025646.00,A,3737.7556130,N,12704.7383371,E,0.4,281.2,190324,8.8,W,D*36
$PSSN,HRP,025646.00,190324,185.222,,1.638,1.444,,1.339,16,2,8.837,W*1F
$GNRMC,025646.50,A,3737.7556104,N,12704.7383259,E,0.0,282.8,190324,8.8,W,D*32
$PSSN,HRP,025646.50,190324,183.560,,1.847,1.402,,1.338,13,2,8.837,W*1D
$GNRMC,025647.00,A,3737.7556112,N,12704.7383307,E,0.0,,190324,8.8,W,D*15
$PSSN,HRP,025647.00,190324,183.697,,2.066,1.361,,1.341,13,2,8.837,W*16
$GNRMC,025647.50,A,3737.7556103,N,12704.7383543,E,0.3,,190324,8.8,W,D*15
$PSSN,HRP,025647.50,190324,187.140,,2.659,1.428,,1.437,16,2,8.837,W*19
$GNRMC,025648.00,A,3737.7556032,N,12704.7384072,E,0.1,106.3,190324,8.8,W,D*34
$PSSN,HRP,025648.00,190324,192.413,,3.072,1.466,,1.524,16,2,8.837,W*13
$GNRMC,025648.50,A,3737.7555937,N,12704.7384436,E,0.1,,190324,8.8,W,D*10
$PSSN,HRP,025648.50,190324,192.572,,2.312,1.567,,1.646,13,2,8.837,W*16
$GNRMC,025649.00,A,3737.7555841,N,12704.7384768,E,0.0,,190324,8.8,W,D*1D
$PSSN,HRP,025649.00,190324,192.057,,1.676,1.566,,1.605,13,2,8.837,W*12
$GNRMC,025649.50,A,3737.7555837,N,12704.7384718,E,0.0,,190324,8.8,W,D*1E
$PSSN,HRP,025649.50,190324,191.777,,1.427,1.476,,1.419,17,2,8.837,W*1C
$GNRMC,025650.00,A,3737.7555846,N,12704.7384710,E,0.1,,190324,8.8,W,D*1C
$PSSN,HRP,025650.00,190324,190.989,,1.421,1.403,,1.314,17,2,8.837,W*11
$GNRMC,025650.50,A,3737.7556102,N,12704.7383632,E,0.5,288.7,190324,8.8,W,D*3A
$PSSN,HRP,025650.50,190324,186.042,,1.432,1.454,,1.342,16,2,8.837,W*1F
$GNRMC,025651.00,A,3737.7556178,N,12704.7383058,E,0.2,279.9,190324,8.8,W,D*3E
$PSSN,HRP,025651.00,190324,182.670,,1.315,1.452,,1.359,15,2,8.837,W*15
$GNRMC,025651.50,A,3737.7556136,N,12704.7383073,E,0.1,,190324,8.8,W,D*10
$PSSN,HRP,025651.50,190324,183.431,,2.142,1.481,,1.459,16,2,8.837,W*1F
$GNRMC,025652.00,A,3737.7556065,N,12704.7383382,E,0.2,,190324,8.8,W,D*1F
$PSSN,HRP,025652.00,190324,187.270,,2.803,1.510,,1.556,16,2,8.837,W*15
$GNRMC,025652.50,A,3737.7555930,N,12704.7384158,E,0.2,104.5,190324,8.8,W,D*3C
$PSSN,HRP,025652.50,190324,193.389,,1.649,1.532,,1.622,14,2,8.837,W*13
$GNRMC,025653.00,A,3737.7555885,N,12704.7384348,E,0.1,,190324,8.8,W,D*19
$PSSN,HRP,025653.00,190324,193.230,,1.249,1.460,,1.530,14,2,8.837,W*16
$GNRMC,025653.50,A,3737.7555855,N,12704.7384503,E,0.0,,190324,8.8,W,D*19
$PSSN,HRP,025653.50,190324,192.820,,1.245,1.522,,1.571,16,2,8.837,W*15
$GNRMC,025654.00,A,3737.7555837,N,12704.7384539,E,0.0,,190324,8.8,W,D*16
$PSSN,HRP,025654.00,190324,192.260,,1.344,1.599,,1.619,16,2,8.837,W*14
$GNRMC,025654.50,A,3737.7555877,N,12704.7384540,E,0.1,,190324,8.8,W,D*18
$PSSN,HRP,025654.50,190324,190.857,,1.256,1.663,,1.658,16,2,8.837,W*1C
$GNRMC,025655.00,A,3737.7556063,N,12704.7383747,E,0.2,286.6,190324,8.8,W,D*37
$PSSN,HRP,025655.00,190324,185.620,,0.917,1.632,,1.642,14,2,8.837,W*10
$GNRMC,025655.50,A,3737.7556077,N,12704.7383523,E,0.1,279.8,190324,8.8,W,D*3A
$PSSN,HRP,025655.50,190324,183.641,,1.351,1.547,,1.581,14,2,8.837,W*10
$GNRMC,025656.00,A,3737.7556091,N,12704.7383512,E,0.0,,190324,8.8,W,D*1D
$PSSN,HRP,025656.00,190324,183.898,,1.790,1.506,,1.551,14,2,8.837,W*1D
$GNRMC,025656.50,A,3737.7556058,N,12704.7383755,E,0.3,,190324,8.8,W,D*1F
$PSSN,HRP,025656.50,190324,187.526,,2.372,1.507,,1.548,16,2,8.837,W*14
$GNRMC,025657.00,A,3737.7555974,N,12704.7384247,E,0.1,111.8,190324,8.8,W,D*3B
$PSSN,HRP,025657.00,190324,192.259,,3.109,1.478,,1.528,16,2,8.837,W*1B
$GNRMC,025657.50,A,3737.7555892,N,12704.7384392,E,0.1,,190324,8.8,W,D*19
$PSSN,HRP,025657.50,190324,192.395,,2.576,1.539,,1.589,13,2,8.837,W*18
$GNRMC,025658.00,A,3737.7555818,N,12704.7384502,E,0.0,,190324,8.8,W,D*1F
$PSSN,HRP,025658.00,190324,192.099,,2.009,1.604,,1.654,13,2,8.837,W*1E
$GNRMC,025658.50,A,3737.7555820,N,12704.7384607,E,0.0,,190324,8.8,W,D*17
$PSSN,HRP,025658.50,190324,191.895,,1.662,1.652,,1.676,16,2,8.837,W*12
$GNRMC,025659.00,A,3737.7555822,N,12704.7384788,E,0.0,,190324,8.8,W,D*17
$PSSN,HRP,025659.00,190324,191.185,,1.315,1.601,,1.621,16,2,8.837,W*1F
$GNRMC,025659.50,A,3737.7556090,N,12704.7383999,E,0.6,288.8,190324,8.8,W,D*3B
$PSSN,HRP,025659.50,190324,186.263,,1.706,1.653,,1.631,15,2,8.837,W*14
$GNRMC,025700.00,A,3737.7556117,N,12704.7383547,E,0.1,280.3,190324,8.8,W,D*36
$PSSN,HRP,025700.00,190324,182.393,,1.573,1.649,,1.658,15,2,8.837,W*12
$GNRMC,025700.50,A,3737.7556107,N,12704.7383151,E,0.0,,190324,8.8,W,D*17
$PSSN,HRP,025700.50,190324,182.884,,2.469,1.608,,1.638,16,2,8.837,W*13
$GNRMC,025701.00,A,3737.7556094,N,12704.7383367,E,0.3,,190324,8.8,W,D*1C
$PSSN,HRP,025701.00,190324,185.120,,3.188,1.537,,1.577,16,2,8.837,W*1B
$GNRMC,025701.50,A,3737.7556103,N,12704.7383870,E,0.5,96.2,190324,8.8,W,D*0E
$PSSN,HRP,025701.50,190324,190.517,,3.169,1.501,,1.546,16,2,8.837,W*12
$GNRMC,025702.00,A,3737.7556005,N,12704.7384095,E,0.1,,190324,8.8,W,D*1C
$PSSN,HRP,025702.00,190324,193.479,,3.137,1.455,,1.515,16,2,8.837,W*13
$GNRMC,025702.50,A,3737.7555926,N,12704.7384413,E,0.1,,190324,8.8,W,D*18
$PSSN,HRP,025702.50,190324,193.239,,2.682,1.455,,1.483,17,2,8.837,W*13
$GNRMC,025703.00,A,3737.7555845,N,12704.7384782,E,0.0,,190324,8.8,W,D*12
$PSSN,HRP,025703.00,190324,192.530,,1.922,1.445,,1.378,17,2,8.837,W*1C
$GNRMC,025703.50,A,3737.7555894,N,12704.7384509,E,0.0,,190324,8.8,W,D*1A
$PSSN,HRP,025703.50,190324,192.231,,1.715,1.460,,1.348,17,2,8.837,W*11
$GNRMC,025704.00,A,3737.7555886,N,12704.7384539,E,0.0,,190324,8.8,W,D*18
$PSSN,HRP,025704.00,190324,191.650,,1.591,1.432,,1.361,17,2,8.837,W*11
$GNRMC,025704.50,A,3737.7556097,N,12704.7383771,E,0.4,286.4,190324,8.8,W,D*3D
$PSSN,HRP,025704.50,190324,187.543,,1.805,1.460,,1.370,17,2,8.837,W*15
$GNRMC,025705.00,A,3737.7556141,N,12704.7383251,E,0.1,283.6,190324,8.8,W,D*36
$PSSN,HRP,025705.00,190324,184.215,,1.764,1.474,,1.382,16,2,8.837,W*17
$GNRMC,025705.50,A,3737.7556144,N,12704.7383071,E,0.1,,190324,8.8,W,D*17
$PSSN,HRP,025705.50,190324,183.754,,2.676,1.491,,1.428,16,2,8.837,W*18
$GNRMC,025706.00,A,3737.7556108,N,12704.7383405,E,0.4,,190324,8.8,W,D*1B
$PSSN,HRP,025706.00,190324,186.639,,3.239,1.498,,1.546,16,2,8.837,W*1F
$GNRMC,025706.50,A,3737.7556020,N,12704.7384253,E,0.5,102.3,190324,8.8,W,D*38
$PSSN,HRP,025706.50,190324,191.361,,2.586,1.530,,1.593,16,2,8.837,W*1D
$GNRMC,025707.00,A,3737.7555922,N,12704.7384488,E,0.0,,190324,8.8,W,D*1F
$PSSN,HRP,025707.00,190324,193.021,,2.358,1.494,,1.547,16,2,8.837,W*1F
$GNRMC,025707.50,A,3737.7555921,N,12704.7384352,E,0.0,,190324,8.8,W,D*19
$PSSN,HRP,025707.50,190324,192.818,,1.924,1.554,,1.582,16,2,8.837,W*1F
$GNRMC,025708.00,A,3737.7555919,N,12704.7384351,E,0.0,,190324,8.8,W,D*1B
$PSSN,HRP,025708.00,190324,192.384,,1.574,1.605,,1.630,16,2,8.837,W*1F
$GNRMC,025708.50,A,3737.7555937,N,12704.7384118,E,0.0,,190324,8.8,W,D*1D
$PSSN,HRP,025708.50,190324,191.919,,1.345,1.657,,1.675,14,2,8.837,W*17
$GNRMC,025709.00,A,3737.7556186,N,12704.7383276,E,0.5,302.8,190324,8.8,W,D*36
$PSSN,HRP,025709.00,190324,185.641,,1.801,1.674,,1.653,13,2,8.837,W*1D
$GNRMC,025709.50,A,3737.7556077,N,12704.7383513,E,0.1,288.6,190324,8.8,W,D*31
$PSSN,HRP,025709.50,190324,183.052,,1.553,1.598,,1.599,16,2,8.837,W*11
$GNRMC,025710.00,A,3737.7556080,N,12704.7383493,E,0.1,,190324,8.8,W,D*17
$PSSN,HRP,025710.00,190324,182.494,,1.355,1.513,,1.555,16,2,8.837,W*10
$GNRMC,025710.50,A,3737.7556128,N,12704.7383379,E,0.1,,190324,8.8,W,D*12
$PSSN,HRP,025710.50,190324,184.142,,2.390,1.506,,1.553,16,2,8.837,W*15
$GNRMC,025711.00,A,3737.7556135,N,12704.7383604,E,0.3,,190324,8.8,W,D*17
$PSSN,HRP,025711.00,190324,188.883,,3.414,1.493,,1.539,16,2,8.837,W*12
$GNRMC,025711.50,A,3737.7556040,N,12704.7384136,E,0.0,109.0,190324,8.8,W,D*35
$PSSN,HRP,025711.50,190324,192.124,,2.202,1.477,,1.539,16,2,8.837,W*12
$GNRMC,025712.00,A,3737.7555977,N,12704.7384147,E,0.1,,190324,8.8,W,D*1C
$PSSN,HRP,025712.00,190324,192.300,,1.252,1.481,,1.543,16,2,8.837,W*12
