$GNRMC,024914.50,A,3737.7555971,N,12704.7384578,E,0.0,,190324,8.8,W,D*1F
$PSSN,HRP,024914.50,190324,192.010,,1.269,1.249,,1.161,17,2,8.837,W*13
$GNRMC,024915.00,A,3737.7555967,N,12704.7384604,E,0.0,,190324,8.8,W,D*14
$PSSN,HRP,024915.00,190324,191.877,,1.353,1.260,,1.172,17,2,8.837,W*1C
$GNRMC,024915.50,A,3737.7555964,N,12704.7384563,E,0.0,,190324,8.8,W,D*10
$PSSN,HRP,024915.50,190324,191.813,,1.200,1.289,,1.185,17,2,8.837,W*13
$GNRMC,024916.00,A,3737.7555953,N,12704.7384524,E,0.0,,190324,8.8,W,D*11
$PSSN,HRP,024916.00,190324,191.759,,1.094,1.305,,1.181,17,2,8.837,W*1A
$GNRMC,024916.50,A,3737.7555951,N,12704.7384515,E,0.0,,190324,8.8,W,D*14
$PSSN,HRP,024916.50,190324,191.472,,0.910,1.320,,1.180,17,2,8.837,W*17
$GNRMC,024917.00,A,3737.7555953,N,12704.7384527,E,0.0,,190324,8.8,W,D*13
$PSSN,HRP,024917.00,190324,191.423,,0.849,1.313,,1.188,17,2,8.837,W*12
$GNRMC,024917.50,A,3737.7555946,N,12704.7384452,E,0.0,,190324,8.8,W,D*11
$PSSN,HRP,024917.50,190324,191.406,,0.864,1.320,,1.196,17,2,8.837,W*10
$GNRMC,024918.00,A,3737.7555935,N,12704.7384354,E,0.0,,190324,8.8,W,D*1E
$PSSN,HRP,024918.00,190324,191.529,,0.941,1.330,,1.205,17,2,8.837,W*18
$GNRMC,024918.50,A,3737.7555918,N,12704.7384435,E,0.0,,190324,8.8,W,D*14
$PSSN,HRP,024918.50,190324,191.558,,0.877,1.342,,1.215,16,2,8.837,W*1A
$GNRMC,024919.00,A,3737.7555924,N,12704.7384460,E,0.0,,190324,8.8,W,D*1F
$PSSN,HRP,024919.00,190324,191.772,,0.772,1.347,,1.221,16,2,8.837,W*1C
$GNRMC,024919.50,A,3737.7555920,N,12704.7384521,E,0.0,,190324,8.8,W,D*1A
$PSSN,HRP,024919.50,190324,192.155,,1.008,1.323,,1.200,17,2,8.837,W*12
$GNRMC,024920.00,A,3737.7555793,N,12704.7385320,E,0.2,104.3,190324,8.8,W,D*3F
$PSSN,HRP,024920.00,190324,197.075,,1.413,1.277,,1.171,17,2,8.837,W*10
$GNRMC,024920.50,A,3737.7555866,N,12704.7385339,E,0.1,,190324,8.8,W,D*1C
$PSSN,HRP,024920.50,190324,197.713,,1.917,1.317,,1.232,15,2,8.837,W*1A
$GNRMC,024921.00,A,3737.7555918,N,12704.7384843,E,0.6,,190324,8.8,W,D*10
$PSSN,HRP,024921.00,190324,196.413,,2.032,1.432,,1.344,16,2,8.837,W*12
$GNRMC,024921.50,A,3737.7555978,N,12704.7384254,E,0.1,275.5,190324,8.8,W,D*33
$PSSN,HRP,024921.50,190324,193.202,,1.804,1.446,,1.356,16,2,8.837,W*1A
$GNRMC,024922.00,A,3737.7555946,N,12704.7384230,E,0.1,,190324,8.8,W,D*11
$PSSN,HRP,024922.00,190324,192.720,,1.612,1.322,,1.241,16,2,8.837,W*13
$GNRMC,024922.50,A,3737.7555926,N,12704.7384334,E,0.0,,190324,8.8,W,D*16
$PSSN,HRP,024922.50,190324,192.488,,1.411,1.321,,1.250,16,2,8.837,W*15
$GNRMC,024923.00,A,3737.7555907,N,12704.7384391,E,0.0,,190324,8.8,W,D*1E
$PSSN,HRP,024923.00,190324,192.009,,0.974,1.321,,1.263,16,2,8.837,W*13
$GNRMC,024923.50,A,3737.7555921,N,12704.7384441,E,0.0,,190324,8.8,W,D*15
$PSSN,HRP,024923.50,190324,192.081,,1.150,1.317,,1.253,16,2,8.837,W*1F
$GNRMC,024924.00,A,3737.7555923,N,12704.7384595,E,0.1,,190324,8.8,W,D*1C
$PSSN,HRP,024924.00,190324,192.663,,1.159,1.311,,1.236,16,2,8.837,W*1B
$GNRMC,024924.50,A,3737.7555800,N,12704.7385313,E,0.4,101.1,190324,8.8,W,D*3A
$PSSN,HRP,024924.50,190324,197.105,,1.424,1.301,,1.224,16,2,8.837,W*11
$GNRMC,024925.00,A,3737.7555790,N,12704.7385413,E,0.0,,190324,8.8,W,D*14
$PSSN,HRP,024925.00,190324,198.012,,1.888,1.268,,1.206,15,2,8.837,W*1A
$GNRMC,024925.50,A,3737.7555800,N,12704.7385338,E,0.0,,190324,8.8,W,D*19
$PSSN,HRP,024925.50,190324,198.074,,1.975,1.311,,1.263,16,2,8.837,W*13
$GNRMC,024926.00,A,3737.7555900,N,12704.7384720,E,0.7,270.1,190324,8.8,W,D*3F
$PSSN,HRP,024926.00,190324,193.871,,1.563,1.439,,1.369,15,2,8.837,W*1D
$GNRMC,024926.50,A,3737.7555901,N,12704.7384422,E,0.3,,190324,8.8,W,D*14
$PSSN,HRP,024926.50,190324,192.920,,1.583,1.430,,1.373,16,2,8.837,W*13
$GNRMC,024927.00,A,3737.7555882,N,12704.7384361,E,0.0,,190324,8.8,W,D*19
$PSSN,HRP,024927.00,190324,192.667,,1.417,1.313,,1.268,16,2,8.837,W*1A
$GNRMC,024927.50,A,3737.7555889,N,12704.7384403,E,0.0,,190324,8.8,W,D*14
$PSSN,HRP,024927.50,190324,192.738,,1.670,1.304,,1.244,16,2,8.837,W*1F
$GNRMC,024928.00,A,3737.7555890,N,12704.7384458,E,0.0,,190324,8.8,W,D*18
$PSSN,HRP,024928.00,190324,192.760,,1.763,1.301,,1.225,16,2,8.837,W*19
$GNRMC,024928.50,A,3737.7555776,N,12704.7385127,E,0.1,114.9,190324,8.8,W,D*34
$PSSN,HRP,024928.50,190324,196.156,,1.687,1.310,,1.230,15,2,8.837,W*17
$GNRMC,024929.00,A,3737.7555794,N,12704.7385555,E,0.2,99.7,190324,8.8,W,D*04
$PSSN,HRP,024929.00,190324,197.903,,2.609,1.284,,1.203,15,2,8.837,W*13
$GNRMC,024929.50,A,3737.7555804,N,12704.7385547,E,0.0,,190324,8.8,W,D*1F
$PSSN,HRP,024929.50,190324,198.606,,2.764,1.342,,1.243,13,2,8.837,W*10
$GNRMC,024930.00,A,3737.7555807,N,12704.7384867,E,0.5,,190324,8.8,W,D*1A
$PSSN,HRP,024930.00,190324,196.376,,2.337,1.592,,1.415,13,2,8.837,W*1D
$GNRMC,024930.50,A,3737.7555920,N,12704.7384177,E,0.0,278.8,190324,8.8,W,D*3D
$PSSN,HRP,024930.50,190324,193.353,,2.473,1.644,,1.433,15,2,8.837,W*17
$GNRMC,024931.00,A,3737.7555885,N,12704.7384124,E,0.1,,190324,8.8,W,D*1B
$PSSN,HRP,024931.00,190324,194.225,,2.419,1.451,,1.306,15,2,8.837,W*1F
$GNRMC,024931.50,A,3737.7555882,N,12704.7384234,E,0.1,,190324,8.8,W,D*1B
$PSSN,HRP,024931.50,190324,193.407,,2.293,1.375,,1.246,16,2,8.837,W*18
$GNRMC,024932.00,A,3737.7555867,N,12704.7384385,E,0.0,,190324,8.8,W,D*1C
$PSSN,HRP,024932.00,190324,192.547,,1.981,1.314,,1.221,16,2,8.837,W*17
$GNRMC,024932.50,A,3737.7555843,N,12704.7384492,E,0.0,,190324,8.8,W,D*1E
$PSSN,HRP,024932.50,190324,192.147,,1.839,1.334,,1.237,17,2,8.837,W*10
$GNRMC,024933.00,A,3737.7555846,N,12704.7384552,E,0.0,,190324,8.8,W,D*12
$PSSN,HRP,024933.00,190324,191.509,,1.299,1.354,,1.255,17,2,8.837,W*1B
$GNRMC,024933.50,A,3737.7555857,N,12704.7384515,E,0.0,,190324,8.8,W,D*14
$PSSN,HRP,024933.50,190324,192.020,,1.646,1.363,,1.246,17,2,8.837,W*13
$GNRMC,024934.00,A,3737.7555763,N,12704.7384910,E,0.7,110.9,190324,8.8,W,D*37
$PSSN,HRP,024934.00,190324,195.260,,1.833,1.365,,1.230,17,2,8.837,W*1B
$GNRMC,024934.50,A,3737.7555789,N,12704.7385349,E,0.1,96.0,190324,8.8,W,D*01
$PSSN,HRP,024934.50,190324,198.501,,2.966,1.288,,1.172,14,2,8.837,W*15
$GNRMC,024935.00,A,3737.7555815,N,12704.7385302,E,0.0,,190324,8.8,W,D*10
$PSSN,HRP,024935.00,190324,198.511,,3.053,1.285,,1.172,14,2,8.837,W*13
$GNRMC,024935.50,A,3737.7555794,N,12704.7384370,E,1.1,269.6,190324,8.8,W,D*32
$PSSN,HRP,024935.50,190324,,,,,,,00,0,,E*22
$GNRMC,024936.00,A,3737.7555783,N,12704.7384366,E,0.1,,190324,8.8,W,D*11
$PSSN,HRP,024936.00,190324,,,,,,,00,0,,E*24
$GNRMC,024936.50,A,3737.7555793,N,12704.7384430,E,0.0,,190324,8.8,W,D*10
$PSSN,HRP,024936.50,190324,,,,,,,00,0,,E*21
$GNRMC,024937.00,A,3737.7555819,N,12704.7384550,E,0.0,,190324,8.8,W,D*1E
$PSSN,HRP,024937.00,190324,,,,,,,00,0,,E*25
$GNRMC,024937.50,A,3737.7555817,N,12704.7384536,E,0.0,,190324,8.8,W,D*15
$PSSN,HRP,024937.50,190324,191.567,,0.626,1.795,,1.708,13,2,8.837,W*13
$GNRMC,024938.00,A,3737.7555824,N,12704.7384539,E,0.0,,190324,8.8,W,D*10
$PSSN,HRP,024938.00,190324,191.711,,0.616,1.791,,1.704,13,2,8.837,W*11
$GNRMC,024938.50,A,3737.7555815,N,12704.7384569,E,0.0,,190324,8.8,W,D*12
$PSSN,HRP,024938.50,190324,191.663,,0.627,1.791,,1.699,13,2,8.837,W*17
$GNRMC,024939.00,A,3737.7555748,N,12704.7384935,E,0.4,,190324,8.8,W,D*10
$PSSN,HRP,024939.00,190324,194.003,,0.632,1.800,,1.701,13,2,8.837,W*15
$GNRMC,024939.50,A,3737.7555805,N,12704.7385359,E,0.1,,190324,8.8,W,D*17
$PSSN,HRP,024939.50,190324,196.268,,1.219,1.754,,1.684,13,2,8.837,W*13
$GNRMC,024940.00,A,3737.7555805,N,12704.7385433,E,0.0,,190324,8.8,W,D*16
$PSSN,HRP,024940.00,190324,197.170,,0.952,1.776,,1.732,13,2,8.837,W*1A
$GNRMC,024940.50,A,3737.7555739,N,12704.7384642,E,0.6,267.4,190324,8.8,W,D*39
$PSSN,HRP,024940.50,190324,194.359,,-0.163,1.906,,1.821,12,2,8.837,W*37
$GNRMC,024941.00,A,3737.7555809,N,12704.7384302,E,0.1,275.3,190324,8.8,W,D*33
$PSSN,HRP,024941.00,190324,191.902,,-0.133,1.928,,1.740,12,2,8.837,W*33
$GNRMC,024941.50,A,3737.7555796,N,12704.7384394,E,0.0,,190324,8.8,W,D*1C
$PSSN,HRP,024941.50,190324,191.720,,-0.534,1.887,,1.669,14,2,8.837,W*33
$GNRMC,024942.00,A,3737.7555800,N,12704.7384492,E,0.0,,190324,8.8,W,D*1B
$PSSN,HRP,024942.00,190324,191.409,,-0.695,1.781,,1.615,14,2,8.837,W*37
$GNRMC,024942.50,A,3737.7555791,N,12704.7384487,E,0.1,,190324,8.8,W,D*1C
$PSSN,HRP,024942.50,190324,192.115,,-0.460,1.860,,1.703,13,2,8.837,W*30
$GNRMC,024943.00,A,3737.7555794,N,12704.7384542,E,0.0,,190324,8.8,W,D*14
$PSSN,HRP,024943.00,190324,192.585,,-0.106,1.940,,1.809,13,2,8.837,W*3A
$GNRMC,024943.50,A,3737.7555794,N,12704.7384449,E,0.0,,190324,8.8,W,D*1B
$PSSN,HRP,024943.50,190324,192.351,,0.186,1.984,,1.878,13,2,8.837,W*1B
$GNRMC,024944.00,A,3737.7555820,N,12704.7384308,E,0.0,,190324,8.8,W,D*1B
$PSSN,HRP,024944.00,190324,192.111,,0.631,1.895,,1.774,13,2,8.837,W*16
$GNRMC,024944.50,A,3737.7555731,N,12704.7384965,E,0.4,94.2,190324,8.8,W,D*05
$PSSN,HRP,024944.50,190324,195.064,,0.831,1.849,,1.742,15,2,8.837,W*1B
$GNRMC,024945.00,A,3737.7555732,N,12704.7385279,E,0.1,,190324,8.8,W,D*11
$PSSN,HRP,024945.00,190324,195.353,,0.854,1.825,,1.727,15,2,8.837,W*12
$GNRMC,024945.50,A,3737.7555708,N,12704.7385172,E,0.0,,190324,8.8,W,D*14
$PSSN,HRP,024945.50,190324,195.224,,0.595,1.853,,1.761,14,2,8.837,W*14
$GNRMC,024946.00,A,3737.7555794,N,12704.7384575,E,0.2,275.8,190324,8.8,W,D*31
$PSSN,HRP,024946.00,190324,190.897,,-0.314,1.963,,1.867,13,2,8.837,W*3B
$GNRMC,024946.50,A,3737.7555795,N,12704.7384554,E,0.1,,190324,8.8,W,D*13
$PSSN,HRP,024946.50,190324,192.033,,0.904,1.747,,1.678,14,2,8.837,W*13
$GNRMC,024947.00,A,3737.7555764,N,12704.7384554,E,0.0,,190324,8.8,W,D*18
$PSSN,HRP,024947.00,190324,193.334,,1.992,1.333,,1.254,14,2,8.837,W*11
$GNRMC,024947.50,A,3737.7555753,N,12704.7384509,E,0.0,,190324,8.8,W,D*11
$PSSN,HRP,024947.50,190324,193.737,,2.218,1.338,,1.256,14,2,8.837,W*10
$GNRMC,024948.00,A,3737.7555758,N,12704.7384423,E,0.0,,190324,8.8,W,D*19
$PSSN,HRP,024948.00,190324,193.861,,2.490,1.343,,1.257,14,2,8.837,W*1D
$GNRMC,024948.50,A,3737.7555749,N,12704.7384446,E,0.0,,190324,8.8,W,D*1F
$PSSN,HRP,024948.50,190324,194.011,,2.750,1.333,,1.245,14,2,8.837,W*1B
$GNRMC,024949.00,A,3737.7555761,N,12704.7384420,E,0.0,,190324,8.8,W,D*11
$PSSN,HRP,024949.00,190324,193.918,,2.969,1.310,,1.224,14,2,8.837,W*1A
$GNRMC,024949.50,A,3737.7555723,N,12704.7384616,E,0.2,,190324,8.8,W,D*17
$PSSN,HRP,024949.50,190324,195.288,,2.860,1.370,,1.287,14,2,8.837,W*1C
$GNRMC,024950.00,A,3737.7555727,N,12704.7385266,E,0.1,90.1,190324,8.8,W,D*09
$PSSN,HRP,024950.00,190324,198.084,,3.686,1.388,,1.310,14,2,8.837,W*1D
$GNRMC,024950.50,A,3737.7555702,N,12704.7385291,E,0.0,,190324,8.8,W,D*14
$PSSN,HRP,024950.50,190324,199.215,,3.988,1.470,,1.366,12,2,8.837,W*15
$GNRMC,024951.00,A,3737.7555625,N,12704.7384615,E,0.6,,190324,8.8,W,D*1B
$PSSN,HRP,024951.00,190324,198.752,,4.016,1.540,,1.365,12,2,8.837,W*1E
$GNRMC,024951.50,A,3737.7555718,N,12704.7384273,E,0.2,273.8,190324,8.8,W,D*31
$PSSN,HRP,024951.50,190324,195.330,,3.579,1.592,,1.375,14,2,8.837,W*15
$GNRMC,024952.00,A,3737.7555738,N,12704.7384336,E,0.0,,190324,8.8,W,D*17
$PSSN,HRP,024952.00,190324,195.590,,3.450,1.543,,1.361,14,2,8.837,W*1C
$GNRMC,024952.50,A,3737.7555738,N,12704.7384378,E,0.0,,190324,8.8,W,D*18
$PSSN,HRP,024952.50,190324,195.212,,3.434,1.501,,1.343,16,2,8.837,W*12
$GNRMC,024953.00,A,3737.7555742,N,12704.7384445,E,0.0,,190324,8.8,W,D*18
$PSSN,HRP,024953.00,190324,194.890,,3.218,1.466,,1.356,16,2,8.837,W*1B
$GNRMC,024953.50,A,3737.7555737,N,12704.7384452,E,0.0,,190324,8.8,W,D*19
$PSSN,HRP,024953.50,190324,194.768,,3.114,1.427,,1.326,16,2,8.837,W*1B
$GNRMC,024954.00,A,3737.7555738,N,12704.7384431,E,0.0,,190324,8.8,W,D*11
$PSSN,HRP,024954.00,190324,194.635,,2.946,1.406,,1.298,16,2,8.837,W*19
$GNRMC,024954.50,A,3737.7555746,N,12704.7384408,E,0.0,,190324,8.8,W,D*17
$PSSN,HRP,024954.50,190324,194.281,,2.798,1.402,,1.295,16,2,8.837,W*13
$GNRMC,024955.00,A,3737.7555679,N,12704.7384697,E,0.4,,190324,8.8,W,D*1E
$PSSN,HRP,024955.00,190324,196.226,,3.041,1.396,,1.295,16,2,8.837,W*10
$GNRMC,024955.50,A,3737.7555745,N,12704.7385401,E,0.1,92.2,190324,8.8,W,D*0B
$PSSN,HRP,024955.50,190324,199.005,,3.512,1.319,,1.238,16,2,8.837,W*1A
$GNRMC,024956.00,A,3737.7555768,N,12704.7385445,E,0.0,,190324,8.8,W,D*14
$PSSN,HRP,024956.00,190324,199.258,,3.484,1.265,,1.191,16,2,8.837,W*12
$GNRMC,024956.50,A,3737.7555673,N,12704.7384718,E,0.4,,190324,8.8,W,D*14
$PSSN,HRP,024956.50,190324,196.865,,3.646,1.325,,1.261,15,2,8.837,W*1A
$GNRMC,024957.00,A,3737.7555639,N,12704.7384238,E,0.3,,190324,8.8,W,D*1E
$PSSN,HRP,024957.00,190324,195.734,,3.500,1.345,,1.318,15,2,8.837,W*1E
$GNRMC,024957.50,A,3737.7555706,N,12704.7384335,E,0.2,,190324,8.8,W,D*1B
$PSSN,HRP,024957.50,190324,194.920,,3.217,1.363,,1.330,15,2,8.837,W*1E
$GNRMC,024958.00,A,3737.7555753,N,12704.7384359,E,0.2,,190324,8.8,W,D*1B
$PSSN,HRP,024958.00,190324,194.059,,2.876,1.334,,1.310,15,2,8.837,W*1F
$GNRMC,024958.50,A,3737.7555737,N,12704.7384352,E,0.1,,190324,8.8,W,D*14
$PSSN,HRP,024958.50,190324,193.966,,2.886,1.345,,1.302,15,2,8.837,W*12
$GNRMC,024959.00,A,3737.7555721,N,12704.7384310,E,0.0,,190324,8.8,W,D*10
$PSSN,HRP,024959.00,190324,193.666,,2.815,1.347,,1.307,15,2,8.837,W*14
$GNRMC,024959.50,A,3737.7555700,N,12704.7384327,E,0.0,,190324,8.8,W,D*12
$PSSN,HRP,024959.50,190324,194.058,,3.091,1.335,,1.291,15,2,8.837,W*13
$GNRMC,025000.00,A,3737.7555701,N,12704.7384323,E,0.0,,190324,8.8,W,D*16
$PSSN,HRP,025000.00,190324,194.359,,3.297,1.326,,1.275,15,2,8.837,W*1C
$GNRMC,025000.50,A,3737.7555722,N,12704.7384388,E,0.0,,190324,8.8,W,D*13
$PSSN,HRP,025000.50,190324,194.101,,3.353,1.342,,1.288,15,2,8.837,W*1F
$GNRMC,025001.00,A,3737.7555756,N,12704.7384426,E,0.0,,190324,8.8,W,D*17
$PSSN,HRP,025001.00,190324,193.778,,3.011,1.356,,1.306,15,2,8.837,W*13
$GNRMC,025001.50,A,3737.7555670,N,12704.7385000,E,0.3,93.3,190324,8.8,W,D*02
$PSSN,HRP,025001.50,190324,197.035,,3.940,1.351,,1.299,16,2,8.837,W*12
$GNRMC,025002.00,A,3737.7555676,N,12704.7385382,E,0.1,,190324,8.8,W,D*1E
$PSSN,HRP,025002.00,190324,198.428,,4.132,1.315,,1.265,16,2,8.837,W*1A
$GNRMC,025002.50,A,3737.7555657,N,12704.7385256,E,0.0,,190324,8.8,W,D*11
$PSSN,HRP,025002.50,190324,199.281,,4.596,1.361,,1.286,12,2,8.837,W*1B
$GNRMC,025003.00,A,3737.7555611,N,12704.7384463,E,0.5,265.7,190324,8.8,W,D*3B
$PSSN,HRP,025003.00,190324,198.051,,4.103,1.566,,1.414,12,2,8.837,W*15
$GNRMC,025003.50,A,3737.7555746,N,12704.7384413,E,0.2,,190324,8.8,W,D*15
$PSSN,HRP,025003.50,190324,195.806,,3.381,1.645,,1.451,15,2,8.837,W*1C
$GNRMC,025004.00,A,3737.7555785,N,12704.7384499,E,0.0,,190324,8.8,W,D*18
$PSSN,HRP,025004.00,190324,195.172,,2.939,1.549,,1.398,15,2,8.837,W*11
$GNRMC,025004.50,A,3737.7555731,N,12704.7384486,E,0.0,,190324,8.8,W,D*1C
$PSSN,HRP,025004.50,190324,194.635,,2.599,1.523,,1.380,15,2,8.837,W*12
$GNRMC,025005.00,A,3737.7555671,N,12704.7384512,E,0.0,,190324,8.8,W,D*11
$PSSN,HRP,025005.00,190324,194.035,,2.464,1.498,,1.394,15,2,8.837,W*17
$GNRMC,025005.50,A,3737.7555697,N,12704.7384515,E,0.0,,190324,8.8,W,D*1B
$PSSN,HRP,025005.50,190324,194.600,,3.011,1.424,,1.344,13,2,8.837,W*19
$GNRMC,025006.00,A,3737.7555700,N,12704.7384550,E,0.0,,190324,8.8,W,D*13
$PSSN,HRP,025006.00,190324,194.817,,3.309,1.374,,1.279,13,2,8.837,W*10
$GNRMC,025006.50,A,3737.7555668,N,12704.7384645,E,0.3,,190324,8.8,W,D*1D
$PSSN,HRP,025006.50,190324,195.853,,3.154,1.405,,1.311,13,2,8.837,W*10
$GNRMC,025007.00,A,3737.7555686,N,12704.7385165,E,0.1,,190324,8.8,W,D*1F
$PSSN,HRP,025007.00,190324,198.003,,3.880,1.371,,1.290,13,2,8.837,W*18
$GNRMC,025007.50,A,3737.7555682,N,12704.7385314,E,0.0,,190324,8.8,W,D*1B
$PSSN,HRP,025007.50,190324,198.791,,3.850,1.375,,1.309,13,2,8.837,W*19
$GNRMC,025008.00,A,3737.7555656,N,12704.7384913,E,0.5,,190324,8.8,W,D*11
$PSSN,HRP,025008.00,190324,198.033,,3.663,1.397,,1.337,13,2,8.837,W*13
$GNRMC,025008.50,A,3737.7555779,N,12704.7384398,E,0.1,276.4,190324,8.8,W,D*3C
$PSSN,HRP,025008.50,190324,194.282,,3.300,1.414,,1.325,13,2,8.837,W*1D
$GNRMC,025009.00,A,3737.7555776,N,12704.7384333,E,0.1,,190324,8.8,W,D*1F
$PSSN,HRP,025009.00,190324,194.676,,3.308,1.401,,1.307,13,2,8.837,W*1A
$GNRMC,025009.50,A,3737.7555750,N,12704.7384546,E,0.1,,190324,8.8,W,D*1A
$PSSN,HRP,025009.50,190324,194.592,,3.347,1.395,,1.315,13,2,8.837,W*14
$GNRMC,025010.00,A,3737.7555726,N,12704.7384740,E,0.0,,190324,8.8,W,D*13
$PSSN,HRP,025010.00,190324,194.435,,3.436,1.378,,1.336,13,2,8.837,W*16
$GNRMC,025010.50,A,3737.7555717,N,12704.7384590,E,0.0,,190324,8.8,W,D*1B
$PSSN,HRP,025010.50,190324,194.400,,3.430,1.388,,1.349,13,2,8.837,W*14
$GNRMC,025011.00,A,3737.7555716,N,12704.7384448,E,0.0,,190324,8.8,W,D*1A
$PSSN,HRP,025011.00,190324,194.238,,3.329,1.398,,1.340,13,2,8.837,W*1A
$GNRMC,025011.50,A,3737.7555636,N,12704.7384649,E,0.2,,190324,8.8,W,D*1D
$PSSN,HRP,025011.50,190324,195.967,,3.257,1.400,,1.321,13,2,8.837,W*16
$GNRMC,025012.00,A,3737.7555652,N,12704.7385235,E,0.2,93.8,190324,8.8,W,D*0B
$PSSN,HRP,025012.00,190324,198.226,,3.953,1.331,,1.274,13,2,8.837,W*18
$GNRMC,025012.50,A,3737.7555638,N,12704.7385088,E,0.1,,190324,8.8,W,D*19
$PSSN,HRP,025012.50,190324,198.519,,4.007,1.351,,1.292,11,2,8.837,W*15
$GNRMC,025013.00,A,3737.7555636,N,12704.7384936,E,0.0,,190324,8.8,W,D*1F
$PSSN,HRP,025013.00,190324,198.500,,3.897,1.398,,1.317,11,2,8.837,W*16
$GNRMC,025013.50,A,3737.7555591,N,12704.7384427,E,0.2,,190324,8.8,W,D*1B
$PSSN,HRP,025013.50,190324,196.777,,3.305,1.634,,1.407,13,2,8.837,W*18
$GNRMC,025014.00,A,3737.7555613,N,12704.7383901,E,0.1,,190324,8.8,W,D*1D
$PSSN,HRP,025014.00,190324,195.844,,3.171,1.767,,1.440,13,2,8.837,W*13
$GNRMC,025014.50,A,3737.7555633,N,12704.7384153,E,0.0,,190324,8.8,W,D*13
$PSSN,HRP,025014.50,190324,194.601,,2.803,1.842,,1.475,16,2,8.837,W*1E
$GNRMC,025015.00,A,3737.7555645,N,12704.7384449,E,0.0,,190324,8.8,W,D*18
$PSSN,HRP,025015.00,190324,193.964,,2.729,1.669,,1.436,16,2,8.837,W*16
$GNRMC,025015.50,A,3737.7555656,N,12704.7384469,E,0.0,,190324,8.8,W,D*1D
$PSSN,HRP,025015.50,190324,193.662,,2.553,1.583,,1.391,15,2,8.837,W*1B
$GNRMC,025016.00,A,3737.7555645,N,12704.7384474,E,0.0,,190324,8.8,W,D*15
$PSSN,HRP,025016.00,190324,193.360,,2.590,1.544,,1.372,15,2,8.837,W*13
$GNRMC,025016.50,A,3737.7555648,N,12704.7384523,E,0.0,,190324,8.8,W,D*1E
$PSSN,HRP,025016.50,190324,193.605,,2.697,1.494,,1.341,13,2,8.837,W*1E
$GNRMC,025017.00,A,3737.7555575,N,12704.7384886,E,0.3,,190324,8.8,W,D*16
$PSSN,HRP,025017.00,190324,196.306,,3.111,1.460,,1.319,13,2,8.837,W*17
$GNRMC,025017.50,A,3737.7555657,N,12704.7385392,E,0.1,,190324,8.8,W,D*1D
$PSSN,HRP,025017.50,190324,197.911,,3.956,1.454,,1.304,12,2,8.837,W*1E
$GNRMC,025018.00,A,3737.7555720,N,12704.7385371,E,0.0,,190324,8.8,W,D*1A
$PSSN,HRP,025018.00,190324,197.951,,4.212,1.565,,1.370,12,2,8.837,W*1C
$GNRMC,025018.50,A,3737.7555660,N,12704.7385142,E,0.0,,190324,8.8,W,D*18
$PSSN,HRP,025018.50,190324,197.920,,4.574,1.638,,1.420,15,2,8.837,W*16
$GNRMC,025019.00,A,3737.7555598,N,12704.7384404,E,0.2,,190324,8.8,W,D*1C
$PSSN,HRP,025019.00,190324,195.939,,3.835,1.629,,1.441,14,2,8.837,W*11
$GNRMC,025019.50,A,3737.7555696,N,12704.7384426,E,0.1,,190324,8.8,W,D*17
$PSSN,HRP,025019.50,190324,194.383,,3.636,1.584,,1.401,12,2,8.837,W*15
$GNRMC,025020.00,A,3737.7555732,N,12704.7384497,E,0.0,,190324,8.8,W,D*1C
$PSSN,HRP,025020.00,190324,193.743,,3.423,1.567,,1.380,12,2,8.837,W*10
$GNRMC,025020.50,A,3737.7555691,N,12704.7384544,E,0.0,,190324,8.8,W,D*1E
$PSSN,HRP,025020.50,190324,193.524,,3.131,1.578,,1.396,13,2,8.837,W*18
$GNRMC,025021.00,A,3737.7555659,N,12704.7384633,E,0.0,,190324,8.8,W,D*1D
$PSSN,HRP,025021.00,190324,193.531,,2.905,1.587,,1.416,13,2,8.837,W*19
$GNRMC,025021.50,A,3737.7555675,N,12704.7384608,E,0.0,,190324,8.8,W,D*1E
$PSSN,HRP,025021.50,190324,193.531,,2.994,1.548,,1.402,13,2,8.837,W*12
$GNRMC,025022.00,A,3737.7555686,N,12704.7384588,E,0.0,,190324,8.8,W,D*1F
$PSSN,HRP,025022.00,190324,193.695,,3.161,1.490,,1.359,13,2,8.837,W*17
$GNRMC,025022.50,A,3737.7555615,N,12704.7384910,E,0.2,,190324,8.8,W,D*1F
$PSSN,HRP,025022.50,190324,196.097,,3.131,1.453,,1.342,13,2,8.837,W*13
$GNRMC,025023.00,A,3737.7555663,N,12704.7385365,E,0.2,,190324,8.8,W,D*13
$PSSN,HRP,025023.00,190324,197.240,,3.600,1.406,,1.303,13,2,8.837,W*1E
$GNRMC,025023.50,A,3737.7555710,N,12704.7385427,E,0.0,,190324,8.8,W,D*10
$PSSN,HRP,025023.50,190324,197.473,,3.952,1.402,,1.301,13,2,8.837,W*13
$GNRMC,025024.00,A,3737.7555715,N,12704.7385053,E,0.4,,190324,8.8,W,D*14
$PSSN,HRP,025024.00,190324,196.875,,3.953,1.466,,1.350,13,2,8.837,W*1D
$GNRMC,025024.50,A,3737.7555743,N,12704.7384682,E,0.2,,190324,8.8,W,D*1F
$PSSN,HRP,025024.50,190324,194.396,,3.610,1.498,,1.369,13,2,8.837,W*1F
$GNRMC,025025.00,A,3737.7555738,N,12704.7384685,E,0.0,,190324,8.8,W,D*12
$PSSN,HRP,025025.00,190324,194.323,,3.745,1.450,,1.325,13,2,8.837,W*18
$GNRMC,025025.50,A,3737.7555710,N,12704.7384649,E,0.0,,190324,8.8,W,D*1D
$PSSN,HRP,025025.50,190324,194.032,,3.331,1.432,,1.330,15,2,8.837,W*1F
$GNRMC,025026.00,A,3737.7555679,N,12704.7384619,E,0.0,,190324,8.8,W,D*10
$PSSN,HRP,025026.00,190324,193.843,,2.896,1.424,,1.334,15,2,8.837,W*14
$GNRMC,025026.50,A,3737.7555682,N,12704.7384636,E,0.0,,190324,8.8,W,D*1C
$PSSN,HRP,025026.50,190324,194.164,,3.230,1.416,,1.324,13,2,8.837,W*1B
$GNRMC,025027.00,A,3737.7555688,N,12704.7384589,E,0.0,,190324,8.8,W,D*15
$PSSN,HRP,025027.00,190324,194.393,,3.259,1.401,,1.308,13,2,8.837,W*12
$GNRMC,025027.50,A,3737.7555720,N,12704.7384561,E,0.0,,190324,8.8,W,D*15
$PSSN,HRP,025027.50,190324,194.130,,3.380,1.413,,1.320,13,2,8.837,W*10
$GNRMC,025028.00,A,3737.7555650,N,12704.7384739,E,0.4,,190324,8.8,W,D*12
$PSSN,HRP,025028.00,190324,196.086,,3.580,1.430,,1.335,13,2,8.837,W*17
$GNRMC,025028.50,A,3737.7555704,N,12704.7385421,E,0.4,89.7,190324,8.8,W,D*04
$PSSN,HRP,025028.50,190324,197.714,,4.494,1.378,,1.279,13,2,8.837,W*1E
$GNRMC,025029.00,A,3737.7555702,N,12704.7385429,E,0.0,,190324,8.8,W,D*12
$PSSN,HRP,025029.00,190324,197.618,,4.440,1.329,,1.232,13,2,8.837,W*15
$GNRMC,025029.50,A,3737.7555658,N,12704.7384858,E,0.4,,190324,8.8,W,D*16
$PSSN,HRP,025029.50,190324,195.894,,3.529,1.403,,1.292,12,2,8.837,W*15
$GNRMC,025030.00,A,3737.7555649,N,12704.7384497,E,0.1,,190324,8.8,W,D*11
$PSSN,HRP,025030.00,190324,195.189,,3.897,1.402,,1.289,12,2,8.837,W*1E
$GNRMC,025030.50,A,3737.7555736,N,12704.7384427,E,0.3,,190324,8.8,W,D*14
$PSSN,HRP,025030.50,190324,193.066,,3.593,1.402,,1.283,13,2,8.837,W*1F
$GNRMC,025031.00,A,3737.7555734,N,12704.7384551,E,0.0,,190324,8.8,W,D*11
$PSSN,HRP,025031.00,190324,193.009,,3.116,1.350,,1.259,13,2,8.837,W*1C
$GNRMC,025031.50,A,3737.7555676,N,12704.7384523,E,0.0,,190324,8.8,W,D*16
$PSSN,HRP,025031.50,190324,193.087,,3.117,1.350,,1.264,15,2,8.837,W*16
$GNRMC,025032.00,A,3737.7555677,N,12704.7384554,E,0.0,,190324,8.8,W,D*11
$PSSN,HRP,025032.00,190324,193.167,,2.986,1.343,,1.262,15,2,8.837,W*1A
$GNRMC,025032.50,A,3737.7555682,N,12704.7384373,E,0.2,,190324,8.8,W,D*1F
$PSSN,HRP,025032.50,190324,193.470,,2.693,1.380,,1.298,13,2,8.837,W*1B
$GNRMC,025033.00,A,3737.7555722,N,12704.7384246,E,0.0,,190324,8.8,W,D*15
$PSSN,HRP,025033.00,190324,193.033,,2.649,1.406,,1.330,13,2,8.837,W*11
$GNRMC,025033.50,A,3737.7555626,N,12704.7384608,E,0.4,,190324,8.8,W,D*1F
$PSSN,HRP,025033.50,190324,195.098,,2.495,1.465,,1.389,13,2,8.837,W*17
$GNRMC,025034.00,A,3737.7555603,N,12704.7385050,E,0.1,,190324,8.8,W,D*15
$PSSN,HRP,025034.00,190324,196.878,,2.712,1.407,,1.341,13,2,8.837,W*1C
$GNRMC,025034.50,A,3737.7555612,N,12704.7384983,E,0.0,,190324,8.8,W,D*17
$PSSN,HRP,025034.50,190324,196.686,,2.655,1.396,,1.333,13,2,8.837,W*1E
$GNRMC,025035.00,A,3737.7555636,N,12704.7384920,E,0.1,,190324,8.8,W,D*1D
$PSSN,HRP,025035.00,190324,196.919,,2.776,1.386,,1.340,13,2,8.837,W*16
$GNRMC,025035.50,A,3737.7555683,N,12704.7384538,E,0.3,,190324,8.8,W,D*11
$PSSN,HRP,025035.50,190324,194.383,,2.550,1.449,,1.359,13,2,8.837,W*12
$GNRMC,025036.00,A,3737.7555766,N,12704.7384410,E,0.0,,190324,8.8,W,D*15
$PSSN,HRP,025036.00,190324,193.155,,2.918,1.418,,1.327,13,2,8.837,W*17
$GNRMC,025036.50,A,3737.7555765,N,12704.7384568,E,0.0,,190324,8.8,W,D*1D
$PSSN,HRP,025036.50,190324,193.428,,3.382,1.371,,1.291,13,2,8.837,W*11
$GNRMC,025037.00,A,3737.7555775,N,12704.7384728,E,0.0,,190324,8.8,W,D*1E
$PSSN,HRP,025037.00,190324,193.531,,3.425,1.331,,1.266,13,2,8.837,W*1A
$GNRMC,025037.50,A,3737.7555768,N,12704.7384631,E,0.0,,190324,8.8,W,D*1E
$PSSN,HRP,025037.50,190324,193.680,,3.541,1.338,,1.272,15,2,8.837,W*1F
$GNRMC,025038.00,A,3737.7555783,N,12704.7384490,E,0.0,,190324,8.8,W,D*18
$PSSN,HRP,025038.00,190324,193.839,,3.703,1.353,,1.288,15,2,8.837,W*15
$GNRMC,025038.50,A,3737.7555705,N,12704.7384720,E,0.3,,190324,8.8,W,D*18
$PSSN,HRP,025038.50,190324,195.212,,3.469,1.373,,1.304,13,2,8.837,W*1B
$GNRMC,025039.00,A,3737.7555672,N,12704.7385213,E,0.5,94.1,190324,8.8,W,D*0D
$PSSN,HRP,025039.00,190324,198.020,,3.948,1.327,,1.260,13,2,8.837,W*1D
$GNRMC,025039.50,A,3737.7555667,N,12704.7385174,E,0.0,,190324,8.8,W,D*19
$PSSN,HRP,025039.50,190324,198.352,,3.810,1.328,,1.287,12,2,8.837,W*15
$GNRMC,025040.00,A,3737.7555654,N,12704.7385024,E,0.1,,190324,8.8,W,D*17
$PSSN,HRP,025040.00,190324,197.966,,3.362,1.384,,1.353,12,2,8.837,W*1C
$GNRMC,025040.50,A,3737.7555761,N,12704.7384537,E,0.4,279.7,190324,8.8,W,D*33
$PSSN,HRP,025040.50,190324,194.332,,3.097,1.438,,1.365,13,2,8.837,W*1C
$GNRMC,025041.00,A,3737.7555765,N,12704.7384313,E,0.0,,190324,8.8,W,D*12
$PSSN,HRP,025041.00,190324,193.592,,3.096,1.348,,1.283,13,2,8.837,W*1B
$GNRMC,025041.50,A,3737.7555734,N,12704.7384540,E,0.1,,190324,8.8,W,D*12
$PSSN,HRP,025041.50,190324,193.938,,3.084,1.338,,1.266,16,2,8.837,W*18
$GNRMC,025042.00,A,3737.7555723,N,12704.7384608,E,0.0,,190324,8.8,W,D*1C
$PSSN,HRP,025042.00,190324,193.714,,3.047,1.327,,1.243,16,2,8.837,W*18
$GNRMC,025042.50,A,3737.7555742,N,12704.7384586,E,0.0,,190324,8.8,W,D*1B
$PSSN,HRP,025042.50,190324,193.564,,2.898,1.332,,1.238,14,2,8.837,W*19
$GNRMC,025043.00,A,3737.7555789,N,12704.7384516,E,0.0,,190324,8.8,W,D*11
$PSSN,HRP,025043.00,190324,193.475,,3.091,1.324,,1.243,14,2,8.837,W*17
$GNRMC,025043.50,A,3737.7555748,N,12704.7384644,E,0.1,,190324,8.8,W,D*1C
$PSSN,HRP,025043.50,190324,194.834,,2.621,1.346,,1.266,14,2,8.837,W*13
$GNRMC,025044.00,A,3737.7555705,N,12704.7385274,E,0.1,93.2,190324,8.8,W,D*07
$PSSN,HRP,025044.00,190324,198.248,,2.963,1.332,,1.261,14,2,8.837,W*11
$GNRMC,025044.50,A,3737.7555755,N,12704.7385272,E,0.1,,190324,8.8,W,D*17
$PSSN,HRP,025044.50,190324,198.247,,2.703,1.340,,1.278,13,2,8.837,W*19
$GNRMC,025045.00,A,3737.7555767,N,12704.7384727,E,0.3,,190324,8.8,W,D*14
$PSSN,HRP,025045.00,190324,195.459,,1.743,1.380,,1.318,13,2,8.837,W*15
$GNRMC,025045.50,A,3737.7555747,N,12704.7384606,E,0.0,,190324,8.8,W,D*12
$PSSN,HRP,025045.50,190324,194.337,,2.035,1.359,,1.300,15,2,8.837,W*10
$GNRMC,025046.00,A,3737.7555735,N,12704.7384478,E,0.1,,190324,8.8,W,D*1B
$PSSN,HRP,025046.00,190324,193.431,,2.170,1.343,,1.298,14,2,8.837,W*1A
$GNRMC,025046.50,A,3737.7555737,N,12704.7384464,E,0.0,,190324,8.8,W,D*10
$PSSN,HRP,025046.50,190324,193.103,,2.362,1.340,,1.293,14,2,8.837,W*12
$GNRMC,025047.00,A,3737.7555703,N,12704.7384478,E,0.0,,190324,8.8,W,D*1E
$PSSN,HRP,025047.00,190324,193.707,,2.514,1.337,,1.281,14,2,8.837,W*10
$GNRMC,025047.50,A,3737.7555716,N,12704.7384553,E,0.0,,190324,8.8,W,D*17
$PSSN,HRP,025047.50,190324,194.027,,2.586,1.343,,1.275,14,2,8.837,W*14
$GNRMC,025048.00,A,3737.7555738,N,12704.7384571,E,0.0,,190324,8.8,W,D*11
$PSSN,HRP,025048.00,190324,193.951,,2.601,1.346,,1.281,14,2,8.837,W*13
$GNRMC,025048.50,A,3737.7555733,N,12704.7384739,E,0.0,,190324,8.8,W,D*11
$PSSN,HRP,025048.50,190324,194.018,,2.680,1.362,,1.297,14,2,8.837,W*1D
$GNRMC,025049.00,A,3737.7555609,N,12704.7385372,E,0.4,108.7,190324,8.8,W,D*33
$PSSN,HRP,025049.00,190324,198.049,,2.947,1.377,,1.312,14,2,8.837,W*1D
$GNRMC,025049.50,A,3737.7555693,N,12704.7385832,E,0.0,89.3,190324,8.8,W,D*02
$PSSN,HRP,025049.50,190324,198.777,,3.489,1.338,,1.276,15,2,8.837,W*15
$GNRMC,025050.00,A,3737.7555636,N,12704.7385261,E,0.3,,190324,8.8,W,D*13
$PSSN,HRP,025050.00,190324,198.369,,3.391,1.337,,1.272,15,2,8.837,W*16
$GNRMC,025050.50,A,3737.7555674,N,12704.7384869,E,0.3,,190324,8.8,W,D*13
$PSSN,HRP,025050.50,190324,196.010,,2.447,1.447,,1.336,15,2,8.837,W*1C
$GNRMC,025051.00,A,3737.7555752,N,12704.7384640,E,0.1,,190324,8.8,W,D*15
$PSSN,HRP,025051.00,190324,194.681,,2.427,1.535,,1.375,15,2,8.837,W*11
$GNRMC,025051.50,A,3737.7555733,N,12704.7384714,E,0.1,,190324,8.8,W,D*17
$PSSN,HRP,025051.50,190324,194.914,,2.702,1.611,,1.413,16,2,8.837,W*12
$GNRMC,025052.00,A,3737.7555756,N,12704.7384669,E,0.1,,190324,8.8,W,D*19
$PSSN,HRP,025052.00,190324,194.572,,3.149,1.527,,1.364,16,2,8.837,W*11
$GNRMC,025052.50,A,3737.7555728,N,12704.7384641,E,0.0,,190324,8.8,W,D*1E
$PSSN,HRP,025052.50,190324,193.546,,3.096,1.457,,1.342,14,2,8.837,W*17
$GNRMC,025053.00,A,3737.7555718,N,12704.7384632,E,0.0,,190324,8.8,W,D*1D
$PSSN,HRP,025053.00,190324,193.237,,2.935,1.426,,1.345,14,2,8.837,W*12
$GNRMC,025053.50,A,3737.7555742,N,12704.7384744,E,0.0,,190324,8.8,W,D*17
$PSSN,HRP,025053.50,190324,193.384,,2.962,1.367,,1.299,14,2,8.837,W*1E
$GNRMC,025054.00,A,3737.7555617,N,12704.7385042,E,0.3,,190324,8.8,W,D*17
$PSSN,HRP,025054.00,190324,197.272,,3.082,1.325,,1.247,15,2,8.837,W*12
$GNRMC,025054.50,A,3737.7555720,N,12704.7385683,E,0.5,91.3,190324,8.8,W,D*0F
$PSSN,HRP,025054.50,190324,199.219,,3.826,1.315,,1.246,14,2,8.837,W*11
$GNRMC,025055.00,A,3737.7555734,N,12704.7385468,E,0.1,,190324,8.8,W,D*18
$PSSN,HRP,025055.00,190324,199.232,,3.828,1.365,,1.312,14,2,8.837,W*15
$GNRMC,025055.50,A,3737.7555675,N,12704.7384567,E,0.1,,190324,8.8,W,D*16
$PSSN,HRP,025055.50,190324,196.787,,3.066,1.483,,1.395,13,2,8.837,W*11
$GNRMC,025056.00,A,3737.7555655,N,12704.7384308,E,0.1,,190324,8.8,W,D*1D
$PSSN,HRP,025056.00,190324,196.215,,3.757,1.506,,1.348,13,2,8.837,W*10
$GNRMC,025056.50,A,3737.7555706,N,12704.7384546,E,0.1,,190324,8.8,W,D*13
$PSSN,HRP,025056.50,190324,195.223,,3.204,1.554,,1.383,14,2,8.837,W*17
$GNRMC,025057.00,A,3737.7555757,N,12704.7384800,E,0.0,,190324,8.8,W,D*1D
$PSSN,HRP,025057.00,190324,194.324,,2.839,1.585,,1.428,14,2,8.837,W*1B
$GNRMC,025057.50,A,3737.7555749,N,12704.7384810,E,0.0,,190324,8.8,W,D*16
$PSSN,HRP,025057.50,190324,193.967,,2.476,1.462,,1.382,15,2,8.837,W*1D
$GNRMC,025058.00,A,3737.7555759,N,12704.7384830,E,0.0,,190324,8.8,W,D*1F
$PSSN,HRP,025058.00,190324,193.331,,2.370,1.246,,1.230,15,2,8.837,W*17
$GNRMC,025058.50,A,3737.7555752,N,12704.7384814,E,0.0,,190324,8.8,W,D*17
$PSSN,HRP,025058.50,190324,193.329,,2.330,1.264,,1.245,15,2,8.837,W*1D
$GNRMC,025059.00,A,3737.7555620,N,12704.7384981,E,0.4,,190324,8.8,W,D*1E
$PSSN,HRP,025059.00,190324,196.784,,2.263,1.304,,1.285,15,2,8.837,W*13
$GNRMC,025059.50,A,3737.7555697,N,12704.7385788,E,0.3,90.4,190324,8.8,W,D*05
$PSSN,HRP,025059.50,190324,198.159,,2.799,1.285,,1.272,15,2,8.837,W*1E
$GNRMC,025100.00,A,3737.7555649,N,12704.7385262,E,0.6,,190324,8.8,W,D*19
$PSSN,HRP,025100.00,190324,197.124,,2.644,1.305,,1.307,15,2,8.837,W*18
$GNRMC,025100.50,A,3737.7555675,N,12704.7384745,E,0.2,,190324,8.8,W,D*16
$PSSN,HRP,025100.50,190324,195.024,,2.031,1.343,,1.313,14,2,8.837,W*1C
$GNRMC,025101.00,A,3737.7555678,N,12704.7384551,E,0.0,,190324,8.8,W,D*1A
$PSSN,HRP,025101.00,190324,194.479,,2.185,1.377,,1.306,14,2,8.837,W*18
$GNRMC,025101.50,A,3737.7555703,N,12704.7384620,E,0.0,,190324,8.8,W,D*17
$PSSN,HRP,025101.50,190324,193.611,,1.956,1.435,,1.334,17,2,8.837,W*10
$GNRMC,025102.00,A,3737.7555721,N,12704.7384677,E,0.0,,190324,8.8,W,D*13
$PSSN,HRP,025102.00,190324,192.829,,1.625,1.424,,1.357,17,2,8.837,W*1C
$GNRMC,025102.50,A,3737.7555722,N,12704.7384620,E,0.0,,190324,8.8,W,D*17
$PSSN,HRP,025102.50,190324,192.901,,1.952,1.318,,1.289,15,2,8.837,W*15
$GNRMC,025103.00,A,3737.7555724,N,12704.7384607,E,0.0,,190324,8.8,W,D*10
$PSSN,HRP,025103.00,190324,193.083,,2.373,1.215,,1.192,15,2,8.837,W*1C
$GNRMC,025103.50,A,3737.7555691,N,12704.7384787,E,0.1,,190324,8.8,W,D*12
$PSSN,HRP,025103.50,190324,193.705,,1.985,1.245,,1.226,15,2,8.837,W*19
$GNRMC,025104.00,A,3737.7555617,N,12704.7385261,E,0.3,,190324,8.8,W,D*10
$PSSN,HRP,025104.00,190324,196.664,,2.624,1.266,,1.253,15,2,8.837,W*1C
$GNRMC,025104.50,A,3737.7555641,N,12704.7385590,E,0.1,,190324,8.8,W,D*1D
$PSSN,HRP,025104.50,190324,197.707,,2.814,1.287,,1.273,16,2,8.837,W*1F
$GNRMC,025105.00,A,3737.7555615,N,12704.7385214,E,0.5,,190324,8.8,W,D*17
$PSSN,HRP,025105.00,190324,197.567,,2.716,1.361,,1.306,16,2,8.837,W*18
$GNRMC,025105.50,A,3737.7555611,N,12704.7384841,E,0.1,,190324,8.8,W,D*19
$PSSN,HRP,025105.50,190324,197.007,,2.289,1.394,,1.331,18,2,8.837,W*1D
$GNRMC,025106.00,A,3737.7555684,N,12704.7384740,E,0.0,,190324,8.8,W,D*1C
$PSSN,HRP,025106.00,190324,194.896,,2.746,1.369,,1.301,18,2,8.837,W*1F
$GNRMC,025106.50,A,3737.7555651,N,12704.7384761,E,0.0,,190324,8.8,W,D*12
$PSSN,HRP,025106.50,190324,195.363,,2.296,1.362,,1.297,18,2,8.837,W*17
$GNRMC,025107.00,A,3737.7555705,N,12704.7384726,E,0.1,,190324,8.8,W,D*14
$PSSN,HRP,025107.00,190324,193.989,,1.896,1.357,,1.304,18,2,8.837,W*1F
$GNRMC,025107.50,A,3737.7555754,N,12704.7384694,E,0.1,,190324,8.8,W,D*1D
$PSSN,HRP,025107.50,190324,193.459,,1.963,1.351,,1.314,17,2,8.837,W*19
$GNRMC,025108.00,A,3737.7555786,N,12704.7384727,E,0.0,,190324,8.8,W,D*10
$PSSN,HRP,025108.00,190324,192.996,,1.822,1.333,,1.308,17,2,8.837,W*11
$GNRMC,025108.50,A,3737.7555768,N,12704.7384713,E,0.1,,190324,8.8,W,D*13
$PSSN,HRP,025108.50,190324,192.687,,2.038,1.349,,1.309,15,2,8.837,W*15
$GNRMC,025109.00,A,3737.7555751,N,12704.7384611,E,0.1,,190324,8.8,W,D*1E
$PSSN,HRP,025109.00,190324,192.825,,2.158,1.355,,1.309,14,2,8.837,W*1C
$GNRMC,025109.50,A,3737.7555750,N,12704.7384583,E,0.0,,190324,8.8,W,D*13
$PSSN,HRP,025109.50,190324,192.702,,2.198,1.357,,1.298,14,2,8.837,W*14
$GNRMC,025110.00,A,3737.7555738,N,12704.7384639,E,0.1,,190324,8.8,W,D*13
$PSSN,HRP,025110.00,190324,193.015,,2.081,1.342,,1.268,14,2,8.837,W*1B
$GNRMC,025110.50,A,3737.7555576,N,12704.7384993,E,0.3,126.6,190324,8.8,W,D*3E
$PSSN,HRP,025110.50,190324,197.223,,2.611,1.385,,1.310,14,2,8.837,W*17
$GNRMC,025111.00,A,3737.7555633,N,12704.7385699,E,0.0,92.3,190324,8.8,W,D*04
$PSSN,HRP,025111.00,190324,198.723,,3.497,1.362,,1.295,14,2,8.837,W*11
$GNRMC,025111.50,A,3737.7555615,N,12704.7385416,E,0.2,,190324,8.8,W,D*14
$PSSN,HRP,025111.50,190324,199.626,,3.685,1.419,,1.334,13,2,8.837,W*16
$GNRMC,025112.00,A,3737.7555580,N,12704.7384612,E,0.1,266.8,190324,8.8,W,D*3D
$PSSN,HRP,025112.00,190324,198.302,,2.823,1.511,,1.377,13,2,8.837,W*1F
$GNRMC,025112.50,A,3737.7555742,N,12704.7384562,E,0.1,,190324,8.8,W,D*14
$PSSN,HRP,025112.50,190324,195.201,,3.041,1.478,,1.349,13,2,8.837,W*1B
$GNRMC,025113.00,A,3737.7555749,N,12704.7384489,E,0.1,,190324,8.8,W,D*1F
$PSSN,HRP,025113.00,190324,194.243,,3.034,1.322,,1.267,13,2,8.837,W*1F
$GNRMC,025113.50,A,3737.7555772,N,12704.7384620,E,0.1,,190324,8.8,W,D*13
$PSSN,HRP,025113.50,190324,193.900,,2.844,1.317,,1.273,14,2,8.837,W*1B
$GNRMC,025114.00,A,3737.7555745,N,12704.7384760,E,0.0,,190324,8.8,W,D*11
$PSSN,HRP,025114.00,190324,193.717,,2.754,1.318,,1.279,14,2,8.837,W*1A
$GNRMC,025114.50,A,3737.7555747,N,12704.7384661,E,0.0,,190324,8.8,W,D*16
$PSSN,HRP,025114.50,190324,193.842,,2.522,1.341,,1.303,14,2,8.837,W*13
$GNRMC,025115.00,A,3737.7555705,N,12704.7384760,E,0.1,,190324,8.8,W,D*15
$PSSN,HRP,025115.00,190324,194.715,,2.256,1.410,,1.354,14,2,8.837,W*18
$GNRMC,025115.50,A,3737.7555645,N,12704.7385511,E,0.1,94.4,190324,8.8,W,D*07
$PSSN,HRP,025115.50,190324,198.347,,3.391,1.406,,1.341,14,2,8.837,W*1A
$GNRMC,025116.00,A,3737.7555641,N,12704.7385674,E,0.1,,190324,8.8,W,D*12
$PSSN,HRP,025116.00,190324,199.018,,3.640,1.349,,1.293,14,2,8.837,W*1F
$GNRMC,025116.50,A,3737.7555589,N,12704.7384895,E,0.4,264.2,190324,8.8,W,D*39
$PSSN,HRP,025116.50,190324,197.655,,3.070,1.427,,1.338,13,2,8.837,W*16
$GNRMC,025117.00,A,3737.7555743,N,12704.7384410,E,0.2,286.5,190324,8.8,W,D*35
$PSSN,HRP,025117.00,190324,193.971,,3.005,1.527,,1.363,13,2,8.837,W*12
$GNRMC,025117.50,A,3737.7555724,N,12704.7384508,E,0.0,,190324,8.8,W,D*1C
$PSSN,HRP,025117.50,190324,193.565,,2.925,1.505,,1.349,14,2,8.837,W*1B
$GNRMC,025118.00,A,3737.7555692,N,12704.7384640,E,0.0,,190324,8.8,W,D*15
$PSSN,HRP,025118.00,190324,193.550,,2.734,1.319,,1.247,14,2,8.837,W*1D
$GNRMC,025118.50,A,3737.7555715,N,12704.7384489,E,0.0,,190324,8.8,W,D*19
$PSSN,HRP,025118.50,190324,193.276,,2.835,1.328,,1.255,16,2,8.837,W*16
$GNRMC,025119.00,A,3737.7555724,N,12704.7384441,E,0.1,,190324,8.8,W,D*1A
$PSSN,HRP,025119.00,190324,193.363,,3.036,1.346,,1.267,16,2,8.837,W*14
$GNRMC,025119.50,A,3737.7555708,N,12704.7384662,E,0.2,,190324,8.8,W,D*11
$PSSN,HRP,025119.50,190324,194.328,,2.845,1.342,,1.258,14,2,8.837,W*1E
$GNRMC,025120.00,A,3737.7555557,N,12704.7385075,E,0.3,110.1,190324,8.8,W,D*39
$PSSN,HRP,025120.00,190324,197.873,,3.345,1.304,,1.231,14,2,8.837,W*10
$GNRMC,025120.50,A,3737.7555653,N,12704.7385716,E,0.1,91.9,190324,8.8,W,D*0B
$PSSN,HRP,025120.50,190324,199.241,,3.421,1.370,,1.273,13,2,8.837,W*17
$GNRMC,025121.00,A,3737.7555625,N,12704.7385423,E,0.0,,190324,8.8,W,D*15
$PSSN,HRP,025121.00,190324,199.199,,3.068,1.490,,1.363,13,2,8.837,W*15
$GNRMC,025121.50,A,3737.7555584,N,12704.7384925,E,0.3,,190324,8.8,W,D*11
$PSSN,HRP,025121.50,190324,197.841,,1.959,1.627,,1.468,13,2,8.837,W*19
$GNRMC,025122.00,A,3737.7555727,N,12704.7384622,E,0.1,289.7,190324,8.8,W,D*3C
$PSSN,HRP,025122.00,190324,194.505,,2.184,1.508,,1.366,13,2,8.837,W*1D
$GNRMC,025122.50,A,3737.7555712,N,12704.7384664,E,0.1,,190324,8.8,W,D*17
$PSSN,HRP,025122.50,190324,194.313,,2.223,1.468,,1.354,14,2,8.837,W*16
$GNRMC,025123.00,A,3737.7555708,N,12704.7384601,E,0.0,,190324,8.8,W,D*1A
$PSSN,HRP,025123.00,190324,194.022,,2.460,1.443,,1.346,14,2,8.837,W*18
$GNRMC,025123.50,A,3737.7555701,N,12704.7384595,E,0.1,,190324,8.8,W,D*19
$PSSN,HRP,025123.50,190324,194.016,,2.715,1.427,,1.337,16,2,8.837,W*1D
$GNRMC,025124.00,A,3737.7555649,N,12704.7384651,E,0.2,,190324,8.8,W,D*1E
$PSSN,HRP,025124.00,190324,194.735,,2.725,1.415,,1.323,16,2,8.837,W*1E
$GNRMC,025124.50,A,3737.7555550,N,12704.7385215,E,0.4,104.7,190324,8.8,W,D*3F
$PSSN,HRP,025124.50,190324,197.872,,2.850,1.356,,1.298,15,2,8.837,W*1B
$GNRMC,025125.00,A,3737.7555622,N,12704.7385755,E,0.4,,190324,8.8,W,D*10
$PSSN,HRP,025125.00,190324,198.360,,2.545,1.268,,1.256,15,2,8.837,W*1F
$GNRMC,025125.50,A,3737.7555529,N,12704.7385239,E,0.4,,190324,8.8,W,D*12
$PSSN,HRP,025125.50,190324,198.570,,2.314,1.321,,1.308,14,2,8.837,W*18
$GNRMC,025126.00,A,3737.7555497,N,12704.7384498,E,0.3,275.3,190324,8.8,W,D*36
$PSSN,HRP,025126.00,190324,196.108,,1.539,1.407,,1.373,14,2,8.837,W*1E
$GNRMC,025126.50,A,3737.7555566,N,12704.7384379,E,0.0,,190324,8.8,W,D*1A
$PSSN,HRP,025126.50,190324,194.049,,1.256,1.476,,1.406,15,2,8.837,W*11
$GNRMC,025127.00,A,3737.7555598,N,12704.7384285,E,0.1,,190324,8.8,W,D*1C
$PSSN,HRP,025127.00,190324,192.532,,1.014,1.421,,1.360,15,2,8.837,W*1B
$GNRMC,025127.50,A,3737.7555581,N,12704.7384293,E,0.0,,190324,8.8,W,D*17
$PSSN,HRP,025127.50,190324,192.664,,0.920,1.410,,1.331,15,2,8.837,W*17
$GNRMC,025128.00,A,3737.7555574,N,12704.7384291,E,0.0,,190324,8.8,W,D*15
$PSSN,HRP,025128.00,190324,192.670,,1.161,1.377,,1.320,14,2,8.837,W*13
$GNRMC,025128.50,A,3737.7555581,N,12704.7384307,E,0.0,,190324,8.8,W,D*14
$PSSN,HRP,025128.50,190324,192.870,,1.326,1.354,,1.302,14,2,8.837,W*18
$GNRMC,025129.00,A,3737.7555447,N,12704.7384602,E,0.2,,190324,8.8,W,D*19
$PSSN,HRP,025129.00,190324,196.382,,1.488,1.362,,1.321,15,2,8.837,W*18
$GNRMC,025129.50,A,3737.7555570,N,12704.7385489,E,0.3,92.8,190324,8.8,W,D*05
$PSSN,HRP,025129.50,190324,197.629,,2.061,1.286,,1.261,15,2,8.837,W*16
$GNRMC,025130.00,A,3737.7555645,N,12704.7385882,E,0.0,,190324,8.8,W,D*14
$PSSN,HRP,025130.00,190324,197.550,,1.900,1.237,,1.228,15,2,8.837,W*1C
$GNRMC,025130.50,A,3737.7555579,N,12704.7385409,E,0.5,,190324,8.8,W,D*17
$PSSN,HRP,025130.50,190324,197.334,,1.868,1.283,,1.252,15,2,8.837,W*10
$GNRMC,025131.00,A,3737.7555613,N,12704.7384433,E,0.1,281.5,190324,8.8,W,D*30
$PSSN,HRP,025131.00,190324,193.927,,2.160,1.316,,1.239,15,2,8.837,W*1A
$GNRMC,025131.50,A,3737.7555605,N,12704.7384253,E,0.2,,190324,8.8,W,D*11
$PSSN,HRP,025131.50,190324,192.857,,1.833,1.348,,1.235,16,2,8.837,W*10
$GNRMC,025132.00,A,3737.7555597,N,12704.7384190,E,0.1,,190324,8.8,W,D*10
$PSSN,HRP,025132.00,190324,191.980,,1.236,1.324,,1.224,16,2,8.837,W*1B
$GNRMC,025132.50,A,3737.7555618,N,12704.7384263,E,0.0,,190324,8.8,W,D*1F
$PSSN,HRP,025132.50,190324,192.240,,1.621,1.318,,1.215,18,2,8.837,W*1B
$GNRMC,025133.00,A,3737.7555622,N,12704.7384366,E,0.0,,190324,8.8,W,D*16
$PSSN,HRP,025133.00,190324,192.158,,1.435,1.305,,1.229,17,2,8.837,W*1E
$GNRMC,025133.50,A,3737.7555662,N,12704.7384582,E,0.0,,190324,8.8,W,D*1B
$PSSN,HRP,025133.50,190324,192.256,,1.347,1.326,,1.252,15,2,8.837,W*1B
$GNRMC,025134.00,A,3737.7555684,N,12704.7384748,E,0.1,,190324,8.8,W,D*14
$PSSN,HRP,025134.00,190324,192.378,,1.431,1.357,,1.278,15,2,8.837,W*1C
$GNRMC,025134.50,A,3737.7555531,N,12704.7384966,E,0.1,,190324,8.8,W,D*1E
$PSSN,HRP,025134.50,190324,195.633,,1.304,1.385,,1.314,16,2,8.837,W*12
$GNRMC,025135.00,A,3737.7555613,N,12704.7385798,E,0.6,90.6,190324,8.8,W,D*01
$PSSN,HRP,025135.00,190324,197.586,,1.847,1.357,,1.281,16,2,8.837,W*17
$GNRMC,025135.50,A,3737.7555541,N,12704.7385538,E,0.0,,190324,8.8,W,D*1F
$PSSN,HRP,025135.50,190324,197.624,,1.707,1.313,,1.297,15,2,8.837,W*16
$GNRMC,025136.00,A,3737.7555465,N,12704.7384917,E,0.4,,190324,8.8,W,D*1A
$PSSN,HRP,025136.00,190324,196.697,,0.933,1.341,,1.406,14,2,8.837,W*19
$GNRMC,025136.50,A,3737.7555622,N,12704.7384646,E,0.2,,190324,8.8,W,D*13
$PSSN,HRP,025136.50,190324,193.219,,0.049,1.342,,1.369,17,2,8.837,W*11
$GNRMC,025137.00,A,3737.7555696,N,12704.7384514,E,0.1,,190324,8.8,W,D*1F
$PSSN,HRP,025137.00,190324,192.069,,-0.168,1.294,,1.284,17,2,8.837,W*36
$GNRMC,025137.50,A,3737.7555701,N,12704.7384650,E,0.0,,190324,8.8,W,D*17
$PSSN,HRP,025137.50,190324,191.598,,0.434,1.303,,1.264,15,2,8.837,W*19
$GNRMC,025138.00,A,3737.7555667,N,12704.7384707,E,0.0,,190324,8.8,W,D*1F
$PSSN,HRP,025138.00,190324,191.703,,1.011,1.298,,1.282,15,2,8.837,W*1A
$GNRMC,025138.50,A,3737.7555690,N,12704.7384658,E,0.0,,190324,8.8,W,D*19
$PSSN,HRP,025138.50,190324,191.642,,1.514,1.294,,1.281,15,2,8.837,W*14
$GNRMC,025139.00,A,3737.7555728,N,12704.7384723,E,0.0,,190324,8.8,W,D*12
$PSSN,HRP,025139.00,190324,192.023,,1.838,1.272,,1.242,14,2,8.837,W*17
$GNRMC,025139.50,A,3737.7555550,N,12704.7384885,E,0.3,,190324,8.8,W,D*1A
$PSSN,HRP,025139.50,190324,195.747,,1.940,1.326,,1.296,15,2,8.837,W*16
$GNRMC,025140.00,A,3737.7555615,N,12704.7385681,E,0.8,91.5,190324,8.8,W,D*00
$PSSN,HRP,025140.00,190324,198.234,,2.871,1.328,,1.296,15,2,8.837,W*1F
$GNRMC,025140.50,A,3737.7555591,N,12704.7385470,E,0.1,,190324,8.8,W,D*1C
$PSSN,HRP,025140.50,190324,198.760,,2.799,1.333,,1.315,14,2,8.837,W*16
$GNRMC,025141.00,A,3737.7555543,N,12704.7384763,E,0.6,,190324,8.8,W,D*10
$PSSN,HRP,025141.00,190324,198.322,,2.608,1.403,,1.364,14,2,8.837,W*1B
$GNRMC,025141.50,A,3737.7555657,N,12704.7384500,E,0.2,,190324,8.8,W,D*10
$PSSN,HRP,025141.50,190324,194.760,,1.772,1.449,,1.370,15,2,8.837,W*15
$GNRMC,025142.00,A,3737.7555705,N,12704.7384325,E,0.1,,190324,8.8,W,D*12
$PSSN,HRP,025142.00,190324,193.179,,1.933,1.401,,1.324,15,2,8.837,W*1C
$GNRMC,025142.50,A,3737.7555706,N,12704.7384452,E,0.0,,190324,8.8,W,D*12
$PSSN,HRP,025142.50,190324,193.109,,2.095,1.355,,1.283,15,2,8.837,W*12
$GNRMC,025143.00,A,3737.7555680,N,12704.7384596,E,0.0,,190324,8.8,W,D*10
$PSSN,HRP,025143.00,190324,193.345,,2.279,1.323,,1.290,15,2,8.837,W*1F
$GNRMC,025143.50,A,3737.7555693,N,12704.7384634,E,0.0,,190324,8.8,W,D*1C
$PSSN,HRP,025143.50,190324,193.043,,2.159,1.287,,1.260,15,2,8.837,W*1E
$GNRMC,025144.00,A,3737.7555704,N,12704.7384616,E,0.0,,190324,8.8,W,D*11
$PSSN,HRP,025144.00,190324,192.915,,1.976,1.243,,1.225,15,2,8.837,W*18
$GNRMC,025144.50,A,3737.7555698,N,12704.7384704,E,0.0,,190324,8.8,W,D*12
$PSSN,HRP,025144.50,190324,193.408,,1.955,1.254,,1.220,15,2,8.837,W*1F
$GNRMC,025145.00,A,3737.7555613,N,12704.7385393,E,0.2,107.7,190324,8.8,W,D*33
$PSSN,HRP,025145.00,190324,198.147,,3.124,1.256,,1.228,15,2,8.837,W*18
$GNRMC,025145.50,A,3737.7555639,N,12704.7385677,E,0.1,,190324,8.8,W,D*1D
$PSSN,HRP,025145.50,190324,199.087,,2.929,1.266,,1.242,14,2,8.837,W*1B
$GNRMC,025146.00,A,3737.7555544,N,12704.7384711,E,0.7,261.8,190324,8.8,W,D*37
$PSSN,HRP,025146.00,190324,198.304,,2.339,1.418,,1.359,14,2,8.837,W*1B
$GNRMC,025146.50,A,3737.7555683,N,12704.7384538,E,0.2,283.3,190324,8.8,W,D*31
$PSSN,HRP,025146.50,190324,194.407,,1.926,1.476,,1.386,15,2,8.837,W*1A
$GNRMC,025147.00,A,3737.7555674,N,12704.7384520,E,0.0,,190324,8.8,W,D*12
$PSSN,HRP,025147.00,190324,193.167,,1.573,1.417,,1.342,15,2,8.837,W*19
$GNRMC,025147.50,A,3737.7555685,N,12704.7384558,E,0.0,,190324,8.8,W,D*16
$PSSN,HRP,025147.50,190324,193.439,,1.962,1.389,,1.313,15,2,8.837,W*1A
$GNRMC,025148.00,A,3737.7555691,N,12704.7384595,E,0.0,,190324,8.8,W,D*18
$PSSN,HRP,025148.00,190324,193.712,,2.369,1.361,,1.314,15,2,8.837,W*19
$GNRMC,025148.50,A,3737.7555709,N,12704.7384623,E,0.0,,190324,8.8,W,D*13
$PSSN,HRP,025148.50,190324,193.330,,2.354,1.297,,1.258,14,2,8.837,W*16
$GNRMC,025149.00,A,3737.7555711,N,12704.7384582,E,0.0,,190324,8.8,W,D*16
$PSSN,HRP,025149.00,190324,193.119,,2.299,1.236,,1.209,15,2,8.837,W*15
$GNRMC,025149.50,A,3737.7555660,N,12704.7384802,E,0.2,,190324,8.8,W,D*13
$PSSN,HRP,025149.50,190324,194.380,,2.566,1.246,,1.217,17,2,8.837,W*18
$GNRMC,025150.00,A,3737.7555575,N,12704.7385242,E,0.4,,190324,8.8,W,D*10
$PSSN,HRP,025150.00,190324,196.467,,3.381,1.253,,1.226,17,2,8.837,W*11
$GNRMC,025150.50,A,3737.7555613,N,12704.7385641,E,0.1,91.9,190324,8.8,W,D*0B
$PSSN,HRP,025150.50,190324,197.935,,3.406,1.248,,1.231,16,2,8.837,W*1A
$GNRMC,025151.00,A,3737.7555559,N,12704.7385224,E,0.4,,190324,8.8,W,D*1F
$PSSN,HRP,025151.00,190324,198.078,,2.789,1.365,,1.319,15,2,8.837,W*12
$GNRMC,025151.50,A,3737.7555643,N,12704.7384834,E,0.2,,190324,8.8,W,D*1E
$PSSN,HRP,025151.50,190324,195.171,,1.599,1.434,,1.369,17,2,8.837,W*14
$GNRMC,025152.00,A,3737.7555700,N,12704.7384586,E,0.0,,190324,8.8,W,D*18
$PSSN,HRP,025152.00,190324,193.329,,1.423,1.377,,1.328,17,2,8.837,W*1E
$GNRMC,025152.50,A,3737.7555694,N,12704.7384608,E,0.0,,190324,8.8,W,D*14
$PSSN,HRP,025152.50,190324,193.287,,1.850,1.341,,1.297,17,2,8.837,W*16
$GNRMC,025153.00,A,3737.7555673,N,12704.7384698,E,0.0,,190324,8.8,W,D*10
$PSSN,HRP,025153.00,190324,193.351,,1.998,1.315,,1.290,17,2,8.837,W*1B
$GNRMC,025153.50,A,3737.7555667,N,12704.7384714,E,0.0,,190324,8.8,W,D*15
$PSSN,HRP,025153.50,190324,193.529,,2.308,1.303,,1.282,17,2,8.837,W*13
$GNRMC,025154.00,A,3737.7555630,N,12704.7384807,E,0.1,,190324,8.8,W,D*19
$PSSN,HRP,025154.00,190324,194.338,,2.487,1.297,,1.268,17,2,8.837,W*18
$GNRMC,025154.50,A,3737.7555548,N,12704.7385283,E,0.4,106.9,190324,8.8,W,D*32
$PSSN,HRP,025154.50,190324,197.891,,3.152,1.289,,1.263,15,2,8.837,W*1C
$GNRMC,025155.00,A,3737.7555610,N,12704.7385817,E,0.1,91.7,190324,8.8,W,D*0B
$PSSN,HRP,025155.00,190324,198.948,,3.265,1.229,,1.224,15,2,8.837,W*1C
$GNRMC,025155.50,A,3737.7555547,N,12704.7385203,E,0.5,,190324,8.8,W,D*15
$PSSN,HRP,025155.50,190324,197.351,,2.741,1.285,,1.281,14,2,8.837,W*1E
$GNRMC,025156.00,A,3737.7555595,N,12704.7384175,E,0.1,,190324,8.8,W,D*1B
$PSSN,HRP,025156.00,190324,194.043,,1.944,1.256,,1.290,14,2,8.837,W*1D
$GNRMC,025156.50,A,3737.7555597,N,12704.7384097,E,0.0,,190324,8.8,W,D*10
$PSSN,HRP,025156.50,190324,192.848,,1.883,1.253,,1.280,15,2,8.837,W*12
$GNRMC,025157.00,A,3737.7555571,N,12704.7384084,E,0.0,,190324,8.8,W,D*1E
$PSSN,HRP,025157.00,190324,192.332,,1.773,1.234,,1.264,15,2,8.837,W*1B
$GNRMC,025157.50,A,3737.7555619,N,12704.7384332,E,0.0,,190324,8.8,W,D*18
$PSSN,HRP,025157.50,190324,192.554,,1.869,1.231,,1.236,15,2,8.837,W*1E
$GNRMC,025158.00,A,3737.7555668,N,12704.7384603,E,0.1,,190324,8.8,W,D*12
$PSSN,HRP,025158.00,190324,192.470,,1.870,1.233,,1.234,15,2,8.837,W*1B
$GNRMC,025158.50,A,3737.7555645,N,12704.7384745,E,0.1,,190324,8.8,W,D*1B
$PSSN,HRP,025158.50,190324,192.882,,2.076,1.260,,1.239,14,2,8.837,W*18
$GNRMC,025159.00,A,3737.7555561,N,12704.7384950,E,0.4,,190324,8.8,W,D*15
$PSSN,HRP,025159.00,190324,196.172,,2.209,1.309,,1.260,14,2,8.837,W*16
$GNRMC,025159.50,A,3737.7555584,N,12704.7385561,E,0.4,95.3,190324,8.8,W,D*05
$PSSN,HRP,025159.50,190324,198.656,,2.918,1.342,,1.269,17,2,8.837,W*12
$GNRMC,025200.00,A,3737.7555650,N,12704.7385788,E,0.1,,190324,8.8,W,D*14
$PSSN,HRP,025200.00,190324,199.692,,3.179,1.324,,1.272,17,2,8.837,W*15
$GNRMC,025200.50,A,3737.7555567,N,12704.7385019,E,0.8,,190324,8.8,W,D*10
$PSSN,HRP,025200.50,190324,198.161,,3.323,1.402,,1.318,15,2,8.837,W*1B
$GNRMC,025201.00,A,3737.7555590,N,12704.7383978,E,0.2,282.5,190324,8.8,W,D*3D
$PSSN,HRP,025201.00,190324,194.469,,2.938,1.421,,1.278,15,2,8.837,W*19
$GNRMC,025201.50,A,3737.7555604,N,12704.7383801,E,0.1,,190324,8.8,W,D*19
$PSSN,HRP,025201.50,190324,193.184,,2.480,1.434,,1.276,16,2,8.837,W*1A
$GNRMC,025202.00,A,3737.7555608,N,12704.7384035,E,0.0,,190324,8.8,W,D*1A
$PSSN,HRP,025202.00,190324,192.567,,2.051,1.407,,1.294,16,2,8.837,W*10
$GNRMC,025202.50,A,3737.7555549,N,12704.7384051,E,0.0,,190324,8.8,W,D*1B
$PSSN,HRP,025202.50,190324,192.283,,2.007,1.401,,1.299,16,2,8.837,W*10
$GNRMC,025203.00,A,3737.7555541,N,12704.7383991,E,0.0,,190324,8.8,W,D*15
$PSSN,HRP,025203.00,190324,192.194,,1.841,1.384,,1.293,16,2,8.837,W*18
$GNRMC,025203.50,A,3737.7555558,N,12704.7384260,E,0.1,,190324,8.8,W,D*1B
$PSSN,HRP,025203.50,190324,193.304,,2.146,1.364,,1.276,15,2,8.837,W*1C
$GNRMC,025204.00,A,3737.7555461,N,12704.7384731,E,0.2,105.8,190324,8.8,W,D*32
$PSSN,HRP,025204.00,190324,197.075,,2.569,1.361,,1.282,15,2,8.837,W*18
$GNRMC,025204.50,A,3737.7555580,N,12704.7385637,E,0.1,88.7,190324,8.8,W,D*07
$PSSN,HRP,025204.50,190324,199.136,,3.310,1.332,,1.258,17,2,8.837,W*1F
$GNRMC,025205.00,A,3737.7555586,N,12704.7385615,E,0.2,,190324,8.8,W,D*1F
$PSSN,HRP,025205.00,190324,199.263,,3.629,1.365,,1.282,17,2,8.837,W*12
$GNRMC,025205.50,A,3737.7555613,N,12704.7384512,E,0.4,276.1,190324,8.8,W,D*3A
$PSSN,HRP,025205.50,190324,195.861,,3.617,1.404,,1.316,15,2,8.837,W*10
$GNRMC,025206.00,A,3737.7555699,N,12704.7384378,E,0.2,,190324,8.8,W,D*1E
$PSSN,HRP,025206.00,190324,194.487,,4.383,1.309,,1.246,15,2,8.837,W*12
$GNRMC,025206.50,A,3737.7555686,N,12704.7384719,E,0.0,,190324,8.8,W,D*14
$PSSN,HRP,025206.50,190324,193.807,,3.543,1.281,,1.247,15,2,8.837,W*19
$GNRMC,025207.00,A,3737.7555679,N,12704.7384690,E,0.0,,190324,8.8,W,D*10
$PSSN,HRP,025207.00,190324,193.351,,2.777,1.274,,1.250,15,2,8.837,W*1D
$GNRMC,025207.50,A,3737.7555665,N,12704.7384639,E,0.0,,190324,8.8,W,D*1B
$PSSN,HRP,025207.50,190324,193.165,,2.536,1.277,,1.244,15,2,8.837,W*1C
$GNRMC,025208.00,A,3737.7555661,N,12704.7384613,E,0.0,,190324,8.8,W,D*1D
$PSSN,HRP,025208.00,190324,192.736,,2.149,1.270,,1.247,15,2,8.837,W*1F
$GNRMC,025208.50,A,3737.7555508,N,12704.7385133,E,0.2,119.2,190324,8.8,W,D*37
$PSSN,HRP,025208.50,190324,197.173,,2.835,1.255,,1.242,17,2,8.837,W*1A
$GNRMC,025209.00,A,3737.7555578,N,12704.7385912,E,0.1,93.3,190324,8.8,W,D*0E
$PSSN,HRP,025209.00,190324,198.802,,3.212,1.207,,1.205,17,2,8.837,W*14
$GNRMC,025209.50,A,3737.7555505,N,12704.7385162,E,1.0,,190324,8.8,W,D*19
$PSSN,HRP,025209.50,190324,196.699,,1.945,1.326,,1.291,14,2,8.837,W*14
$GNRMC,025210.00,A,3737.7555662,N,12704.7384369,E,0.1,283.9,190324,8.8,W,D*30
$PSSN,HRP,025210.00,190324,191.655,,0.983,1.302,,1.293,14,2,8.837,W*11
$GNRMC,025210.50,A,3737.7555710,N,12704.7384640,E,0.0,,190324,8.8,W,D*10
$PSSN,HRP,025210.50,190324,192.161,,1.402,1.319,,1.279,15,2,8.837,W*1D
$GNRMC,025211.00,A,3737.7555701,N,12704.7384676,E,0.0,,190324,8.8,W,D*11
$PSSN,HRP,025211.00,190324,192.545,,1.739,1.234,,1.223,15,2,8.837,W*11
$GNRMC,025211.50,A,3737.7555659,N,12704.7384667,E,0.1,,190324,8.8,W,D*19
$PSSN,HRP,025211.50,190324,192.517,,1.785,1.267,,1.224,15,2,8.837,W*15
$GNRMC,025212.00,A,3737.7555648,N,12704.7384807,E,0.0,,190324,8.8,W,D*16
$PSSN,HRP,025212.00,190324,192.389,,1.710,1.257,,1.253,15,2,8.837,W*1D
$GNRMC,025212.50,A,3737.7555672,N,12704.7384665,E,0.0,,190324,8.8,W,D*10
$PSSN,HRP,025212.50,190324,192.407,,1.859,1.262,,1.256,15,2,8.837,W*18
$GNRMC,025213.00,A,3737.7555602,N,12704.7384990,E,0.4,,190324,8.8,W,D*12
$PSSN,HRP,025213.00,190324,195.551,,1.900,1.267,,1.251,15,2,8.837,W*16
$GNRMC,025213.50,A,3737.7555606,N,12704.7385616,E,0.4,92.9,190324,8.8,W,D*0F
$PSSN,HRP,025213.50,190324,198.475,,1.656,1.263,,1.267,14,2,8.837,W*15
$GNRMC,025214.00,A,3737.7555612,N,12704.7385567,E,0.0,,190324,8.8,W,D*15
$PSSN,HRP,025214.00,190324,198.403,,1.760,1.257,,1.320,14,2,8.837,W*17
$GNRMC,025214.50,A,3737.7555584,N,12704.7384362,E,0.5,271.1,190324,8.8,W,D*30
$PSSN,HRP,025214.50,190324,195.078,,1.360,1.381,,1.391,14,2,8.837,W*13
$GNRMC,025215.00,A,3737.7555625,N,12704.7383887,E,0.1,,190324,8.8,W,D*14
$PSSN,HRP,025215.00,190324,192.794,,1.672,1.416,,1.349,14,2,8.837,W*1F
$GNRMC,025215.50,A,3737.7555652,N,12704.7384115,E,0.0,,190324,8.8,W,D*15
$PSSN,HRP,025215.50,190324,192.411,,1.765,1.466,,1.361,17,2,8.837,W*1D
$GNRMC,025216.00,A,3737.7555676,N,12704.7384493,E,0.0,,190324,8.8,W,D*1E
$PSSN,HRP,025216.00,190324,192.472,,1.693,1.479,,1.401,17,2,8.837,W*19
$GNRMC,025216.50,A,3737.7555700,N,12704.7384571,E,0.0,,190324,8.8,W,D*16
$PSSN,HRP,025216.50,190324,192.202,,1.582,1.382,,1.358,15,2,8.837,W*14
$GNRMC,025217.00,A,3737.7555682,N,12704.7384591,E,0.0,,190324,8.8,W,D*17
$PSSN,HRP,025217.00,190324,192.181,,1.465,1.277,,1.256,15,2,8.837,W*14
$GNRMC,025217.50,A,3737.7555629,N,12704.7384897,E,0.3,,190324,8.8,W,D*1B
$PSSN,HRP,025217.50,190324,194.999,,1.460,1.318,,1.297,15,2,8.837,W*16
$GNRMC,025218.00,A,3737.7555621,N,12704.7385739,E,0.6,94.9,190324,8.8,W,D*0C
$PSSN,HRP,025218.00,190324,198.059,,1.854,1.329,,1.315,15,2,8.837,W*17
$GNRMC,025218.50,A,3737.7555560,N,12704.7385419,E,0.1,,190324,8.8,W,D*13
$PSSN,HRP,025218.50,190324,197.968,,1.686,1.292,,1.322,15,2,8.837,W*12
$GNRMC,025219.00,A,3737.7555452,N,12704.7384279,E,0.5,,190324,8.8,W,D*12
$PSSN,HRP,025219.00,190324,195.688,,1.058,1.288,,1.339,15,2,8.837,W*11
$GNRMC,025219.50,A,3737.7555634,N,12704.7384273,E,0.1,286.8,190324,8.8,W,D*31
$PSSN,HRP,025219.50,190324,192.723,,0.448,1.260,,1.291,18,2,8.837,W*1F
$GNRMC,025220.00,A,3737.7555652,N,12704.7384258,E,0.0,,190324,8.8,W,D*1C
$PSSN,HRP,025220.00,190324,191.298,,-0.113,1.266,,1.273,18,2,8.837,W*3A
$GNRMC,025220.50,A,3737.7555684,N,12704.7384444,E,0.0,,190324,8.8,W,D*19
$PSSN,HRP,025220.50,190324,191.791,,0.898,1.269,,1.253,18,2,8.837,W*19
$GNRMC,025221.00,A,3737.7555703,N,12704.7384679,E,0.0,,190324,8.8,W,D*1F
$PSSN,HRP,025221.00,190324,192.323,,1.561,1.251,,1.256,18,2,8.837,W*17
$GNRMC,025221.50,A,3737.7555696,N,12704.7384630,E,0.0,,190324,8.8,W,D*1A
$PSSN,HRP,025221.50,190324,192.383,,1.663,1.242,,1.238,18,2,8.837,W*13
$GNRMC,025222.00,A,3737.7555694,N,12704.7384657,E,0.0,,190324,8.8,W,D*1F
$PSSN,HRP,025222.00,190324,192.883,,1.800,1.226,,1.209,18,2,8.837,W*15
$GNRMC,025222.50,A,3737.7555522,N,12704.7385101,E,0.2,122.0,190324,8.8,W,D*3C
$PSSN,HRP,025222.50,190324,196.890,,2.419,1.229,,1.208,18,2,8.837,W*1F
$GNRMC,025223.00,A,3737.7555581,N,12704.7385757,E,0.2,93.8,190324,8.8,W,D*07
$PSSN,HRP,025223.00,190324,198.529,,2.632,1.193,,1.181,18,2,8.837,W*11
$GNRMC,025223.50,A,3737.7555406,N,12704.7385088,E,0.1,,190324,8.8,W,D*16
$PSSN,HRP,025223.50,190324,198.616,,2.676,1.291,,1.251,15,2,8.837,W*19
$GNRMC,025224.00,A,3737.7555320,N,12704.7384004,E,0.2,,190324,8.8,W,D*11
$PSSN,HRP,025224.00,190324,195.820,,2.129,1.437,,1.345,15,2,8.837,W*1E
$GNRMC,025224.50,A,3737.7555336,N,12704.7383824,E,0.1,,190324,8.8,W,D*1D
$PSSN,HRP,025224.50,190324,193.708,,1.976,1.537,,1.400,18,2,8.837,W*13
$GNRMC,025225.00,A,3737.7555298,N,12704.7383746,E,0.1,,190324,8.8,W,D*17
$PSSN,HRP,025225.00,190324,192.735,,1.450,1.424,,1.322,18,2,8.837,W*15
$GNRMC,025225.50,A,3737.7555247,N,12704.7383809,E,0.1,,190324,8.8,W,D*14
$PSSN,HRP,025225.50,190324,192.665,,1.463,1.407,,1.298,18,2,8.837,W*15
$GNRMC,025226.00,A,3737.7555200,N,12704.7383913,E,0.0,,190324,8.8,W,D*1A
$PSSN,HRP,025226.00,190324,193.663,,1.233,1.365,,1.284,18,2,8.837,W*19
$GNRMC,025226.50,A,3737.7555205,N,12704.7383839,E,0.0,,190324,8.8,W,D*13
$PSSN,HRP,025226.50,190324,193.086,,1.371,1.382,,1.303,18,2,8.837,W*11
$GNRMC,025227.00,A,3737.7555039,N,12704.7384197,E,0.3,126.9,190324,8.8,W,D*31
$PSSN,HRP,025227.00,190324,196.722,,1.569,1.415,,1.346,18,2,8.837,W*1E
$GNRMC,025227.50,A,3737.7555129,N,12704.7385135,E,0.3,90.9,190324,8.8,W,D*01
$PSSN,HRP,025227.50,190324,198.495,,1.593,1.364,,1.328,17,2,8.837,W*19
$GNRMC,025228.00,A,3737.7555123,N,12704.7384860,E,0.0,,190324,8.8,W,D*14
$PSSN,HRP,025228.00,190324,197.753,,1.238,1.273,,1.310,17,2,8.837,W*1F
$GNRMC,025228.50,A,3737.7555090,N,12704.7383978,E,0.2,,190324,8.8,W,D*15
$PSSN,HRP,025228.50,190324,194.247,,1.053,1.301,,1.342,16,2,8.837,W*14
$GNRMC,025229.00,A,3737.7555183,N,12704.7383782,E,0.0,,190324,8.8,W,D*1B
$PSSN,HRP,025229.00,190324,192.857,,0.977,1.286,,1.344,16,2,8.837,W*1B
$GNRMC,025229.50,A,3737.7555180,N,12704.7383709,E,0.1,,190324,8.8,W,D*1F
$PSSN,HRP,025229.50,190324,192.584,,1.224,1.292,,1.364,17,2,8.837,W*17
$GNRMC,025230.00,A,3737.7555186,N,12704.7383815,E,0.0,,190324,8.8,W,D*17
$PSSN,HRP,025230.00,190324,192.604,,1.661,1.267,,1.388,17,2,8.837,W*1C
$GNRMC,025230.50,A,3737.7555193,N,12704.7383836,E,0.0,,190324,8.8,W,D*17
$PSSN,HRP,025230.50,190324,192.806,,1.759,1.267,,1.362,17,2,8.837,W*1B
$GNRMC,025231.00,A,3737.7555192,N,12704.7383805,E,0.0,,190324,8.8,W,D*12
$PSSN,HRP,025231.00,190324,192.982,,1.822,1.265,,1.313,17,2,8.837,W*15
$GNRMC,025231.50,A,3737.7555197,N,12704.7383955,E,0.0,,190324,8.8,W,D*16
$PSSN,HRP,025231.50,190324,192.875,,1.662,1.263,,1.250,17,2,8.837,W*13
$GNRMC,025232.00,A,3737.7555016,N,12704.7384286,E,0.1,,190324,8.8,W,D*1B
$PSSN,HRP,025232.00,190324,195.874,,1.842,1.250,,1.245,17,2,8.837,W*1B
$GNRMC,025232.50,A,3737.7555062,N,12704.7385336,E,0.5,90.1,190324,8.8,W,D*04
$PSSN,HRP,025232.50,190324,198.417,,1.729,1.233,,1.240,17,2,8.837,W*18
$GNRMC,025233.00,A,3737.7554892,N,12704.7384639,E,0.2,,190324,8.8,W,D*1C
$PSSN,HRP,025233.00,190324,197.280,,1.176,1.232,,1.283,17,2,8.837,W*19
$GNRMC,025233.50,A,3737.7554880,N,12704.7383625,E,0.2,296.1,190324,8.8,W,D*32
$PSSN,HRP,025233.50,190324,193.307,,0.965,1.260,,1.314,14,2,8.837,W*16
$GNRMC,025234.00,A,3737.7554778,N,12704.7383090,E,0.1,,190324,8.8,W,D*11
$PSSN,HRP,025234.00,190324,191.865,,1.325,1.237,,1.302,14,2,8.837,W*13
$GNRMC,025234.50,A,3737.7554741,N,12704.7383004,E,0.0,,190324,8.8,W,D*12
$PSSN,HRP,025234.50,190324,192.025,,1.448,1.247,,1.334,17,2,8.837,W*14
$GNRMC,025235.00,A,3737.7554798,N,12704.7383308,E,0.0,,190324,8.8,W,D*1D
$PSSN,HRP,025235.00,190324,192.329,,1.454,1.266,,1.379,17,2,8.837,W*18
$GNRMC,025235.50,A,3737.7554874,N,12704.7383540,E,0.0,,190324,8.8,W,D*1F
$PSSN,HRP,025235.50,190324,192.384,,1.266,1.305,,1.400,17,2,8.837,W*10
$GNRMC,025236.00,A,3737.7554927,N,12704.7383654,E,0.0,,190324,8.8,W,D*18
$PSSN,HRP,025236.00,190324,192.543,,1.247,1.315,,1.363,17,2,8.837,W*1B
$GNRMC,025236.50,A,3737.7555667,N,12704.7385132,E,0.3,,190324,8.8,W,D*15
$PSSN,HRP,025236.50,190324,195.540,,1.716,1.324,,1.324,17,2,8.837,W*1A
$GNRMC,025237.00,A,3737.7555651,N,12704.7385863,E,0.4,96.4,190324,8.8,W,D*0B
$PSSN,HRP,025237.00,190324,198.859,,2.352,1.256,,1.289,17,2,8.837,W*13
$GNRMC,025237.50,A,3737.7555617,N,12704.7385687,E,0.1,,190324,8.8,W,D*18
$PSSN,HRP,025237.50,190324,198.201,,1.661,1.236,,1.304,18,2,8.837,W*1A
$GNRMC,025238.00,A,3737.7555543,N,12704.7384842,E,0.5,269.6,190324,8.8,W,D*37
$PSSN,HRP,025238.00,190324,194.731,,0.976,1.297,,1.348,18,2,8.837,W*11
$GNRMC,025238.50,A,3737.7555643,N,12704.7384716,E,0.1,,190324,8.8,W,D*1E
$PSSN,HRP,025238.50,190324,191.958,,0.610,1.291,,1.309,16,2,8.837,W*12
$GNRMC,025239.00,A,3737.7555650,N,12704.7384758,E,0.0,,190324,8.8,W,D*13
$PSSN,HRP,025239.00,190324,190.993,,-0.118,1.288,,1.288,16,2,8.837,W*32
$GNRMC,025239.50,A,3737.7555820,N,12704.7384911,E,0.0,,190324,8.8,W,D*1C
$PSSN,HRP,025239.50,190324,191.898,,0.761,1.267,,1.221,18,2,8.837,W*15
$GNRMC,025240.00,A,3737.7555810,N,12704.7384904,E,0.0,,190324,8.8,W,D*10
$PSSN,HRP,025240.00,190324,192.723,,1.365,1.236,,1.188,18,2,8.837,W*17
$GNRMC,025240.50,A,3737.7555812,N,12704.7384909,E,0.0,,190324,8.8,W,D*1A
$PSSN,HRP,025240.50,190324,192.697,,1.444,1.266,,1.221,18,2,8.837,W*1D
$GNRMC,025241.00,A,3737.7555818,N,12704.7384868,E,0.0,,190324,8.8,W,D*12
$PSSN,HRP,025241.00,190324,193.066,,1.588,1.296,,1.253,18,2,8.837,W*1B
$GNRMC,025241.50,A,3737.7555790,N,12704.7385106,E,0.3,,190324,8.8,W,D*1B
$PSSN,HRP,025241.50,190324,193.528,,1.459,1.351,,1.306,18,2,8.837,W*17
