$GNRMC,075133.00,A,3737.7558908,N,12704.7381439,E,0.2,,190324,8.8,W,D*13
$PSSN,HRP,075133.00,190324,,,,,,,00,0,,E*2D
$GNRMC,075133.50,A,3737.7558817,N,12704.7381767,E,0.1,,190324,8.8,W,D*12
$PSSN,HRP,075133.50,190324,,,,,,,00,0,,E*28
$GNRMC,075134.00,A,3737.7558811,N,12704.7381540,E,0.2,,190324,8.8,W,D*12
$PSSN,HRP,075134.00,190324,,,,,,,00,0,,E*2A
$GNRMC,075134.50,A,3737.7558810,N,12704.7381427,E,0.0,,190324,8.8,W,D*14
$PSSN,HRP,075134.50,190324,,,,,,,00,0,,E*2F
$GNRMC,075135.00,A,3737.7558838,N,12704.7381398,E,0.0,,190324,8.8,W,D*19
$PSSN,HRP,075135.00,190324,,,,,,,00,0,,E*2B
$GNRMC,075135.50,A,3737.7558833,N,12704.7381267,E,0.0,,190324,8.8,W,D*16
$PSSN,HRP,075135.50,190324,,,,,,,00,0,,E*2E
$GNRMC,075136.00,A,3737.7558738,N,12704.7381244,E,0.0,,190324,8.8,W,D*15
$PSSN,HRP,075136.00,190324,,,,,,,00,0,,E*28
$GNRMC,075136.50,A,3737.7558739,N,12704.7381285,E,0.1,,190324,8.8,W,D*1D
$PSSN,HRP,075136.50,190324,10.023,,-0.420,0.732,,0.774,16,2,8.837,W*09
$GNRMC,075137.00,A,3737.7558734,N,12704.7381184,E,0.1,,190324,8.8,W,D*16
$PSSN,HRP,075137.00,190324,9.607,,-0.359,0.745,,0.787,15,2,8.837,W*33
$GNRMC,075137.50,A,3737.7558671,N,12704.7381163,E,0.1,,190324,8.8,W,D*1A
$PSSN,HRP,075137.50,190324,10.397,,-0.611,0.754,,0.790,15,2,8.837,W*0D
$GNRMC,075138.00,A,3737.7558712,N,12704.7381311,E,0.1,,190324,8.8,W,D*13
$PSSN,HRP,075138.00,190324,10.457,,-1.179,0.773,,0.799,15,2,8.837,W*08
$GNRMC,075138.50,A,3737.7558748,N,12704.7381132,E,0.1,,190324,8.8,W,D*1A
$PSSN,HRP,075138.50,190324,11.359,,-1.397,0.771,,0.798,18,2,8.837,W*09
$GNRMC,075139.00,A,3737.7558796,N,12704.7380989,E,0.1,,190324,8.8,W,D*14
$PSSN,HRP,075139.00,190324,11.767,,-1.372,0.744,,0.779,18,2,8.837,W*06
$GNRMC,075139.50,A,3737.7558817,N,12704.7380862,E,0.1,,190324,8.8,W,D*13
$PSSN,HRP,075139.50,190324,12.702,,-2.097,0.765,,0.783,20,2,8.837,W*05
$GNRMC,075140.00,A,3737.7558823,N,12704.7380758,E,0.0,,190324,8.8,W,D*18
$PSSN,HRP,075140.00,190324,13.389,,-2.940,0.819,,0.798,21,2,8.837,W*04
$GNRMC,075140.50,A,3737.7558869,N,12704.7380618,E,0.1,,190324,8.8,W,D*17
$PSSN,HRP,075140.50,190324,13.703,,-3.152,0.841,,0.796,22,2,8.837,W*0D
$GNRMC,075141.00,A,3737.7558829,N,12704.7380555,E,0.0,,190324,8.8,W,D*1C
$PSSN,HRP,075141.00,190324,13.626,,-3.448,0.752,,0.749,23,2,8.837,W*0F
$GNRMC,075141.50,A,3737.7558808,N,12704.7380448,E,0.0,,190324,8.8,W,D*17
$PSSN,HRP,075141.50,190324,13.591,,-3.275,0.732,,0.731,23,2,8.837,W*04
$GNRMC,075142.00,A,3737.7558814,N,12704.7380269,E,0.0,,190324,8.8,W,D*19
$PSSN,HRP,075142.00,190324,13.634,,-3.357,0.715,,0.713,23,2,8.837,W*0A
$GNRMC,075142.50,A,3737.7558794,N,12704.7380138,E,0.0,,190324,8.8,W,D*1C
$PSSN,HRP,075142.50,190324,13.611,,-3.170,0.709,,0.718,21,2,8.837,W*0B
$GNRMC,075143.00,A,3737.7558755,N,12704.7380067,E,0.0,,190324,8.8,W,D*1E
$PSSN,HRP,075143.00,190324,13.758,,-3.222,0.705,,0.726,20,2,8.837,W*07
$GNRMC,075143.50,A,3737.7558703,N,12704.7380031,E,0.0,,190324,8.8,W,D*1B
$PSSN,HRP,075143.50,190324,13.808,,-3.101,0.702,,0.731,23,2,8.837,W*08
$GNRMC,075144.00,A,3737.7558687,N,12704.7380046,E,0.1,,190324,8.8,W,D*15
$PSSN,HRP,075144.00,190324,13.798,,-3.020,0.687,,0.715,22,2,8.837,W*05
$GNRMC,075144.50,A,3737.7557660,N,12704.7378731,E,0.1,,190324,8.8,W,D*16
$PSSN,HRP,075144.50,190324,14.914,,-3.649,0.724,,0.710,19,2,8.837,W*01
$GNRMC,075145.00,A,3737.7555174,N,12704.7375513,E,0.0,,190324,8.8,W,D*1C
$PSSN,HRP,075145.00,190324,15.722,,-4.356,0.768,,0.710,19,2,8.837,W*0B
$GNRMC,075145.50,A,3737.7553308,N,12704.7372893,E,0.0,,190324,8.8,W,D*14
$PSSN,HRP,075145.50,190324,15.316,,-4.029,0.804,,0.712,24,2,8.837,W*0F
$GNRMC,075146.00,A,3737.7552508,N,12704.7371665,E,0.1,,190324,8.8,W,D*10
$PSSN,HRP,075146.00,190324,14.244,,-3.419,0.762,,0.708,24,2,8.837,W*0A
$GNRMC,075146.50,A,3737.7552100,N,12704.7370945,E,0.1,,190324,8.8,W,D*15
$PSSN,HRP,075146.50,190324,13.803,,-3.439,0.719,,0.704,22,2,8.837,W*05
$GNRMC,075147.00,A,3737.7551937,N,12704.7370728,E,0.0,,190324,8.8,W,D*1A
$PSSN,HRP,075147.00,190324,14.375,,-3.299,0.699,,0.704,21,2,8.837,W*0A
$GNRMC,075147.50,A,3737.7551801,N,12704.7370836,E,0.0,,190324,8.8,W,D*1B
$PSSN,HRP,075147.50,190324,14.208,,-3.581,0.676,,0.696,22,2,8.837,W*02
$GNRMC,075148.00,A,3737.7551706,N,12704.7371159,E,0.0,,190324,8.8,W,D*18
$PSSN,HRP,075148.00,190324,15.099,,-3.796,0.664,,0.696,22,2,8.837,W*04
$GNRMC,075148.50,A,3737.7551636,N,12704.7371462,E,0.0,,190324,8.8,W,D*12
$PSSN,HRP,075148.50,190324,15.405,,-3.769,0.649,,0.689,23,2,8.837,W*00
$GNRMC,075149.00,A,3737.7551640,N,12704.7371695,E,0.1,,190324,8.8,W,D*1C
$PSSN,HRP,075149.00,190324,15.324,,-3.707,0.644,,0.684,22,2,8.837,W*09
$GNRMC,075149.50,A,3737.7551667,N,12704.7371871,E,0.0,,190324,8.8,W,D*19
$PSSN,HRP,075149.50,190324,15.161,,-3.426,0.638,,0.692,22,2,8.837,W*03
$GNRMC,075150.00,A,3737.7551772,N,12704.7371969,E,0.2,,190324,8.8,W,D*1B
$PSSN,HRP,075150.00,190324,16.500,,-3.032,0.643,,0.704,21,2,8.837,W*0E
$GNRMC,075150.50,A,3737.7551871,N,12704.7372175,E,0.0,,190324,8.8,W,D*16
$PSSN,HRP,075150.50,190324,16.389,,-3.016,0.640,,0.735,20,2,8.837,W*0A
$GNRMC,075151.00,A,3737.7551887,N,12704.7372214,E,0.1,,190324,8.8,W,D*1E
$PSSN,HRP,075151.00,190324,16.088,,-3.694,0.660,,0.761,17,2,8.837,W*07
$GNRMC,075151.50,A,3737.7552097,N,12704.7372759,E,0.0,,190324,8.8,W,D*1C
$PSSN,HRP,075151.50,190324,15.660,,-3.643,0.676,,0.831,17,2,8.837,W*06
$GNRMC,075152.00,A,3737.7552647,N,12704.7373843,E,0.0,,190324,8.8,W,D*14
$PSSN,HRP,075152.00,190324,15.484,,-3.299,0.690,,0.886,17,2,8.837,W*0F
$GNRMC,075152.50,A,3737.7553031,N,12704.7375616,E,0.2,,190324,8.8,W,D*1D
$PSSN,HRP,075152.50,190324,14.305,,-1.959,0.762,,0.982,21,2,8.837,W*0C
$GNRMC,075153.00,A,3737.7552825,N,12704.7375507,E,0.2,,190324,8.8,W,D*16
$PSSN,HRP,075153.00,190324,8.934,,-0.209,0.806,,1.025,21,2,8.837,W*3A
$GNRMC,075153.50,A,3737.7552336,N,12704.7375506,E,0.1,,190324,8.8,W,D*18
$PSSN,HRP,075153.50,190324,2.746,,0.630,0.795,,1.063,20,2,8.837,W*1B
$GNRMC,075154.00,A,3737.7552337,N,12704.7375510,E,0.0,,190324,8.8,W,D*1D
$PSSN,HRP,075154.00,190324,2.226,,1.258,0.760,,1.060,20,2,8.837,W*18
$GNRMC,075154.50,A,3737.7552537,N,12704.7375866,E,0.1,,190324,8.8,W,D*13
$PSSN,HRP,075154.50,190324,8.943,,1.204,0.711,,1.005,20,2,8.837,W*13
$GNRMC,075155.00,A,3737.7553060,N,12704.7376685,E,0.1,,190324,8.8,W,D*11
$PSSN,HRP,075155.00,190324,13.694,,0.957,0.691,,0.959,20,2,8.837,W*2C
$GNRMC,075155.50,A,3737.7554299,N,12704.7379177,E,0.0,,190324,8.8,W,D*13
$PSSN,HRP,075155.50,190324,14.743,,-0.510,0.710,,1.023,20,2,8.837,W*0A
$GNRMC,075156.00,A,3737.7554297,N,12704.7379140,E,0.0,,190324,8.8,W,D*1F
$PSSN,HRP,075156.00,190324,15.182,,-2.121,0.749,,1.095,20,2,8.837,W*03
$GNRMC,075156.50,A,3737.7553850,N,12704.7378462,E,0.0,,190324,8.8,W,D*18
$PSSN,HRP,075156.50,190324,13.120,,-1.789,0.744,,1.080,20,2,8.837,W*06
$GNRMC,075157.00,A,3737.7553839,N,12704.7378430,E,0.0,,190324,8.8,W,D*14
$PSSN,HRP,075157.00,190324,11.126,,-1.624,0.643,,0.926,20,2,8.837,W*02
$GNRMC,075157.50,A,3737.7553679,N,12704.7378316,E,0.1,,190324,8.8,W,D*19
$PSSN,HRP,075157.50,190324,10.015,,-1.246,0.570,,0.823,21,2,8.837,W*01
$GNRMC,075158.00,A,3737.7553322,N,12704.7378082,E,0.2,,190324,8.8,W,D*15
$PSSN,HRP,075158.00,190324,5.567,,-0.658,0.544,,0.768,19,2,8.837,W*39
$GNRMC,075158.50,A,3737.7553199,N,12704.7378205,E,0.1,,190324,8.8,W,D*1C
$PSSN,HRP,075158.50,190324,2.192,,0.396,0.540,,0.787,21,2,8.837,W*11
$GNRMC,075159.00,A,3737.7553254,N,12704.7378465,E,0.0,,190324,8.8,W,D*1B
$PSSN,HRP,075159.00,190324,0.871,,1.637,0.540,,0.809,21,2,8.837,W*15
$GNRMC,075159.50,A,3737.7553390,N,12704.7378708,E,0.1,,190324,8.8,W,D*1E
$PSSN,HRP,075159.50,190324,1.418,,1.791,0.554,,0.863,19,2,8.837,W*1D
$GNRMC,075200.00,A,3737.7553673,N,12704.7378970,E,0.0,,190324,8.8,W,D*1C
$PSSN,HRP,075200.00,190324,5.557,,2.623,0.562,,0.897,19,2,8.837,W*1C
$GNRMC,075200.50,A,3737.7553878,N,12704.7379250,E,0.0,,190324,8.8,W,D*14
$PSSN,HRP,075200.50,190324,8.878,,2.111,0.604,,1.000,20,2,8.837,W*1C
$GNRMC,075201.00,A,3737.7553954,N,12704.7379459,E,0.0,,190324,8.8,W,D*10
$PSSN,HRP,075201.00,190324,9.043,,1.604,0.633,,1.066,20,2,8.837,W*1D
$GNRMC,075201.50,A,3737.7553870,N,12704.7379384,E,0.0,,190324,8.8,W,D*15
$PSSN,HRP,075201.50,190324,9.409,,0.519,0.624,,1.000,19,2,8.837,W*10
$GNRMC,075202.00,A,3737.7553739,N,12704.7379210,E,0.0,,190324,8.8,W,D*1D
$PSSN,HRP,075202.00,190324,9.673,,-0.457,0.533,,0.806,19,2,8.837,W*35
$GNRMC,075202.50,A,3737.7553586,N,12704.7378991,E,0.1,,190324,8.8,W,D*1C
$PSSN,HRP,075202.50,190324,8.724,,-0.392,0.551,,0.798,20,2,8.837,W*3A
$GNRMC,075203.00,A,3737.7553314,N,12704.7378729,E,0.1,,190324,8.8,W,D*18
$PSSN,HRP,075203.00,190324,3.809,,-0.362,0.549,,0.805,19,2,8.837,W*32
$GNRMC,075203.50,A,3737.7553300,N,12704.7378729,E,0.1,,190324,8.8,W,D*18
$PSSN,HRP,075203.50,190324,0.914,,0.815,0.544,,0.809,21,2,8.837,W*15
$GNRMC,075204.00,A,3737.7553418,N,12704.7378723,E,0.0,,190324,8.8,W,D*1F
$PSSN,HRP,075204.00,190324,0.962,,2.043,0.543,,0.815,20,2,8.837,W*14
$GNRMC,075204.50,A,3737.7553794,N,12704.7378881,E,0.2,,190324,8.8,W,D*18
$PSSN,HRP,075204.50,190324,7.648,,2.049,0.572,,0.876,18,2,8.837,W*17
$GNRMC,075205.00,A,3737.7554056,N,12704.7379054,E,0.1,,190324,8.8,W,D*10
$PSSN,HRP,075205.00,190324,8.986,,1.857,0.590,,0.939,18,2,8.837,W*13
$GNRMC,075205.50,A,3737.7554135,N,12704.7379176,E,0.0,,190324,8.8,W,D*11
$PSSN,HRP,075205.50,190324,9.474,,0.673,0.599,,0.968,20,2,8.837,W*18
$GNRMC,075206.00,A,3737.7554194,N,12704.7379312,E,0.0,,190324,8.8,W,D*1C
$PSSN,HRP,075206.00,190324,9.583,,-0.228,0.571,,0.906,20,2,8.837,W*3E
$GNRMC,075206.50,A,3737.7554115,N,12704.7379196,E,0.0,,190324,8.8,W,D*1E
$PSSN,HRP,075206.50,190324,9.654,,-0.252,0.543,,0.822,20,2,8.837,W*39
$GNRMC,075207.00,A,3737.7553881,N,12704.7378866,E,0.1,,190324,8.8,W,D*1F
$PSSN,HRP,075207.00,190324,8.478,,0.035,0.535,,0.775,20,2,8.837,W*12
$GNRMC,075207.50,A,3737.7553532,N,12704.7378525,E,0.1,,190324,8.8,W,D*15
$PSSN,HRP,075207.50,190324,3.305,,0.410,0.559,,0.797,19,2,8.837,W*1E
$GNRMC,075208.00,A,3737.7553262,N,12704.7378243,E,0.1,,190324,8.8,W,D*1A
$PSSN,HRP,075208.00,190324,0.296,,0.718,0.577,,0.833,17,2,8.837,W*14
$GNRMC,075208.50,A,3737.7553386,N,12704.7378305,E,0.0,,190324,8.8,W,D*16
$PSSN,HRP,075208.50,190324,0.943,,0.065,0.637,,1.003,19,2,8.837,W*1C
$GNRMC,075209.00,A,3737.7553795,N,12704.7378501,E,0.1,,190324,8.8,W,D*17
$PSSN,HRP,075209.00,190324,7.511,,-0.512,0.681,,1.138,19,2,8.837,W*38
$GNRMC,075209.50,A,3737.7553991,N,12704.7378706,E,0.1,,190324,8.8,W,D*1D
$PSSN,HRP,075209.50,190324,9.581,,-0.662,0.714,,1.221,20,2,8.837,W*32
$GNRMC,075210.00,A,3737.7554077,N,12704.7378878,E,0.1,,190324,8.8,W,D*10
$PSSN,HRP,075210.00,190324,10.073,,-0.335,0.679,,1.138,20,2,8.837,W*09
$GNRMC,075210.50,A,3737.7553963,N,12704.7378779,E,0.1,,190324,8.8,W,D*10
$PSSN,HRP,075210.50,190324,9.720,,-0.575,0.599,,0.960,17,2,8.837,W*3A
$GNRMC,075211.00,A,3737.7553847,N,12704.7378647,E,0.0,,190324,8.8,W,D*1E
$PSSN,HRP,075211.00,190324,9.386,,-0.799,0.556,,0.854,18,2,8.837,W*3C
$GNRMC,075211.50,A,3737.7553765,N,12704.7378491,E,0.0,,190324,8.8,W,D*1D
$PSSN,HRP,075211.50,190324,9.298,,-0.185,0.565,,0.845,20,2,8.837,W*37
$GNRMC,075212.00,A,3737.7553521,N,12704.7378282,E,0.3,,190324,8.8,W,D*1E
$PSSN,HRP,075212.00,190324,4.510,,0.599,0.574,,0.852,20,2,8.837,W*19
$GNRMC,075212.50,A,3737.7553225,N,12704.7378118,E,0.0,,190324,8.8,W,D*1B
$PSSN,HRP,075212.50,190324,0.378,,1.462,0.567,,0.870,18,2,8.837,W*1D
$GNRMC,075213.00,A,3737.7553054,N,12704.7377996,E,0.0,,190324,8.8,W,D*1A
$PSSN,HRP,075213.00,190324,359.283,,2.649,0.577,,0.898,19,2,8.837,W*1D
$GNRMC,075213.50,A,3737.7553243,N,12704.7378174,E,0.4,,190324,8.8,W,D*14
$PSSN,HRP,075213.50,190324,4.040,,3.376,0.622,,0.951,19,2,8.837,W*11
$GNRMC,075214.00,A,3737.7553414,N,12704.7378383,E,0.1,,190324,8.8,W,D*1D
$PSSN,HRP,075214.00,190324,8.774,,3.836,0.613,,0.956,19,2,8.837,W*15
$GNRMC,075214.50,A,3737.7553451,N,12704.7378553,E,0.0,,190324,8.8,W,D*13
$PSSN,HRP,075214.50,190324,9.098,,2.202,0.596,,0.902,19,2,8.837,W*17
$GNRMC,075215.00,A,3737.7553483,N,12704.7378755,E,0.0,,190324,8.8,W,D*1C
$PSSN,HRP,075215.00,190324,9.546,,0.341,0.569,,0.835,19,2,8.837,W*14
$GNRMC,075215.50,A,3737.7553469,N,12704.7378648,E,0.0,,190324,8.8,W,D*10
$PSSN,HRP,075215.50,190324,9.258,,0.289,0.569,,0.831,20,2,8.837,W*12
$GNRMC,075216.00,A,3737.7553362,N,12704.7378468,E,0.1,,190324,8.8,W,D*1B
$PSSN,HRP,075216.00,190324,6.771,,0.466,0.571,,0.830,19,2,8.837,W*10
$GNRMC,075216.50,A,3737.7553272,N,12704.7378521,E,0.1,,190324,8.8,W,D*12
$PSSN,HRP,075216.50,190324,2.043,,0.736,0.571,,0.858,20,2,8.837,W*15
$GNRMC,075217.00,A,3737.7553257,N,12704.7378726,E,0.1,,190324,8.8,W,D*14
$PSSN,HRP,075217.00,190324,358.699,,1.400,0.569,,0.881,20,2,8.837,W*16
$GNRMC,075217.50,A,3737.7553398,N,12704.7378943,E,0.0,,190324,8.8,W,D*1F
$PSSN,HRP,075217.50,190324,359.155,,0.760,0.580,,0.910,18,2,8.837,W*14
$GNRMC,075218.00,A,3737.7553781,N,12704.7379176,E,0.2,,190324,8.8,W,D*14
$PSSN,HRP,075218.00,190324,6.029,,-0.003,0.596,,0.912,18,2,8.837,W*37
$GNRMC,075218.50,A,3737.7554075,N,12704.7379455,E,0.1,,190324,8.8,W,D*1D
$PSSN,HRP,075218.50,190324,10.185,,0.314,0.642,,1.068,15,2,8.837,W*28
$GNRMC,075219.00,A,3737.7554230,N,12704.7379647,E,0.0,,190324,8.8,W,D*1A
$PSSN,HRP,075219.00,190324,9.637,,0.695,0.674,,1.250,15,2,8.837,W*1A
$GNRMC,075219.50,A,3737.7554425,N,12704.7379885,E,0.0,,190324,8.8,W,D*1D
$PSSN,HRP,075219.50,190324,9.847,,-0.254,0.734,,1.357,20,2,8.837,W*37
$GNRMC,075220.00,A,3737.7554557,N,12704.7380053,E,0.2,,190324,8.8,W,D*11
$PSSN,HRP,075220.00,190324,8.306,,-0.595,0.675,,1.232,20,2,8.837,W*3B
$GNRMC,075220.50,A,3737.7554502,N,12704.7380121,E,0.1,,190324,8.8,W,D*13
$PSSN,HRP,075220.50,190324,2.879,,0.329,0.597,,0.998,20,2,8.837,W*1E
$GNRMC,075221.00,A,3737.7554467,N,12704.7380213,E,0.1,,190324,8.8,W,D*17
$PSSN,HRP,075221.00,190324,359.691,,1.462,0.556,,0.848,20,2,8.837,W*17
$GNRMC,075221.50,A,3737.7554595,N,12704.7380354,E,0.0,,190324,8.8,W,D*1D
$PSSN,HRP,075221.50,190324,0.194,,1.106,0.591,,0.861,20,2,8.837,W*18
$GNRMC,075222.00,A,3737.7554935,N,12704.7380554,E,0.0,,190324,8.8,W,D*1B
$PSSN,HRP,075222.00,190324,8.116,,0.289,0.575,,0.917,20,2,8.837,W*13
$GNRMC,075222.50,A,3737.7555038,N,12704.7380737,E,0.1,,190324,8.8,W,D*1D
$PSSN,HRP,075222.50,190324,9.047,,0.316,0.601,,0.929,18,2,8.837,W*13
$GNRMC,075223.00,A,3737.7555062,N,12704.7380899,E,0.0,,190324,8.8,W,D*1C
$PSSN,HRP,075223.00,190324,8.649,,0.300,0.605,,0.891,18,2,8.837,W*1F
$GNRMC,075223.50,A,3737.7555058,N,12704.7380987,E,0.0,,190324,8.8,W,D*1E
$PSSN,HRP,075223.50,190324,8.489,,-0.058,0.616,,0.870,21,2,8.837,W*30
$GNRMC,075224.00,A,3737.7554861,N,12704.7380964,E,0.2,,190324,8.8,W,D*10
$PSSN,HRP,075224.00,190324,3.280,,-0.305,0.601,,0.858,21,2,8.837,W*31
$GNRMC,075224.50,A,3737.7554801,N,12704.7381036,E,0.1,,190324,8.8,W,D*1F
$PSSN,HRP,075224.50,190324,359.645,,0.755,0.588,,0.901,20,2,8.837,W*17
$GNRMC,075225.00,A,3737.7554877,N,12704.7381120,E,0.0,,190324,8.8,W,D*1D
$PSSN,HRP,075225.00,190324,358.724,,1.237,0.591,,0.945,20,2,8.837,W*1C
$GNRMC,075225.50,A,3737.7555160,N,12704.7381239,E,0.3,,190324,8.8,W,D*1E
$PSSN,HRP,075225.50,190324,3.579,,0.867,0.623,,0.954,19,2,8.837,W*10
$GNRMC,075226.00,A,3737.7555411,N,12704.7381386,E,0.1,,190324,8.8,W,D*1C
$PSSN,HRP,075226.00,190324,8.377,,1.101,0.614,,0.910,19,2,8.837,W*19
$GNRMC,075226.50,A,3737.7555321,N,12704.7381526,E,0.0,,190324,8.8,W,D*10
$PSSN,HRP,075226.50,190324,8.840,,0.458,0.689,,0.994,18,2,8.837,W*12
$GNRMC,075227.00,A,3737.7555314,N,12704.7381527,E,0.0,,190324,8.8,W,D*13
$PSSN,HRP,075227.00,190324,9.165,,0.172,0.733,,1.105,18,2,8.837,W*15
$GNRMC,075227.50,A,3737.7555452,N,12704.7381649,E,0.2,,190324,8.8,W,D*1A
$PSSN,HRP,075227.50,190324,5.412,,0.547,0.801,,1.179,22,2,8.837,W*17
$GNRMC,075228.00,A,3737.7555259,N,12704.7381624,E,0.1,,190324,8.8,W,D*15
$PSSN,HRP,075228.00,190324,0.577,,0.663,0.739,,1.072,23,2,8.837,W*10
$GNRMC,075228.50,A,3737.7555344,N,12704.7381699,E,0.0,,190324,8.8,W,D*1A
$PSSN,HRP,075228.50,190324,0.006,,0.739,0.653,,0.984,20,2,8.837,W*17
$GNRMC,075229.00,A,3737.7555630,N,12704.7381855,E,0.3,,190324,8.8,W,D*15
$PSSN,HRP,075229.00,190324,3.890,,0.688,0.617,,0.952,20,2,8.837,W*17
$GNRMC,075229.50,A,3737.7555772,N,12704.7381923,E,0.0,,190324,8.8,W,D*14
$PSSN,HRP,075229.50,190324,5.914,,0.423,0.606,,0.958,20,2,8.837,W*10
$GNRMC,075230.00,A,3737.7555978,N,12704.7382038,E,0.3,,190324,8.8,W,D*1E
$PSSN,HRP,075230.00,190324,9.810,,0.341,0.619,,0.969,20,2,8.837,W*1B
$GNRMC,075230.50,A,3737.7556145,N,12704.7382102,E,0.0,,190324,8.8,W,D*15
$PSSN,HRP,075230.50,190324,9.628,,-0.690,0.634,,0.975,19,2,8.837,W*37
$GNRMC,075231.00,A,3737.7556397,N,12704.7382229,E,0.0,,190324,8.8,W,D*16
$PSSN,HRP,075231.00,190324,9.581,,-1.431,0.648,,0.972,19,2,8.837,W*37
$GNRMC,075231.50,A,3737.7556977,N,12704.7382738,E,0.0,,190324,8.8,W,D*12
$PSSN,HRP,075231.50,190324,9.375,,-1.005,0.745,,1.150,20,2,8.837,W*33
$GNRMC,075232.00,A,3737.7556953,N,12704.7382718,E,0.1,,190324,8.8,W,D*11
$PSSN,HRP,075232.00,190324,9.028,,-0.653,0.821,,1.318,20,2,8.837,W*39
$GNRMC,075232.50,A,3737.7556753,N,12704.7382647,E,0.1,,190324,8.8,W,D*11
$PSSN,HRP,075232.50,190324,5.126,,-0.278,0.869,,1.401,20,2,8.837,W*31
$GNRMC,075233.00,A,3737.7556551,N,12704.7382613,E,0.1,,190324,8.8,W,D*14
$PSSN,HRP,075233.00,190324,0.715,,0.139,0.792,,1.257,19,2,8.837,W*19
$GNRMC,075233.50,A,3737.7556658,N,12704.7382687,E,0.0,,190324,8.8,W,D*17
$PSSN,HRP,075233.50,190324,1.280,,0.602,0.728,,1.179,19,2,8.837,W*15
$GNRMC,075234.00,A,3737.7556981,N,12704.7382812,E,0.1,,190324,8.8,W,D*1D
$PSSN,HRP,075234.00,190324,8.468,,1.133,0.688,,1.153,19,2,8.837,W*19
$GNRMC,075234.50,A,3737.7556891,N,12704.7382879,E,0.0,,190324,8.8,W,D*14
$PSSN,HRP,075234.50,190324,9.413,,0.483,0.643,,1.080,20,2,8.837,W*1C
$GNRMC,075235.00,A,3737.7556703,N,12704.7382928,E,0.0,,190324,8.8,W,D*11
$PSSN,HRP,075235.00,190324,9.376,,0.269,0.620,,1.036,20,2,8.837,W*16
$GNRMC,075235.50,A,3737.7556621,N,12704.7382910,E,0.0,,190324,8.8,W,D*1E
$PSSN,HRP,075235.50,190324,9.647,,-0.161,0.618,,1.036,21,2,8.837,W*38
$GNRMC,075236.00,A,3737.7556535,N,12704.7382892,E,0.0,,190324,8.8,W,D*15
$PSSN,HRP,075236.00,190324,9.932,,-0.689,0.617,,1.035,21,2,8.837,W*3E
$GNRMC,075236.50,A,3737.7556377,N,12704.7382828,E,0.2,,190324,8.8,W,D*13
$PSSN,HRP,075236.50,190324,4.987,,0.285,0.612,,0.937,21,2,8.837,W*12
$GNRMC,075237.00,A,3737.7556223,N,12704.7382715,E,0.0,,190324,8.8,W,D*14
$PSSN,HRP,075237.00,190324,0.894,,0.878,0.554,,0.796,21,2,8.837,W*1D
$GNRMC,075237.50,A,3737.7556312,N,12704.7382698,E,0.0,,190324,8.8,W,D*16
$PSSN,HRP,075237.50,190324,0.440,,2.292,0.583,,0.791,20,2,8.837,W*1D
$GNRMC,075238.00,A,3737.7556627,N,12704.7382819,E,0.1,,190324,8.8,W,D*19
$PSSN,HRP,075238.00,190324,7.887,,3.867,0.579,,0.816,19,2,8.837,W*19
$GNRMC,075238.50,A,3737.7556588,N,12704.7382741,E,0.0,,190324,8.8,W,D*19
$PSSN,HRP,075238.50,190324,9.391,,2.322,0.618,,0.947,16,2,8.837,W*1B
$GNRMC,075239.00,A,3737.7556511,N,12704.7382609,E,0.0,,190324,8.8,W,D*10
$PSSN,HRP,075239.00,190324,9.767,,0.778,0.669,,1.070,16,2,8.837,W*11
$GNRMC,075239.50,A,3737.7556481,N,12704.7382624,E,0.0,,190324,8.8,W,D*12
$PSSN,HRP,075239.50,190324,9.955,,0.404,0.713,,1.160,20,2,8.837,W*1A
$GNRMC,075240.00,A,3737.7556452,N,12704.7382652,E,0.0,,190324,8.8,W,D*16
$PSSN,HRP,075240.00,190324,10.018,,0.134,0.658,,1.072,20,2,8.837,W*23
$GNRMC,075240.50,A,3737.7556422,N,12704.7382654,E,0.1,,190324,8.8,W,D*13
$PSSN,HRP,075240.50,190324,8.598,,0.573,0.589,,0.924,21,2,8.837,W*10
$GNRMC,075241.00,A,3737.7556203,N,12704.7382602,E,0.2,,190324,8.8,W,D*12
$PSSN,HRP,075241.00,190324,2.247,,0.974,0.565,,0.833,20,2,8.837,W*14
$GNRMC,075241.50,A,3737.7556164,N,12704.7382582,E,0.0,,190324,8.8,W,D*1C
$PSSN,HRP,075241.50,190324,359.762,,2.062,0.613,,0.938,21,2,8.837,W*1B
$GNRMC,075242.00,A,3737.7556249,N,12704.7382582,E,0.1,,190324,8.8,W,D*17
$PSSN,HRP,075242.00,190324,0.407,,2.906,0.656,,1.073,21,2,8.837,W*1F
$GNRMC,075242.50,A,3737.7556494,N,12704.7382544,E,0.1,,190324,8.8,W,D*1E
$PSSN,HRP,075242.50,190324,7.904,,2.621,0.694,,1.149,19,2,8.837,W*14
$GNRMC,075243.00,A,3737.7556552,N,12704.7382477,E,0.0,,190324,8.8,W,D*11
$PSSN,HRP,075243.00,190324,9.047,,2.333,0.631,,1.034,19,2,8.837,W*12
$GNRMC,075243.50,A,3737.7556493,N,12704.7382372,E,0.0,,190324,8.8,W,D*1A
$PSSN,HRP,075243.50,190324,9.440,,1.119,0.575,,0.894,20,2,8.837,W*17
$GNRMC,075244.00,A,3737.7556416,N,12704.7382257,E,0.0,,190324,8.8,W,D*13
$PSSN,HRP,075244.00,190324,9.737,,-0.069,0.536,,0.820,20,2,8.837,W*34
$GNRMC,075244.50,A,3737.7556364,N,12704.7382151,E,0.1,,190324,8.8,W,D*10
$PSSN,HRP,075244.50,190324,7.957,,-0.004,0.584,,0.924,19,2,8.837,W*3A
$GNRMC,075245.00,A,3737.7556194,N,12704.7381999,E,0.2,,190324,8.8,W,D*15
$PSSN,HRP,075245.00,190324,2.234,,0.105,0.642,,1.037,19,2,8.837,W*1B
$GNRMC,075245.50,A,3737.7556158,N,12704.7381991,E,0.0,,190324,8.8,W,D*1A
$PSSN,HRP,075245.50,190324,359.964,,1.576,0.692,,1.132,21,2,8.837,W*1E
$GNRMC,075246.00,A,3737.7556230,N,12704.7381983,E,0.0,,190324,8.8,W,D*12
$PSSN,HRP,075246.00,190324,0.546,,2.800,0.650,,1.066,21,2,8.837,W*1A
$GNRMC,075246.50,A,3737.7556451,N,12704.7382020,E,0.1,,190324,8.8,W,D*14
$PSSN,HRP,075246.50,190324,7.580,,3.346,0.634,,1.025,19,2,8.837,W*14
$GNRMC,075247.00,A,3737.7556530,N,12704.7382021,E,0.1,,190324,8.8,W,D*17
$PSSN,HRP,075247.00,190324,8.444,,3.636,0.628,,0.994,19,2,8.837,W*1B
$GNRMC,075247.50,A,3737.7556438,N,12704.7381996,E,0.0,,190324,8.8,W,D*1C
$PSSN,HRP,075247.50,190324,9.042,,2.129,0.588,,0.895,20,2,8.837,W*16
$GNRMC,075248.00,A,3737.7556314,N,12704.7381973,E,0.0,,190324,8.8,W,D*14
$PSSN,HRP,075248.00,190324,9.161,,0.631,0.540,,0.816,20,2,8.837,W*1F
$GNRMC,075248.50,A,3737.7556274,N,12704.7381968,E,0.0,,190324,8.8,W,D*1C
$PSSN,HRP,075248.50,190324,9.351,,0.469,0.540,,0.824,20,2,8.837,W*15
$GNRMC,075249.00,A,3737.7556240,N,12704.7381949,E,0.0,,190324,8.8,W,D*1C
$PSSN,HRP,075249.00,190324,9.398,,0.323,0.542,,0.831,20,2,8.837,W*1B
$GNRMC,075249.50,A,3737.7556134,N,12704.7381888,E,0.2,,190324,8.8,W,D*17
$PSSN,HRP,075249.50,190324,5.278,,0.688,0.565,,0.830,20,2,8.837,W*1D
$GNRMC,075250.00,A,3737.7555992,N,12704.7381849,E,0.1,,190324,8.8,W,D*13
$PSSN,HRP,075250.00,190324,1.105,,0.845,0.553,,0.817,20,2,8.837,W*12
$GNRMC,075250.50,A,3737.7556086,N,12704.7381890,E,0.0,,190324,8.8,W,D*1C
$PSSN,HRP,075250.50,190324,0.402,,1.438,0.558,,0.830,19,2,8.837,W*17
$GNRMC,075251.00,A,3737.7556410,N,12704.7381965,E,0.2,,190324,8.8,W,D*1A
$PSSN,HRP,075251.00,190324,6.255,,1.786,0.582,,0.854,19,2,8.837,W*12
$GNRMC,075251.50,A,3737.7556596,N,12704.7381990,E,0.0,,190324,8.8,W,D*18
$PSSN,HRP,075251.50,190324,9.034,,1.605,0.576,,0.867,21,2,8.837,W*17
$GNRMC,075252.00,A,3737.7556653,N,12704.7381995,E,0.0,,190324,8.8,W,D*11
$PSSN,HRP,075252.00,190324,8.989,,1.832,0.563,,0.845,21,2,8.837,W*11
$GNRMC,075252.50,A,3737.7556736,N,12704.7382018,E,0.0,,190324,8.8,W,D*19
$PSSN,HRP,075252.50,190324,9.200,,1.247,0.544,,0.813,20,2,8.837,W*10
$GNRMC,075253.00,A,3737.7556803,N,12704.7382045,E,0.0,,190324,8.8,W,D*1C
$PSSN,HRP,075253.00,190324,9.200,,0.415,0.535,,0.793,20,2,8.837,W*15
$GNRMC,075253.50,A,3737.7556562,N,12704.7382043,E,0.1,,190324,8.8,W,D*14
$PSSN,HRP,075253.50,190324,3.768,,0.232,0.542,,0.767,21,2,8.837,W*18
$GNRMC,075254.00,A,3737.7556379,N,12704.7382046,E,0.0,,190324,8.8,W,D*1E
$PSSN,HRP,075254.00,190324,0.421,,0.219,0.534,,0.753,21,2,8.837,W*18
$GNRMC,075254.50,A,3737.7556566,N,12704.7382091,E,0.1,,190324,8.8,W,D*18
$PSSN,HRP,075254.50,190324,1.797,,1.249,0.550,,0.791,20,2,8.837,W*1B
$GNRMC,075255.00,A,3737.7557012,N,12704.7382178,E,0.1,,190324,8.8,W,D*1D
$PSSN,HRP,075255.00,190324,9.757,,1.895,0.553,,0.852,20,2,8.837,W*13
$GNRMC,075255.50,A,3737.7556920,N,12704.7382120,E,0.0,,190324,8.8,W,D*1D
$PSSN,HRP,075255.50,190324,9.428,,1.344,0.567,,0.862,21,2,8.837,W*1F
$GNRMC,075256.00,A,3737.7556797,N,12704.7382051,E,0.0,,190324,8.8,W,D*1E
$PSSN,HRP,075256.00,190324,9.450,,0.620,0.565,,0.809,20,2,8.837,W*1E
$GNRMC,075256.50,A,3737.7556735,N,12704.7382057,E,0.2,,190324,8.8,W,D*17
$PSSN,HRP,075256.50,190324,7.514,,0.759,0.590,,0.787,20,2,8.837,W*18
$GNRMC,075257.00,A,3737.7556552,N,12704.7381953,E,0.2,,190324,8.8,W,D*1E
$PSSN,HRP,075257.00,190324,2.169,,0.639,0.577,,0.775,20,2,8.837,W*14
$GNRMC,075257.50,A,3737.7556479,N,12704.7381976,E,0.1,,190324,8.8,W,D*17
$PSSN,HRP,075257.50,190324,359.969,,1.523,0.576,,0.788,20,2,8.837,W*1E
$GNRMC,075258.00,A,3737.7556529,N,12704.7382011,E,0.1,,190324,8.8,W,D*12
$PSSN,HRP,075258.00,190324,1.405,,1.964,0.586,,0.805,19,2,8.837,W*1D
$GNRMC,075258.50,A,3737.7556714,N,12704.7382069,E,0.1,,190324,8.8,W,D*14
$PSSN,HRP,075258.50,190324,8.004,,1.894,0.625,,0.833,19,2,8.837,W*15
$GNRMC,075259.00,A,3737.7556741,N,12704.7382110,E,0.1,,190324,8.8,W,D*1F
$PSSN,HRP,075259.00,190324,9.582,,1.649,0.635,,0.831,19,2,8.837,W*16
$GNRMC,075259.50,A,3737.7556612,N,12704.7382069,E,0.0,,190324,8.8,W,D*13
$PSSN,HRP,075259.50,190324,9.952,,0.636,0.615,,0.783,20,2,8.837,W*15
$GNRMC,075300.00,A,3737.7556434,N,12704.7382006,E,0.1,,190324,8.8,W,D*15
$PSSN,HRP,075300.00,190324,9.546,,-0.339,0.564,,0.731,20,2,8.837,W*3F
$GNRMC,075300.50,A,3737.7556084,N,12704.7381911,E,0.2,,190324,8.8,W,D*10
$PSSN,HRP,075300.50,190324,3.498,,-0.296,0.573,,0.725,20,2,8.837,W*35
$GNRMC,075301.00,A,3737.7555789,N,12704.7381811,E,0.0,,190324,8.8,W,D*1E
$PSSN,HRP,075301.00,190324,359.232,,-0.275,0.569,,0.723,19,2,8.837,W*31
$GNRMC,075301.50,A,3737.7555895,N,12704.7381850,E,0.0,,190324,8.8,W,D*1C
$PSSN,HRP,075301.50,190324,359.740,,-0.237,0.581,,0.746,18,2,8.837,W*36
$GNRMC,075302.00,A,3737.7556248,N,12704.7381977,E,0.2,,190324,8.8,W,D*15
$PSSN,HRP,075302.00,190324,6.945,,0.039,0.608,,0.776,18,2,8.837,W*12
$GNRMC,075302.50,A,3737.7556330,N,12704.7381942,E,0.2,,190324,8.8,W,D*18
$PSSN,HRP,075302.50,190324,10.120,,0.811,0.600,,0.824,20,2,8.837,W*22
$GNRMC,075303.00,A,3737.7556297,N,12704.7381898,E,0.1,,190324,8.8,W,D*15
$PSSN,HRP,075303.00,190324,9.139,,1.718,0.559,,0.825,20,2,8.837,W*1F
$GNRMC,075303.50,A,3737.7556384,N,12704.7381901,E,0.0,,190324,8.8,W,D*13
$PSSN,HRP,075303.50,190324,9.228,,1.395,0.553,,0.818,22,2,8.837,W*1E
$GNRMC,075304.00,A,3737.7556477,N,12704.7381917,E,0.0,,190324,8.8,W,D*1D
$PSSN,HRP,075304.00,190324,9.312,,0.843,0.552,,0.812,22,2,8.837,W*1E
$GNRMC,075304.50,A,3737.7556290,N,12704.7381867,E,0.2,,190324,8.8,W,D*13
$PSSN,HRP,075304.50,190324,4.817,,1.417,0.567,,0.786,22,2,8.837,W*10
$GNRMC,075305.00,A,3737.7556099,N,12704.7381799,E,0.0,,190324,8.8,W,D*10
$PSSN,HRP,075305.00,190324,1.137,,1.386,0.558,,0.761,21,2,8.837,W*13
$GNRMC,075305.50,A,3737.7556197,N,12704.7381761,E,0.0,,190324,8.8,W,D*1D
$PSSN,HRP,075305.50,190324,1.076,,1.365,0.583,,0.775,20,2,8.837,W*1D
$GNRMC,075306.00,A,3737.7556477,N,12704.7381742,E,0.2,,190324,8.8,W,D*13
$PSSN,HRP,075306.00,190324,5.991,,1.287,0.602,,0.805,20,2,8.837,W*10
$GNRMC,075306.50,A,3737.7556560,N,12704.7381805,E,0.1,,190324,8.8,W,D*1E
$PSSN,HRP,075306.50,190324,9.341,,1.340,0.605,,0.815,21,2,8.837,W*13
$GNRMC,075307.00,A,3737.7556522,N,12704.7381758,E,0.1,,190324,8.8,W,D*1B
$PSSN,HRP,075307.00,190324,8.877,,1.612,0.580,,0.782,21,2,8.837,W*15
$GNRMC,075307.50,A,3737.7556533,N,12704.7381779,E,0.0,,190324,8.8,W,D*1C
$PSSN,HRP,075307.50,190324,8.902,,1.227,0.574,,0.761,22,2,8.837,W*14
$GNRMC,075308.00,A,3737.7556544,N,12704.7381821,E,0.0,,190324,8.8,W,D*14
$PSSN,HRP,075308.00,190324,8.973,,0.761,0.569,,0.754,21,2,8.837,W*17
$GNRMC,075308.50,A,3737.7556468,N,12704.7381768,E,0.2,,190324,8.8,W,D*1E
$PSSN,HRP,075308.50,190324,7.377,,0.810,0.578,,0.775,20,2,8.837,W*18
$GNRMC,075309.00,A,3737.7556298,N,12704.7381736,E,0.1,,190324,8.8,W,D*1B
$PSSN,HRP,075309.00,190324,3.462,,1.076,0.580,,0.797,20,2,8.837,W*19
$GNRMC,075309.50,A,3737.7556140,N,12704.7381640,E,0.1,,190324,8.8,W,D*18
$PSSN,HRP,075309.50,190324,359.660,,2.307,0.613,,0.828,21,2,8.837,W*15
$GNRMC,075310.00,A,3737.7556122,N,12704.7381633,E,0.0,,190324,8.8,W,D*14
$PSSN,HRP,075310.00,190324,359.335,,3.148,0.616,,0.827,21,2,8.837,W*1F
$GNRMC,075310.50,A,3737.7556404,N,12704.7381708,E,0.1,,190324,8.8,W,D*18
$PSSN,HRP,075310.50,190324,8.213,,2.372,0.666,,0.935,22,2,8.837,W*14
$GNRMC,075311.00,A,3737.7556370,N,12704.7381710,E,0.0,,190324,8.8,W,D*10
$PSSN,HRP,075311.00,190324,8.142,,1.909,0.703,,1.041,22,2,8.837,W*1B
$GNRMC,075311.50,A,3737.7556263,N,12704.7381637,E,0.0,,190324,8.8,W,D*12
$PSSN,HRP,075311.50,190324,8.924,,0.955,0.718,,1.096,20,2,8.837,W*1C
$GNRMC,075312.00,A,3737.7556147,N,12704.7381545,E,0.0,,190324,8.8,W,D*17
$PSSN,HRP,075312.00,190324,9.535,,0.145,0.648,,0.977,20,2,8.837,W*1D
$GNRMC,075312.50,A,3737.7556142,N,12704.7381554,E,0.0,,190324,8.8,W,D*17
$PSSN,HRP,075312.50,190324,9.575,,0.349,0.698,,1.113,21,2,8.837,W*15
$GNRMC,075313.00,A,3737.7556099,N,12704.7381574,E,0.1,,190324,8.8,W,D*17
$PSSN,HRP,075313.00,190324,8.619,,0.831,0.760,,1.266,21,2,8.837,W*1A
$GNRMC,075313.50,A,3737.7555852,N,12704.7381486,E,0.2,,190324,8.8,W,D*11
$PSSN,HRP,075313.50,190324,3.580,,0.733,0.757,,1.159,21,2,8.837,W*11
$GNRMC,075314.00,A,3737.7555685,N,12704.7381421,E,0.0,,190324,8.8,W,D*18
$PSSN,HRP,075314.00,190324,1.025,,0.550,0.555,,0.713,20,2,8.837,W*14
$GNRMC,075314.50,A,3737.7555782,N,12704.7381416,E,0.0,,190324,8.8,W,D*1F
$PSSN,HRP,075314.50,190324,0.813,,1.078,0.587,,0.756,19,2,8.837,W*17
$GNRMC,075315.00,A,3737.7556159,N,12704.7381455,E,0.4,,190324,8.8,W,D*1B
$PSSN,HRP,075315.00,190324,8.501,,1.708,0.609,,0.851,19,2,8.837,W*18
$GNRMC,075315.50,A,3737.7556325,N,12704.7381401,E,0.1,,190324,8.8,W,D*13
$PSSN,HRP,075315.50,190324,9.490,,1.448,0.586,,0.873,20,2,8.837,W*1C
$GNRMC,075316.00,A,3737.7556454,N,12704.7381367,E,0.0,,190324,8.8,W,D*12
$PSSN,HRP,075316.00,190324,9.276,,1.276,0.560,,0.815,20,2,8.837,W*17
$GNRMC,075316.50,A,3737.7556634,N,12704.7381390,E,0.0,,190324,8.8,W,D*1B
$PSSN,HRP,075316.50,190324,9.347,,0.931,0.564,,0.814,19,2,8.837,W*17
$GNRMC,075317.00,A,3737.7556831,N,12704.7381410,E,0.1,,190324,8.8,W,D*1A
$PSSN,HRP,075317.00,190324,9.536,,0.805,0.565,,0.819,19,2,8.837,W*19
$GNRMC,075317.50,A,3737.7556766,N,12704.7381392,E,0.1,,190324,8.8,W,D*1F
$PSSN,HRP,075317.50,190324,8.035,,0.720,0.578,,0.825,18,2,8.837,W*11
$GNRMC,075318.00,A,3737.7556529,N,12704.7381370,E,0.2,,190324,8.8,W,D*13
$PSSN,HRP,075318.00,190324,2.762,,0.512,0.592,,0.829,17,2,8.837,W*10
$GNRMC,075318.50,A,3737.7556271,N,12704.7381321,E,0.1,,190324,8.8,W,D*1B
$PSSN,HRP,075318.50,190324,359.212,,1.634,0.602,,0.841,16,2,8.837,W*19
$GNRMC,075319.00,A,3737.7556278,N,12704.7381287,E,0.0,,190324,8.8,W,D*1A
$PSSN,HRP,075319.00,190324,0.383,,2.761,0.609,,0.860,16,2,8.837,W*11
$GNRMC,075319.50,A,3737.7556455,N,12704.7381267,E,0.1,,190324,8.8,W,D*19
$PSSN,HRP,075319.50,190324,7.472,,4.372,0.672,,0.922,16,2,8.837,W*11
$GNRMC,075320.00,A,3737.7556399,N,12704.7381160,E,0.0,,190324,8.8,W,D*14
$PSSN,HRP,075320.00,190324,6.656,,6.068,0.651,,0.955,16,2,8.837,W*10
$GNRMC,075320.50,A,3737.7556204,N,12704.7381087,E,0.0,,190324,8.8,W,D*1C
$PSSN,HRP,075320.50,190324,7.795,,3.804,0.670,,1.076,17,2,8.837,W*16
$GNRMC,075321.00,A,3737.7555942,N,12704.7381047,E,0.0,,190324,8.8,W,D*1E
$PSSN,HRP,075321.00,190324,8.884,,1.421,0.683,,1.160,17,2,8.837,W*11
$GNRMC,075321.50,A,3737.7555752,N,12704.7381028,E,0.0,,190324,8.8,W,D*1D
$PSSN,HRP,075321.50,190324,9.159,,1.159,0.703,,1.196,18,2,8.837,W*19
$GNRMC,075322.00,A,3737.7555579,N,12704.7380997,E,0.0,,190324,8.8,W,D*1C
$PSSN,HRP,075322.00,190324,9.435,,0.675,0.661,,1.118,18,2,8.837,W*1B
$GNRMC,075322.50,A,3737.7555246,N,12704.7380927,E,0.2,,190324,8.8,W,D*1B
$PSSN,HRP,075322.50,190324,3.607,,0.947,0.677,,1.077,18,2,8.837,W*16
$GNRMC,075323.00,A,3737.7554996,N,12704.7380852,E,0.2,,190324,8.8,W,D*1B
$PSSN,HRP,075323.00,190324,359.920,,1.083,0.681,,1.046,18,2,8.837,W*1F
$GNRMC,075323.50,A,3737.7555039,N,12704.7380793,E,0.0,,190324,8.8,W,D*13
$PSSN,HRP,075323.50,190324,359.417,,2.131,0.731,,1.141,14,2,8.837,W*18
$GNRMC,075324.00,A,3737.7555218,N,12704.7380737,E,0.2,,190324,8.8,W,D*1C
$PSSN,HRP,075324.00,190324,2.243,,3.084,0.771,,1.281,14,2,8.837,W*15
$GNRMC,075324.50,A,3737.7555333,N,12704.7380809,E,0.5,,190324,8.8,W,D*14
$PSSN,HRP,075324.50,190324,7.417,,3.040,0.844,,1.360,16,2,8.837,W*1F
$GNRMC,075325.00,A,3737.7555230,N,12704.7380738,E,0.0,,190324,8.8,W,D*1A
$PSSN,HRP,075325.00,190324,8.001,,3.042,0.757,,1.258,16,2,8.837,W*12
$GNRMC,075325.50,A,3737.7555264,N,12704.7380741,E,0.0,,190324,8.8,W,D*10
$PSSN,HRP,075325.50,190324,8.821,,1.873,0.697,,1.156,17,2,8.837,W*14
$GNRMC,075326.00,A,3737.7555262,N,12704.7380695,E,0.0,,190324,8.8,W,D*18
$PSSN,HRP,075326.00,190324,9.301,,0.955,0.661,,1.102,16,2,8.837,W*17
$GNRMC,075326.50,A,3737.7555186,N,12704.7380579,E,0.2,,190324,8.8,W,D*17
$PSSN,HRP,075326.50,190324,7.919,,0.387,0.684,,1.125,17,2,8.837,W*15
$GNRMC,075327.00,A,3737.7554868,N,12704.7380543,E,0.3,,190324,8.8,W,D*13
$PSSN,HRP,075327.00,190324,1.881,,-0.050,0.698,,1.134,17,2,8.837,W*3E
$GNRMC,075327.50,A,3737.7554786,N,12704.7380618,E,0.1,,190324,8.8,W,D*16
$PSSN,HRP,075327.50,190324,0.501,,-0.014,0.698,,1.188,17,2,8.837,W*38
$GNRMC,075328.00,A,3737.7554906,N,12704.7380735,E,0.3,,190324,8.8,W,D*16
$PSSN,HRP,075328.00,190324,4.318,,-0.129,0.706,,1.235,17,2,8.837,W*34
$GNRMC,075328.50,A,3737.7555132,N,12704.7380810,E,0.1,,190324,8.8,W,D*17
$PSSN,HRP,075328.50,190324,10.637,,0.737,0.717,,1.284,14,2,8.837,W*21
$GNRMC,075329.00,A,3737.7555171,N,12704.7380721,E,0.1,,190324,8.8,W,D*19
$PSSN,HRP,075329.00,190324,10.334,,1.599,0.751,,1.292,14,2,8.837,W*21
$GNRMC,075329.50,A,3737.7555250,N,12704.7380838,E,0.1,,190324,8.8,W,D*1B
$PSSN,HRP,075329.50,190324,10.945,,-0.472,0.739,,1.228,19,2,8.837,W*02
$GNRMC,075330.00,A,3737.7555333,N,12704.7380979,E,0.1,,190324,8.8,W,D*16
$PSSN,HRP,075330.00,190324,11.431,,-2.725,0.701,,1.134,19,2,8.837,W*06
$GNRMC,075330.50,A,3737.7555233,N,12704.7381034,E,0.2,,190324,8.8,W,D*10
$PSSN,HRP,075330.50,190324,7.519,,-2.263,0.701,,1.098,18,2,8.837,W*3E
$GNRMC,075331.00,A,3737.7555020,N,12704.7381041,E,0.2,,190324,8.8,W,D*16
$PSSN,HRP,075331.00,190324,1.119,,-1.842,0.685,,1.084,17,2,8.837,W*3D
$GNRMC,075331.50,A,3737.7555057,N,12704.7380974,E,0.0,,190324,8.8,W,D*1F
$PSSN,HRP,075331.50,190324,0.066,,0.389,0.711,,1.190,17,2,8.837,W*18
$GNRMC,075332.00,A,3737.7555329,N,12704.7380997,E,0.3,,190324,8.8,W,D*1D
$PSSN,HRP,075332.00,190324,4.715,,2.341,0.767,,1.306,17,2,8.837,W*13
$GNRMC,075332.50,A,3737.7555425,N,12704.7381005,E,0.1,,190324,8.8,W,D*12
$PSSN,HRP,075332.50,190324,8.601,,2.372,0.800,,1.396,15,2,8.837,W*1B
$GNRMC,075333.00,A,3737.7555370,N,12704.7381035,E,0.1,,190324,8.8,W,D*12
$PSSN,HRP,075333.00,190324,8.327,,2.421,0.760,,1.315,15,2,8.837,W*1D
$GNRMC,075333.50,A,3737.7555427,N,12704.7381193,E,0.0,,190324,8.8,W,D*1E
$PSSN,HRP,075333.50,190324,8.900,,1.974,0.731,,1.235,18,2,8.837,W*13
$GNRMC,075334.00,A,3737.7555403,N,12704.7381345,E,0.1,,190324,8.8,W,D*12
$PSSN,HRP,075334.00,190324,7.524,,1.521,0.720,,1.176,17,2,8.837,W*13
$GNRMC,075334.50,A,3737.7555111,N,12704.7381253,E,0.3,,190324,8.8,W,D*15
$PSSN,HRP,075334.50,190324,1.732,,2.010,0.816,,1.394,16,2,8.837,W*14
$GNRMC,075335.00,A,3737.7554848,N,12704.7381114,E,0.0,,190324,8.8,W,D*16
$PSSN,HRP,075335.00,190324,358.838,,2.005,0.855,,1.640,16,2,8.837,W*15
$GNRMC,075335.50,A,3737.7554830,N,12704.7381124,E,0.0,,190324,8.8,W,D*1F
$PSSN,HRP,075335.50,190324,358.311,,3.163,0.892,,1.705,14,2,8.837,W*19
$GNRMC,075336.00,A,3737.7554933,N,12704.7381204,E,0.2,,190324,8.8,W,D*18
$PSSN,HRP,075336.00,190324,0.754,,4.498,0.786,,1.436,14,2,8.837,W*1B
$GNRMC,075336.50,A,3737.7555276,N,12704.7381328,E,0.1,,190324,8.8,W,D*1A
$PSSN,HRP,075336.50,190324,8.186,,3.940,0.832,,1.563,15,2,8.837,W*10
$GNRMC,075337.00,A,3737.7555379,N,12704.7381362,E,0.1,,190324,8.8,W,D*1E
$PSSN,HRP,075337.00,190324,8.532,,3.583,0.849,,1.718,15,2,8.837,W*1E
$GNRMC,075337.50,A,3737.7555430,N,12704.7381430,E,0.0,,190324,8.8,W,D*10
$PSSN,HRP,075337.50,190324,8.877,,2.828,0.829,,1.582,18,2,8.837,W*10
$GNRMC,075338.00,A,3737.7555467,N,12704.7381501,E,0.0,,190324,8.8,W,D*1B
$PSSN,HRP,075338.00,190324,9.187,,1.942,0.659,,1.085,18,2,8.837,W*18
$GNRMC,075338.50,A,3737.7555434,N,12704.7381555,E,0.1,,190324,8.8,W,D*18
$PSSN,HRP,075338.50,190324,7.396,,1.819,0.690,,1.057,19,2,8.837,W*15
$GNRMC,075339.00,A,3737.7555260,N,12704.7381481,E,0.2,,190324,8.8,W,D*10
$PSSN,HRP,075339.00,190324,1.854,,1.424,0.675,,1.056,19,2,8.837,W*1A
$GNRMC,075339.50,A,3737.7555289,N,12704.7381513,E,0.1,,190324,8.8,W,D*1B
$PSSN,HRP,075339.50,190324,0.286,,2.183,0.697,,1.117,18,2,8.837,W*19
$GNRMC,075340.00,A,3737.7555464,N,12704.7381562,E,0.2,,190324,8.8,W,D*10
$PSSN,HRP,075340.00,190324,2.578,,2.955,0.740,,1.192,18,2,8.837,W*13
$GNRMC,075340.50,A,3737.7555696,N,12704.7381693,E,0.1,,190324,8.8,W,D*14
$PSSN,HRP,075340.50,190324,6.359,,3.141,0.767,,1.193,18,2,8.837,W*1F
$GNRMC,075341.00,A,3737.7555881,N,12704.7381738,E,0.1,,190324,8.8,W,D*18
$PSSN,HRP,075341.00,190324,8.416,,3.051,0.753,,1.061,18,2,8.837,W*12
$GNRMC,075341.50,A,3737.7555878,N,12704.7381769,E,0.0,,190324,8.8,W,D*1E
$PSSN,HRP,075341.50,190324,8.950,,1.726,0.742,,0.980,21,2,8.837,W*10
$GNRMC,075342.00,A,3737.7555853,N,12704.7381800,E,0.0,,190324,8.8,W,D*11
$PSSN,HRP,075342.00,190324,9.300,,0.662,0.689,,0.965,21,2,8.837,W*15
$GNRMC,075342.50,A,3737.7555606,N,12704.7381711,E,0.2,,190324,8.8,W,D*17
$PSSN,HRP,075342.50,190324,5.535,,0.923,0.740,,1.067,22,2,8.837,W*1B
$GNRMC,075343.00,A,3737.7555337,N,12704.7381609,E,0.1,,190324,8.8,W,D*1F
$PSSN,HRP,075343.00,190324,1.475,,0.843,0.792,,1.176,22,2,8.837,W*17
$GNRMC,075343.50,A,3737.7555444,N,12704.7381651,E,0.0,,190324,8.8,W,D*15
$PSSN,HRP,075343.50,190324,0.464,,1.540,0.803,,1.247,18,2,8.837,W*13
$GNRMC,075344.00,A,3737.7555869,N,12704.7381674,E,0.3,,190324,8.8,W,D*10
$PSSN,HRP,075344.00,190324,5.295,,1.809,0.736,,1.141,18,2,8.837,W*10
$GNRMC,075344.50,A,3737.7556080,N,12704.7381720,E,0.2,,190324,8.8,W,D*18
$PSSN,HRP,075344.50,190324,10.499,,1.871,0.644,,0.941,18,2,8.837,W*29
$GNRMC,075345.00,A,3737.7556105,N,12704.7381721,E,0.0,,190324,8.8,W,D*13
$PSSN,HRP,075345.00,190324,10.203,,2.155,0.568,,0.810,18,2,8.837,W*2C
$GNRMC,075345.50,A,3737.7556126,N,12704.7381603,E,0.0,,190324,8.8,W,D*16
$PSSN,HRP,075345.50,190324,10.485,,0.967,0.614,,0.900,18,2,8.837,W*22
$GNRMC,075346.00,A,3737.7556101,N,12704.7381489,E,0.1,,190324,8.8,W,D*14
$PSSN,HRP,075346.00,190324,10.026,,-0.012,0.649,,1.011,18,2,8.837,W*0F
$GNRMC,075346.50,A,3737.7555666,N,12704.7381348,E,0.2,,190324,8.8,W,D*1D
$PSSN,HRP,075346.50,190324,3.064,,0.640,0.714,,1.076,18,2,8.837,W*1A
$GNRMC,075347.00,A,3737.7555382,N,12704.7381242,E,0.1,,190324,8.8,W,D*1E
$PSSN,HRP,075347.00,190324,359.342,,1.219,0.662,,0.982,18,2,8.837,W*1F
$GNRMC,075347.50,A,3737.7555544,N,12704.7381225,E,0.1,,190324,8.8,W,D*16
$PSSN,HRP,075347.50,190324,358.823,,4.244,0.664,,0.989,17,2,8.837,W*18
$GNRMC,075348.00,A,3737.7556005,N,12704.7381144,E,0.2,,190324,8.8,W,D*18
$PSSN,HRP,075348.00,190324,4.379,,7.153,0.663,,1.020,17,2,8.837,W*16
$GNRMC,075348.50,A,3737.7555981,N,12704.7381359,E,0.3,,190324,8.8,W,D*14
$PSSN,HRP,075348.50,190324,7.638,,5.049,0.684,,1.046,16,2,8.837,W*10
$GNRMC,075349.00,A,3737.7555586,N,12704.7381291,E,0.0,,190324,8.8,W,D*1D
$PSSN,HRP,075349.00,190324,8.808,,3.214,0.659,,1.033,16,2,8.837,W*18
$GNRMC,075349.50,A,3737.7555202,N,12704.7381168,E,0.0,,190324,8.8,W,D*16
$PSSN,HRP,075349.50,190324,9.192,,1.958,0.657,,1.023,18,2,8.837,W*16
$GNRMC,075350.00,A,3737.7554902,N,12704.7380987,E,0.0,,190324,8.8,W,D*19
$PSSN,HRP,075350.00,190324,9.655,,0.689,0.647,,1.005,18,2,8.837,W*10
$GNRMC,075350.50,A,3737.7554526,N,12704.7380804,E,0.2,,190324,8.8,W,D*1E
$PSSN,HRP,075350.50,190324,5.617,,0.558,0.673,,0.987,18,2,8.837,W*15
$GNRMC,075351.00,A,3737.7554113,N,12704.7380561,E,0.2,,190324,8.8,W,D*16
$PSSN,HRP,075351.00,190324,0.533,,0.624,0.662,,0.967,18,2,8.837,W*17
$GNRMC,075351.50,A,3737.7554095,N,12704.7380456,E,0.0,,190324,8.8,W,D*1B
$PSSN,HRP,075351.50,190324,359.126,,2.046,0.672,,1.065,18,2,8.837,W*16
$GNRMC,075352.00,A,3737.7554213,N,12704.7380381,E,0.3,,190324,8.8,W,D*1F
$PSSN,HRP,075352.00,190324,1.500,,3.381,0.711,,1.190,18,2,8.837,W*18
$GNRMC,075352.50,A,3737.7554416,N,12704.7380507,E,0.2,,190324,8.8,W,D*10
$PSSN,HRP,075352.50,190324,5.382,,2.440,0.757,,1.293,15,2,8.837,W*11
$GNRMC,075353.00,A,3737.7554564,N,12704.7380585,E,0.0,,190324,8.8,W,D*18
$PSSN,HRP,075353.00,190324,8.951,,1.525,0.760,,1.257,15,2,8.837,W*11
$GNRMC,075353.50,A,3737.7554591,N,12704.7380405,E,0.0,,190324,8.8,W,D*1E
$PSSN,HRP,075353.50,190324,9.832,,0.122,0.836,,1.340,19,2,8.837,W*14
$GNRMC,075354.00,A,3737.7554591,N,12704.7380436,E,0.0,,190324,8.8,W,D*1C
$PSSN,HRP,075354.00,190324,10.172,,-1.508,0.905,,1.473,19,2,8.837,W*05
$GNRMC,075354.50,A,3737.7554580,N,12704.7380523,E,0.0,,190324,8.8,W,D*1C
$PSSN,HRP,075354.50,190324,9.300,,-0.284,0.927,,1.517,19,2,8.837,W*3E
$GNRMC,075355.00,A,3737.7554327,N,12704.7380390,E,0.3,,190324,8.8,W,D*1E
$PSSN,HRP,075355.00,190324,3.246,,0.859,0.827,,1.322,19,2,8.837,W*15
$GNRMC,075355.50,A,3737.7554194,N,12704.7380328,E,0.1,,190324,8.8,W,D*10
$PSSN,HRP,075355.50,190324,359.442,,2.302,0.753,,1.289,17,2,8.837,W*1B
$GNRMC,075356.00,A,3737.7554276,N,12704.7380327,E,0.2,,190324,8.8,W,D*15
$PSSN,HRP,075356.00,190324,0.807,,3.410,0.718,,1.283,17,2,8.837,W*1F
$GNRMC,075356.50,A,3737.7554645,N,12704.7380454,E,0.1,,190324,8.8,W,D*14
$PSSN,HRP,075356.50,190324,8.924,,1.482,0.762,,1.401,16,2,8.837,W*1B
$GNRMC,075357.00,A,3737.7554642,N,12704.7380332,E,0.2,,190324,8.8,W,D*13
$PSSN,HRP,075357.00,190324,9.474,,-0.673,0.825,,1.478,16,2,8.837,W*34
$GNRMC,075357.50,A,3737.7554612,N,12704.7380272,E,0.1,,190324,8.8,W,D*15
$PSSN,HRP,075357.50,190324,9.759,,-2.502,0.896,,1.591,17,2,8.837,W*35
$GNRMC,075358.00,A,3737.7554616,N,12704.7380275,E,0.1,,190324,8.8,W,D*1C
$PSSN,HRP,075358.00,190324,10.968,,-4.087,0.943,,1.598,17,2,8.837,W*05
$GNRMC,075358.50,A,3737.7554696,N,12704.7380326,E,0.0,,190324,8.8,W,D*17
$PSSN,HRP,075358.50,190324,11.419,,-5.177,1.043,,1.651,17,2,8.837,W*0B
$GNRMC,075359.00,A,3737.7554705,N,12704.7380321,E,0.1,,190324,8.8,W,D*1E
$PSSN,HRP,075359.00,190324,11.390,,-6.389,1.101,,1.699,17,2,8.837,W*0A
$GNRMC,075359.50,A,3737.7554806,N,12704.7380533,E,0.1,,190324,8.8,W,D*12
$PSSN,HRP,075359.50,190324,11.239,,-3.914,1.012,,1.434,17,2,8.837,W*00
$GNRMC,075400.00,A,3737.7554789,N,12704.7380645,E,0.1,,190324,8.8,W,D*16
$PSSN,HRP,075400.00,190324,9.253,,-1.588,0.603,,0.699,16,2,8.837,W*32
$GNRMC,075400.50,A,3737.7554377,N,12704.7380519,E,0.2,,190324,8.8,W,D*1F
$PSSN,HRP,075400.50,190324,359.193,,0.032,0.632,,0.728,19,2,8.837,W*10
$GNRMC,075401.00,A,3737.7554234,N,12704.7380495,E,0.0,,190324,8.8,W,D*1A
$PSSN,HRP,075401.00,190324,357.392,,1.544,0.601,,0.828,18,2,8.837,W*12
$GNRMC,075401.50,A,3737.7554535,N,12704.7380667,E,0.6,,190324,8.8,W,D*10
$PSSN,HRP,075401.50,190324,2.779,,1.813,0.757,,1.042,17,2,8.837,W*12
$GNRMC,075402.00,A,3737.7554876,N,12704.7380892,E,0.2,,190324,8.8,W,D*1C
$PSSN,HRP,075402.00,190324,9.924,,1.975,0.687,,1.156,16,2,8.837,W*11
$GNRMC,075402.50,A,3737.7554511,N,12704.7380812,E,0.0,,190324,8.8,W,D*1F
$PSSN,HRP,075402.50,190324,9.710,,1.657,0.723,,1.171,18,2,8.837,W*16
$GNRMC,075403.00,A,3737.7554514,N,12704.7380829,E,0.0,,190324,8.8,W,D*16
$PSSN,HRP,075403.00,190324,9.879,,1.336,0.755,,1.043,18,2,8.837,W*11
$GNRMC,075403.50,A,3737.7554731,N,12704.7380704,E,0.0,,190324,8.8,W,D*16
$PSSN,HRP,075403.50,190324,9.931,,1.168,0.793,,0.998,18,2,8.837,W*14
$GNRMC,075404.00,A,3737.7554731,N,12704.7380727,E,0.0,,190324,8.8,W,D*15
$PSSN,HRP,075404.00,190324,9.976,,0.992,0.734,,1.016,19,2,8.837,W*1B
$GNRMC,075404.50,A,3737.7554550,N,12704.7380689,E,0.3,,190324,8.8,W,D*13
$PSSN,HRP,075404.50,190324,3.840,,0.893,0.675,,0.969,19,2,8.837,W*14
$GNRMC,075405.00,A,3737.7554276,N,12704.7380636,E,0.1,192.5,190324,8.8,W,D*33
$PSSN,HRP,075405.00,190324,358.715,,1.712,0.598,,0.902,18,2,8.837,W*19
$GNRMC,075405.50,A,3737.7554440,N,12704.7380719,E,0.1,,190324,8.8,W,D*18
$PSSN,HRP,075405.50,190324,357.623,,1.544,0.598,,0.946,19,2,8.837,W*17
$GNRMC,075406.00,A,3737.7554788,N,12704.7380815,E,0.4,,190324,8.8,W,D*1F
$PSSN,HRP,075406.00,190324,359.651,,0.531,0.648,,0.986,18,2,8.837,W*1A
$GNRMC,075406.50,A,3737.7555231,N,12704.7381014,E,0.2,,190324,8.8,W,D*12
$PSSN,HRP,075406.50,190324,,,,,,,00,0,,E*2B
$GNRMC,075407.00,A,3737.7555438,N,12704.7381120,E,0.0,,190324,8.8,W,D*1D
$PSSN,HRP,075407.00,190324,,,,,,,00,0,,E*2F
$GNRMC,075407.50,A,3737.7555639,N,12704.7381218,E,0.0,,190324,8.8,W,D*13
$PSSN,HRP,075407.50,190324,,,,,,,00,0,,E*2A
$GNRMC,075408.00,A,3737.7555872,N,12704.7381200,E,0.1,,190324,8.8,W,D*10
$PSSN,HRP,075408.00,190324,,,,,,,00,0,,E*20
$GNRMC,075408.50,A,3737.7555990,N,12704.7381143,E,0.1,,190324,8.8,W,D*1C
$PSSN,HRP,075408.50,190324,,,,,,,00,0,,E*25
$GNRMC,075409.00,A,3737.7555743,N,12704.7381069,E,0.4,,190324,8.8,W,D*14
$PSSN,HRP,075409.00,190324,,,,,,,00,0,,E*21
$GNRMC,075409.50,A,3737.7555235,N,12704.7381112,E,0.2,183.2,190324,8.8,W,D*38
$PSSN,HRP,075409.50,190324,,,,,,,00,0,,E*24
$GNRMC,075410.00,A,3737.7555134,N,12704.7381148,E,0.2,,190324,8.8,W,D*1E
$PSSN,HRP,075410.00,190324,,,,,,,00,0,,E*29
$GNRMC,075410.50,A,3737.7555671,N,12704.7380977,E,0.3,344.8,190324,8.8,W,D*3C
$PSSN,HRP,075410.50,190324,,,,,,,00,0,,E*2C
$GNRMC,075411.00,A,3737.7555856,N,12704.7381108,E,0.2,,190324,8.8,W,D*16
$PSSN,HRP,075411.00,190324,,,,,,,00,0,,E*28
$GNRMC,075411.50,A,3737.7555295,N,12704.7380861,E,0.0,,190324,8.8,W,D*13
$PSSN,HRP,075411.50,190324,,,,,,,00,0,,E*2D
$GNRMC,075412.00,A,3737.7555295,N,12704.7380849,E,0.0,,190324,8.8,W,D*1F
$PSSN,HRP,075412.00,190324,,,,,,,00,0,,E*2B
$GNRMC,075412.50,A,3737.7555132,N,12704.7380622,E,0.0,,190324,8.8,W,D*17
$PSSN,HRP,075412.50,190324,11.334,,-2.201,0.821,,1.307,17,2,8.837,W*04
$GNRMC,075413.00,A,3737.7555132,N,12704.7380638,E,0.0,,190324,8.8,W,D*18
$PSSN,HRP,075413.00,190324,11.470,,-2.194,0.815,,1.308,17,2,8.837,W*00
$GNRMC,075413.50,A,3737.7554856,N,12704.7380544,E,0.5,,190324,8.8,W,D*1A
$PSSN,HRP,075413.50,190324,3.916,,-2.289,0.777,,1.132,17,2,8.837,W*34
$GNRMC,075414.00,A,3737.7554509,N,12704.7380442,E,0.2,189.1,190324,8.8,W,D*30
$PSSN,HRP,075414.00,190324,355.693,,-2.071,0.633,,0.854,16,2,8.837,W*39
$GNRMC,075414.50,A,3737.7554642,N,12704.7380412,E,0.1,,190324,8.8,W,D*10
$PSSN,HRP,075414.50,190324,355.331,,-2.075,0.652,,0.849,17,2,8.837,W*3F
$GNRMC,075415.00,A,3737.7554956,N,12704.7380448,E,0.4,,190324,8.8,W,D*14
$PSSN,HRP,075415.00,190324,357.519,,-2.864,0.718,,0.885,17,2,8.837,W*32
$GNRMC,075415.50,A,3737.7555234,N,12704.7380652,E,0.2,,190324,8.8,W,D*10
$PSSN,HRP,075415.50,190324,,,,,,,00,0,,E*29
$GNRMC,075416.00,A,3737.7555308,N,12704.7380658,E,0.1,,190324,8.8,W,D*11
$PSSN,HRP,075416.00,190324,,,,,,,00,0,,E*2F
$GNRMC,075416.50,A,3737.7555330,N,12704.7380602,E,0.0,,190324,8.8,W,D*11
$PSSN,HRP,075416.50,190324,,,,,,,00,0,,E*2A
$GNRMC,075417.00,A,3737.7555357,N,12704.7380531,E,0.0,,190324,8.8,W,D*17
$PSSN,HRP,075417.00,190324,,,,,,,00,0,,E*2E
$GNRMC,075417.50,A,3737.7555246,N,12704.7380437,E,0.2,,190324,8.8,W,D*16
$PSSN,HRP,075417.50,190324,,,,,,,00,0,,E*2B
$GNRMC,075418.00,A,3737.7554818,N,12704.7380234,E,0.3,191.2,190324,8.8,W,D*3D
$PSSN,HRP,075418.00,190324,,,,,,,00,0,,E*21
$GNRMC,075418.50,A,3737.7554744,N,12704.7380226,E,0.1,,190324,8.8,W,D*1A
$PSSN,HRP,075418.50,190324,,,,,,,00,0,,E*24
$GNRMC,075419.00,A,3737.7554880,N,12704.7380246,E,0.3,,190324,8.8,W,D*1D
$PSSN,HRP,075419.00,190324,,,,,,,00,0,,E*20
$GNRMC,075419.50,A,3737.7555291,N,12704.7380303,E,0.4,15.0,190324,8.8,W,D*0E
$PSSN,HRP,075419.50,190324,,,,,,,00,0,,E*25
$GNRMC,075420.00,A,3737.7555284,N,12704.7380238,E,0.1,,190324,8.8,W,D*13
$PSSN,HRP,075420.00,190324,,,,,,,00,0,,E*2A
$GNRMC,075420.50,A,3737.7555311,N,12704.7380164,E,0.0,,190324,8.8,W,D*10
$PSSN,HRP,075420.50,190324,,,,,,,00,0,,E*2F
$GNRMC,075421.00,A,3737.7555296,N,12704.7380170,E,0.0,,190324,8.8,W,D*1F
$PSSN,HRP,075421.00,190324,,,,,,,00,0,,E*2B
$GNRMC,075421.50,A,3737.7555251,N,12704.7380209,E,0.1,,190324,8.8,W,D*1D
$PSSN,HRP,075421.50,190324,,,,,,,00,0,,E*2E
$GNRMC,075422.00,A,3737.7554935,N,12704.7380092,E,0.2,199.9,190324,8.8,W,D*36
$PSSN,HRP,075422.00,190324,,,,,,,00,0,,E*28
$GNRMC,075422.50,A,3737.7554631,N,12704.7380066,E,0.1,,190324,8.8,W,D*16
$PSSN,HRP,075422.50,190324,,,,,,,00,0,,E*2D
$GNRMC,075423.00,A,3737.7554741,N,12704.7380072,E,0.3,,190324,8.8,W,D*13
$PSSN,HRP,075423.00,190324,,,,,,,00,0,,E*29
$GNRMC,075423.50,A,3737.7555213,N,12704.7380041,E,0.1,,190324,8.8,W,D*17
$PSSN,HRP,075423.50,190324,,,,,,,00,0,,E*2C
$GNRMC,075424.00,A,3737.7555240,N,12704.7380078,E,0.1,,190324,8.8,W,D*19
$PSSN,HRP,075424.00,190324,,,,,,,00,0,,E*2E
$GNRMC,075424.50,A,3737.7555506,N,12704.7379914,E,0.0,,190324,8.8,W,D*1D
$PSSN,HRP,075424.50,190324,,,,,,,00,0,,E*2B
$GNRMC,075425.00,A,3737.7555507,N,12704.7379907,E,0.0,,190324,8.8,W,D*1A
$PSSN,HRP,075425.00,190324,,,,,,,00,0,,E*2F
$GNRMC,075425.50,A,3737.7555126,N,12704.7379964,E,0.1,,190324,8.8,W,D*1C
$PSSN,HRP,075425.50,190324,,,,,,,00,0,,E*2A
$GNRMC,075426.00,A,3737.7554825,N,12704.7379867,E,0.3,,190324,8.8,W,D*11
$PSSN,HRP,075426.00,190324,,,,,,,00,0,,E*2C
$GNRMC,075426.50,A,3737.7554594,N,12704.7379825,E,0.3,,190324,8.8,W,D*15
$PSSN,HRP,075426.50,190324,,,,,,,00,0,,E*29
$GNRMC,075427.00,A,3737.7554822,N,12704.7379916,E,0.3,,190324,8.8,W,D*10
$PSSN,HRP,075427.00,190324,,,,,,,00,0,,E*2D
$GNRMC,075427.50,A,3737.7555166,N,12704.7380116,E,0.2,,190324,8.8,W,D*12
$PSSN,HRP,075427.50,190324,,,,,,,00,0,,E*28
$GNRMC,075428.00,A,3737.7555144,N,12704.7380227,E,0.1,,190324,8.8,W,D*1A
$PSSN,HRP,075428.00,190324,,,,,,,00,0,,E*22
$GNRMC,075428.50,A,3737.7555172,N,12704.7380182,E,0.0,,190324,8.8,W,D*17
$PSSN,HRP,075428.50,190324,,,,,,,00,0,,E*27
$GNRMC,075429.00,A,3737.7555172,N,12704.7380147,E,0.0,,190324,8.8,W,D*1A
$PSSN,HRP,075429.00,190324,,,,,,,00,0,,E*23
$GNRMC,075429.50,A,3737.7555155,N,12704.7380088,E,0.0,,190324,8.8,W,D*18
$PSSN,HRP,075429.50,190324,,,,,,,00,0,,E*26
$GNRMC,075430.00,A,3737.7554830,N,12704.7379943,E,0.4,203.3,190324,8.8,W,D*3E
$PSSN,HRP,075430.00,190324,,,,,,,00,0,,E*2B
$GNRMC,075430.50,A,3737.7554536,N,12704.7379871,E,0.1,194.6,190324,8.8,W,D*3D
$PSSN,HRP,075430.50,190324,,,,,,,00,0,,E*2E
$GNRMC,075431.00,A,3737.7554528,N,12704.7379879,E,0.0,,190324,8.8,W,D*1B
$PSSN,HRP,075431.00,190324,,,,,,,00,0,,E*2A
$GNRMC,075431.50,A,3737.7554715,N,12704.7379881,E,0.1,,190324,8.8,W,D*14
$PSSN,HRP,075431.50,190324,,,,,,,00,0,,E*2F
$GNRMC,075432.00,A,3737.7554850,N,12704.7379910,E,0.2,,190324,8.8,W,D*16
$PSSN,HRP,075432.00,190324,,,,,,,00,0,,E*29
$GNRMC,075432.50,A,3737.7554794,N,12704.7379803,E,0.0,,190324,8.8,W,D*15
$PSSN,HRP,075432.50,190324,,,,,,,00,0,,E*2C
$GNRMC,075433.00,A,3737.7554785,N,12704.7379799,E,0.0,,190324,8.8,W,D*1D
$PSSN,HRP,075433.00,190324,,,,,,,00,0,,E*28
$GNRMC,075433.50,A,3737.7554939,N,12704.7379889,E,0.0,,190324,8.8,W,D*1F
$PSSN,HRP,075433.50,190324,,,,,,,00,0,,E*2D
$GNRMC,075434.00,A,3737.7554926,N,12704.7379883,E,0.0,,190324,8.8,W,D*19
$PSSN,HRP,075434.00,190324,,,,,,,00,0,,E*2F
$GNRMC,075434.50,A,3737.7554707,N,12704.7379745,E,0.3,,190324,8.8,W,D*17
$PSSN,HRP,075434.50,190324,,,,,,,00,0,,E*2A
$GNRMC,075435.00,A,3737.7554483,N,12704.7379690,E,0.1,,190324,8.8,W,D*17
$PSSN,HRP,075435.00,190324,,,,,,,00,0,,E*2E
$GNRMC,075435.50,A,3737.7554689,N,12704.7379718,E,0.1,,190324,8.8,W,D*1B
$PSSN,HRP,075435.50,190324,,,,,,,00,0,,E*2B
$GNRMC,075436.00,A,3737.7555217,N,12704.7379840,E,0.4,,190324,8.8,W,D*18
$PSSN,HRP,075436.00,190324,,,,,,,00,0,,E*2D
$GNRMC,075436.50,A,3737.7555551,N,12704.7379920,E,0.1,,190324,8.8,W,D*1A
$PSSN,HRP,075436.50,190324,,,,,,,00,0,,E*28
$GNRMC,075437.00,A,3737.7555731,N,12704.7380021,E,0.0,,190324,8.8,W,D*15
$PSSN,HRP,075437.00,190324,,,,,,,00,0,,E*2C
$GNRMC,075437.50,A,3737.7556152,N,12704.7380341,E,0.0,,190324,8.8,W,D*15
$PSSN,HRP,075437.50,190324,10.760,,-1.102,0.731,,0.976,18,2,8.837,W*08
$GNRMC,075438.00,A,3737.7555940,N,12704.7380248,E,0.3,,190324,8.8,W,D*1C
$PSSN,HRP,075438.00,190324,4.844,,-1.075,0.787,,0.986,18,2,8.837,W*3D
$GNRMC,075438.50,A,3737.7555485,N,12704.7380210,E,0.3,194.7,190324,8.8,W,D*35
$PSSN,HRP,075438.50,190324,355.851,,-0.478,0.739,,0.982,20,2,8.837,W*39
$GNRMC,075439.00,A,3737.7555498,N,12704.7380205,E,0.0,,190324,8.8,W,D*1F
$PSSN,HRP,075439.00,190324,356.139,,0.377,0.719,,0.984,20,2,8.837,W*18
$GNRMC,075439.50,A,3737.7555895,N,12704.7380355,E,0.4,,190324,8.8,W,D*1B
$PSSN,HRP,075439.50,190324,4.574,,-0.112,0.701,,0.976,22,2,8.837,W*3E
$GNRMC,075440.00,A,3737.7556084,N,12704.7380396,E,0.2,,190324,8.8,W,D*12
$PSSN,HRP,075440.00,190324,7.531,,-0.335,0.638,,0.953,23,2,8.837,W*3D
$GNRMC,075440.50,A,3737.7555942,N,12704.7380338,E,0.0,,190324,8.8,W,D*11
$PSSN,HRP,075440.50,190324,8.916,,-1.430,0.661,,1.006,21,2,8.837,W*3B
$GNRMC,075441.00,A,3737.7555682,N,12704.7380232,E,0.0,,190324,8.8,W,D*1D
$PSSN,HRP,075441.00,190324,9.983,,-2.590,0.699,,1.065,21,2,8.837,W*38
$GNRMC,075441.50,A,3737.7555431,N,12704.7380137,E,0.2,,190324,8.8,W,D*16
$PSSN,HRP,075441.50,190324,8.296,,-2.466,0.726,,1.061,19,2,8.837,W*31
$GNRMC,075442.00,A,3737.7554987,N,12704.7379898,E,0.3,197.8,190324,8.8,W,D*33
$PSSN,HRP,075442.00,190324,1.899,,-2.117,0.701,,0.962,18,2,8.837,W*37
$GNRMC,075442.50,A,3737.7554757,N,12704.7379768,E,0.1,197.6,190324,8.8,W,D*39
$PSSN,HRP,075442.50,190324,355.717,,-0.881,0.733,,1.042,18,2,8.837,W*36
$GNRMC,075443.00,A,3737.7554814,N,12704.7379751,E,0.1,,190324,8.8,W,D*18
$PSSN,HRP,075443.00,190324,355.710,,-0.009,0.764,,1.138,18,2,8.837,W*33
$GNRMC,075443.50,A,3737.7555142,N,12704.7379811,E,0.3,,190324,8.8,W,D*1F
$PSSN,HRP,075443.50,190324,2.356,,1.362,0.810,,1.237,21,2,8.837,W*19
$GNRMC,075444.00,A,3737.7555377,N,12704.7379923,E,0.2,,190324,8.8,W,D*18
$PSSN,HRP,075444.00,190324,6.048,,2.541,0.773,,1.209,20,2,8.837,W*11
$GNRMC,075444.50,A,3737.7555356,N,12704.7379813,E,0.0,,190324,8.8,W,D*1E
$PSSN,HRP,075444.50,190324,7.393,,-0.141,0.763,,1.264,21,2,8.837,W*30
$GNRMC,075445.00,A,3737.7555331,N,12704.7379730,E,0.0,,190324,8.8,W,D*15
$PSSN,HRP,075445.00,190324,8.803,,-2.903,0.745,,1.295,20,2,8.837,W*3E
$GNRMC,075445.50,A,3737.7555434,N,12704.7379692,E,0.0,,190324,8.8,W,D*1B
$PSSN,HRP,075445.50,190324,9.112,,-3.131,0.757,,1.271,20,2,8.837,W*32
$GNRMC,075446.00,A,3737.7555272,N,12704.7379529,E,0.3,203.4,190324,8.8,W,D*32
$PSSN,HRP,075446.00,190324,2.078,,-3.432,0.763,,1.173,20,2,8.837,W*32
$GNRMC,075446.50,A,3737.7555053,N,12704.7379409,E,0.2,,190324,8.8,W,D*1F
$PSSN,HRP,075446.50,190324,354.953,,-0.234,0.778,,1.191,18,2,8.837,W*39
$GNRMC,075447.00,A,3737.7555102,N,12704.7379371,E,0.1,,190324,8.8,W,D*15
$PSSN,HRP,075447.00,190324,354.206,,2.643,0.768,,1.226,18,2,8.837,W*13
$GNRMC,075447.50,A,3737.7555417,N,12704.7379327,E,0.2,,190324,8.8,W,D*11
$PSSN,HRP,075447.50,190324,1.199,,2.572,0.793,,1.246,19,2,8.837,W*12
$GNRMC,075448.00,A,3737.7555610,N,12704.7379199,E,0.2,,190324,8.8,W,D*19
$PSSN,HRP,075448.00,190324,7.264,,2.351,0.813,,1.247,19,2,8.837,W*1E
$GNRMC,075448.50,A,3737.7555374,N,12704.7378936,E,0.1,,190324,8.8,W,D*14
$PSSN,HRP,075448.50,190324,8.149,,1.453,0.785,,1.167,18,2,8.837,W*1E
$GNRMC,075449.00,A,3737.7555385,N,12704.7378923,E,0.0,,190324,8.8,W,D*1B
$PSSN,HRP,075449.00,190324,8.911,,0.661,0.763,,1.106,18,2,8.837,W*12
$GNRMC,075449.50,A,3737.7555332,N,12704.7378554,E,0.4,,190324,8.8,W,D*1A
$PSSN,HRP,075449.50,190324,5.915,,0.384,0.841,,1.176,16,2,8.837,W*16
$GNRMC,075450.00,A,3737.7554967,N,12704.7378430,E,0.2,199.5,190324,8.8,W,D*33
$PSSN,HRP,075450.00,190324,358.026,,0.610,0.872,,1.279,17,2,8.837,W*1C
$GNRMC,075450.50,A,3737.7555022,N,12704.7378271,E,0.1,,190324,8.8,W,D*15
$PSSN,HRP,075450.50,190324,354.267,,0.468,0.914,,1.336,18,2,8.837,W*1B
$GNRMC,075451.00,A,3737.7555215,N,12704.7378330,E,0.2,,190324,8.8,W,D*10
$PSSN,HRP,075451.00,190324,358.447,,-0.030,0.896,,1.266,18,2,8.837,W*3C
$GNRMC,075451.50,A,3737.7555290,N,12704.7378583,E,0.4,,190324,8.8,W,D*10
$PSSN,HRP,075451.50,190324,3.782,,-1.407,0.825,,1.060,18,2,8.837,W*33
$GNRMC,075452.00,A,3737.7555448,N,12704.7378562,E,0.1,,190324,8.8,W,D*1F
$PSSN,HRP,075452.00,190324,8.796,,-2.229,0.751,,0.934,16,2,8.837,W*39
$GNRMC,075452.50,A,3737.7555339,N,12704.7378817,E,0.0,,190324,8.8,W,D*15
$PSSN,HRP,075452.50,190324,9.351,,-2.036,0.787,,0.993,18,2,8.837,W*36
$GNRMC,075453.00,A,3737.7555301,N,12704.7378835,E,0.1,,190324,8.8,W,D*1B
$PSSN,HRP,075453.00,190324,8.912,,-1.867,0.795,,1.106,19,2,8.837,W*36
$GNRMC,075453.50,A,3737.7554826,N,12704.7378872,E,0.3,194.0,190324,8.8,W,D*32
$PSSN,HRP,075453.50,190324,1.014,,-1.811,0.857,,1.144,18,2,8.837,W*32
$GNRMC,075454.00,A,3737.7554640,N,12704.7378859,E,0.0,,190324,8.8,W,D*16
$PSSN,HRP,075454.00,190324,356.947,,-1.371,0.724,,1.031,19,2,8.837,W*3A
$GNRMC,075454.50,A,3737.7554899,N,12704.7378947,E,0.3,,190324,8.8,W,D*14
$PSSN,HRP,075454.50,190324,359.166,,-1.130,0.673,,0.871,19,2,8.837,W*32
$GNRMC,075455.00,A,3737.7555265,N,12704.7379047,E,0.0,,190324,8.8,W,D*13
$PSSN,HRP,075455.00,190324,2.153,,-0.985,0.627,,0.774,19,2,8.837,W*31
$GNRMC,075455.50,A,3737.7555361,N,12704.7379093,E,0.1,,190324,8.8,W,D*1B
$PSSN,HRP,075455.50,190324,8.136,,-1.371,0.642,,0.792,19,2,8.837,W*36
$GNRMC,075456.00,A,3737.7555262,N,12704.7379033,E,0.0,,190324,8.8,W,D*14
$PSSN,HRP,075456.00,190324,8.839,,-1.784,0.646,,0.832,19,2,8.837,W*39
$GNRMC,075456.50,A,3737.7555181,N,12704.7378970,E,0.0,,190324,8.8,W,D*10
$PSSN,HRP,075456.50,190324,9.125,,-1.784,0.650,,0.846,19,2,8.837,W*3D
$GNRMC,075457.00,A,3737.7554853,N,12704.7378830,E,0.3,,190324,8.8,W,D*15
$PSSN,HRP,075457.00,190324,2.738,,-1.551,0.653,,0.809,19,2,8.837,W*3A
$GNRMC,075457.50,A,3737.7554500,N,12704.7378739,E,0.2,188.3,190324,8.8,W,D*30
$PSSN,HRP,075457.50,190324,355.824,,-1.447,0.683,,0.912,17,2,8.837,W*32
$GNRMC,075458.00,A,3737.7554443,N,12704.7378677,E,0.0,,190324,8.8,W,D*19
$PSSN,HRP,075458.00,190324,355.859,,-1.268,0.702,,1.036,17,2,8.837,W*3F
$GNRMC,075458.50,A,3737.7554683,N,12704.7378630,E,0.2,,190324,8.8,W,D*13
$PSSN,HRP,075458.50,190324,0.936,,-0.687,0.775,,1.113,21,2,8.837,W*36
$GNRMC,075459.00,A,3737.7554901,N,12704.7378634,E,0.0,,190324,8.8,W,D*14
$PSSN,HRP,075459.00,190324,7.693,,-0.361,0.728,,1.009,20,2,8.837,W*3B
$GNRMC,075459.50,A,3737.7554521,N,12704.7378488,E,0.0,,190324,8.8,W,D*1A
$PSSN,HRP,075459.50,190324,8.272,,-0.904,0.778,,1.098,19,2,8.837,W*34
$GNRMC,075500.00,A,3737.7554527,N,12704.7378495,E,0.0,,190324,8.8,W,D*18
$PSSN,HRP,075500.00,190324,8.757,,-0.990,0.814,,1.218,19,2,8.837,W*3C
$GNRMC,075500.50,A,3737.7554548,N,12704.7378465,E,0.1,,190324,8.8,W,D*1A
$PSSN,HRP,075500.50,190324,8.600,,-1.295,0.831,,1.208,18,2,8.837,W*32
$GNRMC,075501.00,A,3737.7554283,N,12704.7378324,E,0.3,,190324,8.8,W,D*1E
$PSSN,HRP,075501.00,190324,2.126,,-0.645,0.738,,1.016,19,2,8.837,W*3D
$GNRMC,075501.50,A,3737.7554069,N,12704.7378341,E,0.2,,190324,8.8,W,D*1F
$PSSN,HRP,075501.50,190324,357.099,,-0.072,0.663,,0.864,19,2,8.837,W*3F
$GNRMC,075502.00,A,3737.7554197,N,12704.7378410,E,0.2,,190324,8.8,W,D*1A
$PSSN,HRP,075502.00,190324,359.798,,0.535,0.629,,0.791,19,2,8.837,W*11
$GNRMC,075502.50,A,3737.7554540,N,12704.7378500,E,0.1,,190324,8.8,W,D*12
$PSSN,HRP,075502.50,190324,6.625,,-0.166,0.627,,0.805,20,2,8.837,W*33
$GNRMC,075503.00,A,3737.7554729,N,12704.7378551,E,0.1,,190324,8.8,W,D*1F
$PSSN,HRP,075503.00,190324,8.285,,-0.852,0.625,,0.830,20,2,8.837,W*3D
$GNRMC,075503.50,A,3737.7554690,N,12704.7378480,E,0.0,,190324,8.8,W,D*15
$PSSN,HRP,075503.50,190324,8.963,,-1.522,0.622,,0.836,21,2,8.837,W*30
$GNRMC,075504.00,A,3737.7554627,N,12704.7378372,E,0.0,,190324,8.8,W,D*11
$PSSN,HRP,075504.00,190324,9.654,,-2.361,0.599,,0.798,20,2,8.837,W*33
$GNRMC,075504.50,A,3737.7554354,N,12704.7378204,E,0.3,,190324,8.8,W,D*16
$PSSN,HRP,075504.50,190324,2.908,,-1.860,0.624,,0.746,19,2,8.837,W*3E
$GNRMC,075505.00,A,3737.7554011,N,12704.7378035,E,0.3,194.8,190324,8.8,W,D*3A
$PSSN,HRP,075505.00,190324,355.980,,-1.544,0.614,,0.715,19,2,8.837,W*35
$GNRMC,075505.50,A,3737.7554073,N,12704.7377984,E,0.0,,190324,8.8,W,D*1E
$PSSN,HRP,075505.50,190324,354.628,,-1.192,0.618,,0.737,20,2,8.837,W*35
$GNRMC,075506.00,A,3737.7554403,N,12704.7378064,E,0.2,,190324,8.8,W,D*11
$PSSN,HRP,075506.00,190324,358.446,,-1.148,0.645,,0.793,20,2,8.837,W*34
$GNRMC,075506.50,A,3737.7554541,N,12704.7378131,E,0.1,,190324,8.8,W,D*11
$PSSN,HRP,075506.50,190324,4.925,,-1.576,0.660,,0.807,20,2,8.837,W*3F
$GNRMC,075507.00,A,3737.7554506,N,12704.7378130,E,0.1,,190324,8.8,W,D*17
$PSSN,HRP,075507.00,190324,6.512,,-1.548,0.642,,0.781,20,2,8.837,W*3D
$GNRMC,075507.50,A,3737.7554481,N,12704.7378147,E,0.0,,190324,8.8,W,D*1D
$PSSN,HRP,075507.50,190324,7.337,,-2.991,0.659,,0.791,18,2,8.837,W*33
$GNRMC,075508.00,A,3737.7554377,N,12704.7378134,E,0.1,,190324,8.8,W,D*1C
