$GNRMC,082706.00,A,3737.7629809,N,12704.7283571,E,0.0,,270324,8.8,W,D*1F
$PSSN,HRP,082706.00,270324,100.905,,1.068,0.142,,0.299,34,2,8.838,W*1D
$GNRMC,082706.50,A,3737.7629809,N,12704.7283570,E,0.0,,270324,8.8,W,D*1B
$PSSN,HRP,082706.50,270324,100.946,,1.226,0.142,,0.299,34,2,8.838,W*17
$GNRMC,082707.00,A,3737.7629795,N,12704.7283570,E,0.0,,270324,8.8,W,D*15
$PSSN,HRP,082707.00,270324,100.914,,1.183,0.142,,0.299,34,2,8.838,W*18
$GNRMC,082707.50,A,3737.7629794,N,12704.7283571,E,0.0,,270324,8.8,W,D*10
$PSSN,HRP,082707.50,270324,100.906,,1.161,0.142,,0.299,34,2,8.838,W*12
$GNRMC,082708.00,A,3737.7629799,N,12704.7283571,E,0.0,,270324,8.8,W,D*17
$PSSN,HRP,082708.00,270324,100.910,,0.944,0.141,,0.298,34,2,8.838,W*13
$GNRMC,082708.50,A,3737.7629803,N,12704.7283566,E,0.0,,270324,8.8,W,D*18
$PSSN,HRP,082708.50,270324,100.916,,1.109,0.141,,0.298,34,2,8.838,W*10
$GNRMC,082709.00,A,3737.7629802,N,12704.7283566,E,0.0,,270324,8.8,W,D*1D
$PSSN,HRP,082709.00,270324,100.907,,1.159,0.141,,0.298,34,2,8.838,W*11
$GNRMC,082709.50,A,3737.7629803,N,12704.7283571,E,0.0,,270324,8.8,W,D*1F
$PSSN,HRP,082709.50,270324,100.925,,1.327,0.142,,0.298,34,2,8.838,W*1C
$GNRMC,082710.00,A,3737.7629805,N,12704.7283577,E,0.0,,270324,8.8,W,D*12
$PSSN,HRP,082710.00,270324,100.928,,0.982,0.141,,0.297,34,2,8.838,W*14
$GNRMC,082710.50,A,3737.7629808,N,12704.7283580,E,0.0,,270324,8.8,W,D*12
$PSSN,HRP,082710.50,270324,100.954,,0.924,0.141,,0.298,34,2,8.838,W*19
$GNRMC,082711.00,A,3737.7629798,N,12704.7283591,E,0.0,,270324,8.8,W,D*10
$PSSN,HRP,082711.00,270324,100.951,,1.048,0.142,,0.299,34,2,8.838,W*18
$GNRMC,082711.50,A,3737.7629789,N,12704.7283595,E,0.0,,270324,8.8,W,D*11
$PSSN,HRP,082711.50,270324,100.956,,1.150,0.142,,0.300,34,2,8.838,W*13
$GNRMC,082712.00,A,3737.7629772,N,12704.7283604,E,0.0,,270324,8.8,W,D*18
$PSSN,HRP,082712.00,270324,100.950,,1.152,0.142,,0.298,34,2,8.838,W*11
$GNRMC,082712.50,A,3737.7629769,N,12704.7283603,E,0.0,,270324,8.8,W,D*10
$PSSN,HRP,082712.50,270324,100.942,,1.045,0.142,,0.298,34,2,8.838,W*10
$GNRMC,082713.00,A,3737.7629771,N,12704.7283601,E,0.0,,270324,8.8,W,D*1F
$PSSN,HRP,082713.00,270324,100.959,,0.954,0.142,,0.299,34,2,8.838,W*17
$GNRMC,082713.50,A,3737.7629788,N,12704.7283587,E,0.0,,270324,8.8,W,D*11
$PSSN,HRP,082713.50,270324,100.948,,1.154,0.142,,0.299,34,2,8.838,W*1B
$GNRMC,082714.00,A,3737.7629808,N,12704.7283569,E,0.0,,270324,8.8,W,D*14
$PSSN,HRP,082714.00,270324,100.885,,1.392,0.142,,0.299,34,2,8.838,W*11
$GNRMC,082714.50,A,3737.7629813,N,12704.7283564,E,0.0,,270324,8.8,W,D*16
$PSSN,HRP,082714.50,270324,100.959,,1.229,0.141,,0.298,34,2,8.838,W*17
$GNRMC,082715.00,A,3737.7629810,N,12704.7283564,E,0.0,,270324,8.8,W,D*11
$PSSN,HRP,082715.00,270324,100.902,,1.061,0.141,,0.298,34,2,8.838,W*13
$GNRMC,082715.50,A,3737.7629816,N,12704.7283577,E,0.0,,270324,8.8,W,D*10
$PSSN,HRP,082715.50,270324,100.944,,1.195,0.141,,0.298,34,2,8.838,W*1E
$GNRMC,082716.00,A,3737.7629818,N,12704.7283596,E,0.0,,270324,8.8,W,D*17
$PSSN,HRP,082716.00,270324,100.937,,1.195,0.141,,0.298,34,2,8.838,W*1C
$GNRMC,082716.50,A,3737.7629832,N,12704.7283590,E,0.0,,270324,8.8,W,D*1C
$PSSN,HRP,082716.50,270324,100.960,,1.340,0.141,,0.298,34,2,8.838,W*11
$GNRMC,082717.00,A,3737.7629835,N,12704.7283586,E,0.0,,270324,8.8,W,D*18
$PSSN,HRP,082717.00,270324,100.955,,1.268,0.141,,0.298,34,2,8.838,W*18
$GNRMC,082717.50,A,3737.7629835,N,12704.7283591,E,0.0,,270324,8.8,W,D*1B
$PSSN,HRP,082717.50,270324,100.924,,1.351,0.142,,0.299,34,2,8.838,W*12
$GNRMC,082718.00,A,3737.7629832,N,12704.7283599,E,0.0,,270324,8.8,W,D*1E
$PSSN,HRP,082718.00,270324,100.922,,1.297,0.142,,0.298,34,2,8.838,W*14
$GNRMC,082718.50,A,3737.7629836,N,12704.7283590,E,0.0,,270324,8.8,W,D*16
$PSSN,HRP,082718.50,270324,100.979,,1.145,0.142,,0.299,34,2,8.838,W*12
$GNRMC,082719.00,A,3737.7629830,N,12704.7283578,E,0.0,,270324,8.8,W,D*12
$PSSN,HRP,082719.00,270324,100.935,,1.162,0.142,,0.299,34,2,8.838,W*1B
$GNRMC,082719.50,A,3737.7629837,N,12704.7283589,E,0.0,,270324,8.8,W,D*1E
$PSSN,HRP,082719.50,270324,100.971,,1.040,0.142,,0.299,34,2,8.838,W*1F
$GNRMC,082720.00,A,3737.7629840,N,12704.7283601,E,0.0,,270324,8.8,W,D*12
$PSSN,HRP,082720.00,270324,100.941,,0.998,0.142,,0.298,34,2,8.838,W*1F
$GNRMC,082720.50,A,3737.7629847,N,12704.7283597,E,0.0,,270324,8.8,W,D*1C
$PSSN,HRP,082720.50,270324,100.944,,0.904,0.142,,0.298,34,2,8.838,W*1A
$GNRMC,082721.00,A,3737.7629853,N,12704.7283593,E,0.0,,270324,8.8,W,D*19
$PSSN,HRP,082721.00,270324,100.936,,1.157,0.142,,0.299,34,2,8.838,W*15
$GNRMC,082721.50,A,3737.7629853,N,12704.7283581,E,0.0,,270324,8.8,W,D*1F
$PSSN,HRP,082721.50,270324,100.937,,0.955,0.142,,0.299,34,2,8.838,W*1A
$GNRMC,082722.00,A,3737.7629844,N,12704.7283573,E,0.0,,270324,8.8,W,D*12
$PSSN,HRP,082722.00,270324,100.902,,1.243,0.142,,0.299,34,2,8.838,W*17
$GNRMC,082722.50,A,3737.7629845,N,12704.7283572,E,0.0,,270324,8.8,W,D*17
$PSSN,HRP,082722.50,270324,100.951,,0.875,0.142,,0.298,34,2,8.838,W*1B
$GNRMC,082723.00,A,3737.7629839,N,12704.7283568,E,0.0,,270324,8.8,W,D*13
$PSSN,HRP,082723.00,270324,100.945,,0.864,0.142,,0.299,34,2,8.838,W*1B
$GNRMC,082723.50,A,3737.7629843,N,12704.7283588,E,0.0,,270324,8.8,W,D*15
$PSSN,HRP,082723.50,270324,100.928,,1.051,0.142,,0.299,34,2,8.838,W*1A
$GNRMC,082724.00,A,3737.7629847,N,12704.7283601,E,0.0,,270324,8.8,W,D*11
$PSSN,HRP,082724.00,270324,100.925,,0.855,0.141,,0.297,34,2,8.838,W*15
$GNRMC,082724.50,A,3737.7629849,N,12704.7283605,E,0.0,,270324,8.8,W,D*1E
$PSSN,HRP,082724.50,270324,100.931,,1.181,0.141,,0.298,34,2,8.838,W*1B
$GNRMC,082725.00,A,3737.7629850,N,12704.7283607,E,0.0,,270324,8.8,W,D*10
$PSSN,HRP,082725.00,270324,100.892,,1.196,0.141,,0.298,34,2,8.838,W*11
$GNRMC,082725.50,A,3737.7629848,N,12704.7283612,E,0.0,,270324,8.8,W,D*18
$PSSN,HRP,082725.50,270324,100.884,,1.150,0.142,,0.298,34,2,8.838,W*1A
$GNRMC,082726.00,A,3737.7629848,N,12704.7283611,E,0.0,,270324,8.8,W,D*1D
$PSSN,HRP,082726.00,270324,100.926,,1.018,0.142,,0.298,34,2,8.838,W*18
$GNRMC,082726.50,A,3737.7629857,N,12704.7283619,E,0.0,,270324,8.8,W,D*1E
$PSSN,HRP,082726.50,270324,100.916,,0.847,0.142,,0.298,34,2,8.838,W*1D
$GNRMC,082727.00,A,3737.7629869,N,12704.7283625,E,0.0,,270324,8.8,W,D*18
$PSSN,HRP,082727.00,270324,100.903,,1.093,0.142,,0.298,34,2,8.838,W*1D
$GNRMC,082727.50,A,3737.7629866,N,12704.7283614,E,0.0,,270324,8.8,W,D*10
$PSSN,HRP,082727.50,270324,100.902,,1.257,0.142,,0.299,34,2,8.838,W*12
$GNRMC,082728.00,A,3737.7629859,N,12704.7283601,E,0.0,,270324,8.8,W,D*12
$PSSN,HRP,082728.00,270324,100.889,,1.064,0.142,,0.299,34,2,8.838,W*18
$GNRMC,082728.50,A,3737.7629859,N,12704.7283588,E,0.0,,270324,8.8,W,D*15
$PSSN,HRP,082728.50,270324,100.916,,1.133,0.142,,0.299,34,2,8.838,W*19
$GNRMC,082729.00,A,3737.7629856,N,12704.7283572,E,0.0,,270324,8.8,W,D*1B
$PSSN,HRP,082729.00,270324,100.900,,1.166,0.141,,0.298,34,2,8.838,W*18
$GNRMC,082729.50,A,3737.7629854,N,12704.7283575,E,0.0,,270324,8.8,W,D*1B
$PSSN,HRP,082729.50,270324,100.873,,1.212,0.142,,0.298,34,2,8.838,W*1B
$GNRMC,082730.00,A,3737.7629852,N,12704.7283584,E,0.0,,270324,8.8,W,D*1E
$PSSN,HRP,082730.00,270324,100.900,,1.073,0.142,,0.298,34,2,8.838,W*16
$GNRMC,082730.50,A,3737.7629856,N,12704.7283598,E,0.0,,270324,8.8,W,D*12
$PSSN,HRP,082730.50,270324,100.899,,1.097,0.142,,0.298,34,2,8.838,W*18
$GNRMC,082731.00,A,3737.7629858,N,12704.7283615,E,0.0,,270324,8.8,W,D*1E
$PSSN,HRP,082731.00,270324,100.902,,0.886,0.141,,0.297,34,2,8.838,W*1A
$GNRMC,082731.50,A,3737.7629855,N,12704.7283608,E,0.0,,270324,8.8,W,D*1A
$PSSN,HRP,082731.50,270324,100.926,,0.891,0.141,,0.297,34,2,8.838,W*1F
$GNRMC,082732.00,A,3737.7629853,N,12704.7283602,E,0.0,,270324,8.8,W,D*10
$PSSN,HRP,082732.00,270324,100.959,,0.993,0.142,,0.298,34,2,8.838,W*1E
$GNRMC,082732.50,A,3737.7629874,N,12704.7283595,E,0.0,,270324,8.8,W,D*1D
$PSSN,HRP,082732.50,270324,100.934,,1.300,0.142,,0.298,34,2,8.838,W*11
$GNRMC,082733.00,A,3737.7629890,N,12704.7283592,E,0.0,,270324,8.8,W,D*14
$PSSN,HRP,082733.00,270324,100.908,,1.328,0.142,,0.298,34,2,8.838,W*10
$GNRMC,082733.50,A,3737.7629879,N,12704.7283607,E,0.0,,270324,8.8,W,D*19
$PSSN,HRP,082733.50,270324,100.944,,1.183,0.141,,0.298,34,2,8.838,W*1D
$GNRMC,082734.00,A,3737.7629868,N,12704.7283619,E,0.0,,270324,8.8,W,D*14
$PSSN,HRP,082734.00,270324,100.949,,1.237,0.141,,0.297,34,2,8.838,W*11
$GNRMC,082734.50,A,3737.7629869,N,12704.7283612,E,0.0,,270324,8.8,W,D*1B
$PSSN,HRP,082734.50,270324,100.922,,0.982,0.141,,0.297,34,2,8.838,W*1D
$GNRMC,082735.00,A,3737.7629869,N,12704.7283608,E,0.0,,270324,8.8,W,D*14
$PSSN,HRP,082735.00,270324,100.902,,0.899,0.141,,0.297,34,2,8.838,W*10
$GNRMC,082735.50,A,3737.7629858,N,12704.7283604,E,0.0,,270324,8.8,W,D*1F
$PSSN,HRP,082735.50,270324,100.885,,1.154,0.141,,0.297,34,2,8.838,W*12
$GNRMC,082736.00,A,3737.7629849,N,12704.7283601,E,0.0,,270324,8.8,W,D*1C
$PSSN,HRP,082736.00,270324,100.863,,1.282,0.141,,0.297,34,2,8.838,W*14
$GNRMC,082736.50,A,3737.7629861,N,12704.7283601,E,0.0,,270324,8.8,W,D*13
$PSSN,HRP,082736.50,270324,100.877,,1.079,0.141,,0.297,34,2,8.838,W*12
$GNRMC,082737.00,A,3737.7629873,N,12704.7283602,E,0.0,,270324,8.8,W,D*17
$PSSN,HRP,082737.00,270324,100.908,,0.937,0.141,,0.296,34,2,8.838,W*1C
$GNRMC,082737.50,A,3737.7629875,N,12704.7283592,E,0.0,,270324,8.8,W,D*1E
$PSSN,HRP,082737.50,270324,100.938,,1.020,0.141,,0.297,34,2,8.838,W*15
$GNRMC,082738.00,A,3737.7629880,N,12704.7283584,E,0.0,,270324,8.8,W,D*19
$PSSN,HRP,082738.00,270324,100.955,,1.062,0.141,,0.298,34,2,8.838,W*1D
$GNRMC,082738.50,A,3737.7629873,N,12704.7283611,E,0.0,,270324,8.8,W,D*1F
$PSSN,HRP,082738.50,270324,100.925,,1.146,0.141,,0.298,34,2,8.838,W*18
$GNRMC,082739.00,A,3737.7629864,N,12704.7283635,E,0.0,,270324,8.8,W,D*1B
$PSSN,HRP,082739.00,270324,100.894,,1.335,0.141,,0.297,34,2,8.838,W*1E
$GNRMC,082739.50,A,3737.7629874,N,12704.7283621,E,0.0,,270324,8.8,W,D*1A
$PSSN,HRP,082739.50,270324,100.968,,1.376,0.141,,0.298,34,2,8.838,W*11
$GNRMC,082740.00,A,3737.7629882,N,12704.7283594,E,0.0,,270324,8.8,W,D*15
$PSSN,HRP,082740.00,270324,100.992,,1.161,0.141,,0.298,34,2,8.838,W*1B
$GNRMC,082740.50,A,3737.7629882,N,12704.7283609,E,0.0,,270324,8.8,W,D*17
$PSSN,HRP,082740.50,270324,100.988,,1.022,0.142,,0.298,34,2,8.838,W*10
$GNRMC,082741.00,A,3737.7629878,N,12704.7283620,E,0.0,,270324,8.8,W,D*1D
$PSSN,HRP,082741.00,270324,100.928,,1.089,0.141,,0.298,34,2,8.838,W*1C
$GNRMC,082741.50,A,3737.7629882,N,12704.7283608,E,0.0,,270324,8.8,W,D*17
$PSSN,HRP,082741.50,270324,100.986,,1.119,0.141,,0.298,34,2,8.838,W*15
$GNRMC,082742.00,A,3737.7629879,N,12704.7283587,E,0.0,,270324,8.8,W,D*11
$PSSN,HRP,082742.00,270324,100.937,,1.227,0.141,,0.298,34,2,8.838,W*17
$GNRMC,082742.50,A,3737.7629872,N,12704.7283597,E,0.0,,270324,8.8,W,D*1E
$PSSN,HRP,082742.50,270324,100.939,,1.102,0.141,,0.298,34,2,8.838,W*18
$GNRMC,082743.00,A,3737.7629864,N,12704.7283599,E,0.0,,270324,8.8,W,D*13
$PSSN,HRP,082743.00,270324,100.938,,0.955,0.141,,0.298,34,2,8.838,W*16
$GNRMC,082743.50,A,3737.7629869,N,12704.7283597,E,0.0,,270324,8.8,W,D*15
$PSSN,HRP,082743.50,270324,100.942,,0.969,0.141,,0.298,34,2,8.838,W*11
$GNRMC,082744.00,A,3737.7629871,N,12704.7283602,E,0.0,,270324,8.8,W,D*11
$PSSN,HRP,082744.00,270324,100.910,,0.983,0.142,,0.298,34,2,8.838,W*13
$GNRMC,082744.50,A,3737.7629873,N,12704.7283608,E,0.0,,270324,8.8,W,D*1C
$PSSN,HRP,082744.50,270324,100.945,,0.987,0.144,,0.298,34,2,8.838,W*14
$GNRMC,082745.00,A,3737.7629868,N,12704.7283618,E,0.0,,270324,8.8,W,D*13
$PSSN,HRP,082745.00,270324,100.807,,1.144,0.142,,0.298,34,2,8.838,W*17
$GNRMC,082745.50,A,3737.7629889,N,12704.7283628,E,0.0,,270324,8.8,W,D*1A
$PSSN,HRP,082745.50,270324,100.883,,1.215,0.153,,0.317,33,2,8.838,W*18
$GNRMC,082746.00,A,3737.7629896,N,12704.7283615,E,0.0,,270324,8.8,W,D*1C
$PSSN,HRP,082746.00,270324,100.765,,1.588,0.165,,0.339,32,2,8.838,W*12
$GNRMC,082746.50,A,3737.7629793,N,12704.7283459,E,0.1,,270324,8.8,W,D*18
$PSSN,HRP,082746.50,270324,100.670,,1.472,0.189,,0.388,34,2,8.838,W*18
$GNRMC,082747.00,A,3737.7629627,N,12704.7283356,E,0.0,,270324,8.8,W,D*1B
$PSSN,HRP,082747.00,270324,101.182,,0.785,0.194,,0.412,34,2,8.838,W*15
$GNRMC,082747.50,A,3737.7629341,N,12704.7283213,E,0.8,209.9,270324,8.8,W,D*3F
$PSSN,HRP,082747.50,270324,107.409,,0.330,0.248,,0.447,34,2,8.838,W*18
$GNRMC,082748.00,A,3737.7628149,N,12704.7282363,E,1.3,209.3,270324,8.8,W,D*39
$PSSN,HRP,082748.00,270324,110.484,,0.138,0.230,,0.444,34,2,8.838,W*17
$GNRMC,082748.50,A,3737.7626635,N,12704.7281256,E,1.4,210.0,270324,8.8,W,D*36
$PSSN,HRP,082748.50,270324,110.301,,-0.385,0.221,,0.387,34,2,8.838,W*39
$GNRMC,082749.00,A,3737.7625172,N,12704.7280310,E,1.2,207.7,270324,8.8,W,D*30
$PSSN,HRP,082749.00,270324,112.348,,-0.529,0.188,,0.312,34,2,8.838,W*3E
$GNRMC,082749.50,A,3737.7623763,N,12704.7279387,E,1.2,207.1,270324,8.8,W,D*3B
$PSSN,HRP,082749.50,270324,114.781,,0.009,0.185,,0.309,34,2,8.838,W*11
$GNRMC,082750.00,A,3737.7621982,N,12704.7278229,E,1.7,206.2,270324,8.8,W,D*36
$PSSN,HRP,082750.00,270324,114.440,,0.281,0.184,,0.310,34,2,8.838,W*19
$GNRMC,082750.50,A,3737.7619971,N,12704.7277132,E,1.5,200.5,270324,8.8,W,D*31
$PSSN,HRP,082750.50,270324,112.923,,0.715,0.187,,0.310,34,2,8.838,W*19
$GNRMC,082751.00,A,3737.7618201,N,12704.7276194,E,1.2,203.7,270324,8.8,W,D*33
$PSSN,HRP,082751.00,270324,115.654,,1.110,0.185,,0.310,34,2,8.838,W*15
$GNRMC,082751.50,A,3737.7616404,N,12704.7275023,E,1.6,202.9,270324,8.8,W,D*3E
$PSSN,HRP,082751.50,270324,117.126,,0.848,0.183,,0.309,34,2,8.838,W*1B
$GNRMC,082752.00,A,3737.7614387,N,12704.7273718,E,1.7,204.2,270324,8.8,W,D*33
$PSSN,HRP,082752.00,270324,116.111,,0.332,0.181,,0.307,34,2,8.838,W*12
$GNRMC,082752.50,A,3737.7612496,N,12704.7272501,E,1.7,209.3,270324,8.8,W,D*30
$PSSN,HRP,082752.50,270324,116.408,,1.313,0.181,,0.309,34,2,8.838,W*16
$GNRMC,082753.00,A,3737.7610687,N,12704.7271220,E,1.7,208.9,270324,8.8,W,D*38
$PSSN,HRP,082753.00,270324,114.069,,0.941,0.184,,0.310,34,2,8.838,W*12
$GNRMC,082753.50,A,3737.7609299,N,12704.7270244,E,0.7,205.2,270324,8.8,W,D*3A
$PSSN,HRP,082753.50,270324,113.000,,0.449,0.171,,0.306,34,2,8.838,W*17
$GNRMC,082754.00,A,3737.7608866,N,12704.7269840,E,0.1,205.2,270324,8.8,W,D*33
$PSSN,HRP,082754.00,270324,112.977,,0.493,0.145,,0.300,34,2,8.838,W*1B
$GNRMC,082754.50,A,3737.7609045,N,12704.7269813,E,0.0,205.5,270324,8.8,W,D*3E
$PSSN,HRP,082754.50,270324,113.286,,0.613,0.143,,0.300,34,2,8.838,W*16
$GNRMC,082755.00,A,3737.7609087,N,12704.7269755,E,0.1,,270324,8.8,W,D*14
$PSSN,HRP,082755.00,270324,113.479,,0.465,0.147,,0.302,33,2,8.838,W*16
$GNRMC,082755.50,A,3737.7609539,N,12704.7270117,E,0.6,36.4,270324,8.8,W,D*01
$PSSN,HRP,082755.50,270324,114.279,,0.250,0.163,,0.303,34,2,8.838,W*12
$GNRMC,082756.00,A,3737.7610772,N,12704.7271083,E,1.0,31.5,270324,8.8,W,D*0E
$PSSN,HRP,082756.00,270324,120.915,,0.574,0.169,,0.302,34,2,8.838,W*18
$GNRMC,082756.50,A,3737.7612020,N,12704.7272351,E,1.2,37.9,270324,8.8,W,D*0E
$PSSN,HRP,082756.50,270324,124.163,,0.575,0.173,,0.305,34,2,8.838,W*1D
$GNRMC,082757.00,A,3737.7613226,N,12704.7273465,E,1.1,37.6,270324,8.8,W,D*02
$PSSN,HRP,082757.00,270324,119.192,,0.506,0.175,,0.305,34,2,8.838,W*1B
$GNRMC,082757.50,A,3737.7614671,N,12704.7274705,E,1.5,35.7,270324,8.8,W,D*03
$PSSN,HRP,082757.50,270324,113.214,,0.478,0.180,,0.306,34,2,8.838,W*18
$GNRMC,082758.00,A,3737.7616259,N,12704.7275935,E,1.1,35.6,270324,8.8,W,D*0C
$PSSN,HRP,082758.00,270324,110.195,,0.562,0.180,,0.306,34,2,8.838,W*11
$GNRMC,082758.50,A,3737.7617743,N,12704.7276989,E,1.5,30.6,270324,8.8,W,D*03
$PSSN,HRP,082758.50,270324,104.687,,0.622,0.183,,0.306,34,2,8.838,W*11
$GNRMC,082759.00,A,3737.7619453,N,12704.7278104,E,1.6,27.5,270324,8.8,W,D*0E
$PSSN,HRP,082759.00,270324,101.893,,0.061,0.183,,0.306,34,2,8.838,W*1A
$GNRMC,082759.50,A,3737.7621325,N,12704.7279150,E,1.6,22.6,270324,8.8,W,D*00
$PSSN,HRP,082759.50,270324,99.795,,0.320,0.183,,0.307,34,2,8.838,W*21
$GNRMC,082800.00,A,3737.7623392,N,12704.7280218,E,1.6,22.8,270324,8.8,W,D*0F
$PSSN,HRP,082800.00,270324,100.426,,-0.036,0.183,,0.307,34,2,8.838,W*34
$GNRMC,082800.50,A,3737.7625277,N,12704.7281197,E,1.3,17.9,270324,8.8,W,D*01
$PSSN,HRP,082800.50,270324,99.466,,0.228,0.184,,0.308,34,2,8.838,W*2C
$GNRMC,082801.00,A,3737.7627186,N,12704.7282160,E,1.4,17.5,270324,8.8,W,D*0A
$PSSN,HRP,082801.00,270324,97.762,,0.307,0.186,,0.307,34,2,8.838,W*20
$GNRMC,082801.50,A,3737.7628865,N,12704.7282915,E,1.0,17.3,270324,8.8,W,D*0C
$PSSN,HRP,082801.50,270324,97.230,,-0.116,0.178,,0.305,34,2,8.838,W*0B
$GNRMC,082802.00,A,3737.7630176,N,12704.7283512,E,0.7,16.8,270324,8.8,W,D*0E
$PSSN,HRP,082802.00,270324,99.312,,0.517,0.170,,0.305,34,2,8.838,W*22
$GNRMC,082802.50,A,3737.7630753,N,12704.7283777,E,0.2,17.4,270324,8.8,W,D*03
$PSSN,HRP,082802.50,270324,97.988,,0.344,0.150,,0.301,34,2,8.838,W*26
$GNRMC,082803.00,A,3737.7630932,N,12704.7283874,E,0.0,17.0,270324,8.8,W,D*04
$PSSN,HRP,082803.00,270324,98.012,,0.399,0.143,,0.299,34,2,8.838,W*25
$GNRMC,082803.50,A,3737.7631075,N,12704.7283958,E,0.2,,270324,8.8,W,D*1F
$PSSN,HRP,082803.50,270324,97.796,,0.418,0.151,,0.302,34,2,8.838,W*2A
$GNRMC,082804.00,A,3737.7631186,N,12704.7284036,E,0.1,,270324,8.8,W,D*15
$PSSN,HRP,082804.00,270324,97.842,,0.382,0.147,,0.303,34,2,8.838,W*2C
$GNRMC,082804.50,A,3737.7631259,N,12704.7284075,E,0.0,,270324,8.8,W,D*17
$PSSN,HRP,082804.50,270324,97.708,,0.344,0.146,,0.306,34,2,8.838,W*26
$GNRMC,082805.00,A,3737.7631380,N,12704.7284151,E,0.0,,270324,8.8,W,D*11
$PSSN,HRP,082805.00,270324,97.806,,0.172,0.146,,0.304,34,2,8.838,W*26
$GNRMC,082805.50,A,3737.7631496,N,12704.7284216,E,0.1,,270324,8.8,W,D*15
$PSSN,HRP,082805.50,270324,97.930,,0.050,0.149,,0.310,33,2,8.838,W*2B
$GNRMC,082806.00,A,3737.7631562,N,12704.7284253,E,0.0,,270324,8.8,W,D*19
$PSSN,HRP,082806.00,270324,98.234,,-0.086,0.150,,0.316,33,2,8.838,W*05
$GNRMC,082806.50,A,3737.7631473,N,12704.7284232,E,0.0,,270324,8.8,W,D*1A
$PSSN,HRP,082806.50,270324,98.315,,-0.142,0.153,,0.323,33,2,8.838,W*0E
$GNRMC,082807.00,A,3737.7631338,N,12704.7284198,E,0.1,,270324,8.8,W,D*14
$PSSN,HRP,082807.00,270324,98.296,,-0.297,0.156,,0.321,33,2,8.838,W*0C
$GNRMC,082807.50,A,3737.7630891,N,12704.7284038,E,0.4,200.4,270324,8.8,W,D*3E
$PSSN,HRP,082807.50,270324,100.981,,-0.052,0.168,,0.319,34,2,8.838,W*3E
$GNRMC,082808.00,A,3737.7629932,N,12704.7283519,E,0.6,205.1,270324,8.8,W,D*37
$PSSN,HRP,082808.00,270324,104.223,,-0.125,0.175,,0.318,34,2,8.838,W*3F
$GNRMC,082808.50,A,3737.7628472,N,12704.7282676,E,1.6,202.4,270324,8.8,W,D*32
$PSSN,HRP,082808.50,270324,104.018,,-0.223,0.191,,0.317,35,2,8.838,W*31
$GNRMC,082809.00,A,3737.7626754,N,12704.7281873,E,1.3,199.9,270324,8.8,W,D*3E
$PSSN,HRP,082809.00,270324,104.919,,-0.382,0.187,,0.314,35,2,8.838,W*33
$GNRMC,082809.50,A,3737.7625093,N,12704.7281197,E,1.5,199.2,270324,8.8,W,D*3A
$PSSN,HRP,082809.50,270324,106.341,,-0.525,0.187,,0.312,34,2,8.838,W*3F
$GNRMC,082810.00,A,3737.7623051,N,12704.7280393,E,1.9,197.2,270324,8.8,W,D*3A
$PSSN,HRP,082810.00,270324,105.730,,-0.493,0.189,,0.312,34,2,8.838,W*31
$GNRMC,082810.50,A,3737.7620902,N,12704.7279491,E,1.7,196.6,270324,8.8,W,D*3B
$PSSN,HRP,082810.50,270324,108.357,,-0.453,0.187,,0.312,34,2,8.838,W*3E
$GNRMC,082811.00,A,3737.7618880,N,12704.7278599,E,1.7,197.8,270324,8.8,W,D*38
$PSSN,HRP,082811.00,270324,109.962,,-0.612,0.185,,0.311,34,2,8.838,W*31
$GNRMC,082811.50,A,3737.7616264,N,12704.7277429,E,1.9,197.0,270324,8.8,W,D*30
$PSSN,HRP,082811.50,270324,106.916,,-0.205,0.188,,0.308,34,2,8.838,W*3F
$GNRMC,082812.00,A,3737.7613771,N,12704.7276597,E,1.8,194.8,270324,8.8,W,D*3D
$PSSN,HRP,082812.00,270324,107.153,,0.060,0.185,,0.308,34,2,8.838,W*10
$GNRMC,082812.50,A,3737.7611483,N,12704.7275804,E,1.8,196.6,270324,8.8,W,D*3C
$PSSN,HRP,082812.50,270324,106.828,,-0.003,0.185,,0.307,34,2,8.838,W*36
$GNRMC,082813.00,A,3737.7609024,N,12704.7274952,E,1.8,194.8,270324,8.8,W,D*37
$PSSN,HRP,082813.00,270324,104.755,,-0.089,0.184,,0.305,34,2,8.838,W*34
$GNRMC,082813.50,A,3737.7606711,N,12704.7274244,E,1.6,191.8,270324,8.8,W,D*3B
$PSSN,HRP,082813.50,270324,103.368,,-0.571,0.184,,0.306,34,2,8.838,W*3D
$GNRMC,082814.00,A,3737.7604654,N,12704.7273519,E,1.6,193.2,270324,8.8,W,D*3B
$PSSN,HRP,082814.00,270324,102.209,,-0.542,0.278,,0.330,34,2,8.838,W*3D
$GNRMC,082814.50,A,3737.7602606,N,12704.7272720,E,1.1,193.6,270324,8.8,W,D*35
$PSSN,HRP,082814.50,270324,102.288,,-0.678,0.284,,0.373,34,2,8.838,W*3F
$GNRMC,082815.00,A,3737.7601481,N,12704.7272422,E,0.5,192.9,270324,8.8,W,D*35
$PSSN,HRP,082815.00,270324,102.597,,-0.370,0.240,,0.409,34,2,8.838,W*3D
$GNRMC,082815.50,A,3737.7601306,N,12704.7272217,E,0.0,193.3,270324,8.8,W,D*36
$PSSN,HRP,082815.50,270324,102.752,,-0.124,0.206,,0.435,34,2,8.838,W*3D
$GNRMC,082816.00,A,3737.7601337,N,12704.7272237,E,0.0,191.7,270324,8.8,W,D*36
$PSSN,HRP,082816.00,270324,102.601,,-0.419,0.180,,0.396,34,2,8.838,W*34
$GNRMC,082816.50,A,3737.7601230,N,12704.7272227,E,0.1,,270324,8.8,W,D*15
$PSSN,HRP,082816.50,270324,102.703,,-0.401,0.157,,0.334,34,2,8.838,W*39
$GNRMC,082817.00,A,3737.7601265,N,12704.7272297,E,0.4,,270324,8.8,W,D*1F
$PSSN,HRP,082817.00,270324,103.300,,-0.527,0.155,,0.300,34,2,8.838,W*3B
$GNRMC,082817.50,A,3737.7602026,N,12704.7272762,E,0.5,27.7,270324,8.8,W,D*0E
$PSSN,HRP,082817.50,270324,102.976,,-0.253,0.160,,0.299,34,2,8.838,W*37
$GNRMC,082818.00,A,3737.7602855,N,12704.7273302,E,0.9,29.3,270324,8.8,W,D*0D
$PSSN,HRP,082818.00,270324,99.125,,-0.397,0.172,,0.302,34,2,8.838,W*09
$GNRMC,082818.50,A,3737.7604247,N,12704.7273960,E,1.1,21.9,270324,8.8,W,D*02
$PSSN,HRP,082818.50,270324,98.162,,0.214,0.182,,0.303,34,2,8.838,W*27
$GNRMC,082819.00,A,3737.7605814,N,12704.7274598,E,1.4,18.8,270324,8.8,W,D*09
$PSSN,HRP,082819.00,270324,97.180,,-0.263,0.186,,0.303,34,2,8.838,W*09
$GNRMC,082819.50,A,3737.7607735,N,12704.7275238,E,1.4,15.8,270324,8.8,W,D*03
$PSSN,HRP,082819.50,270324,100.544,,0.183,0.183,,0.305,34,2,8.838,W*1C
$GNRMC,082820.00,A,3737.7609793,N,12704.7275958,E,1.5,15.0,270324,8.8,W,D*0A
$PSSN,HRP,082820.00,270324,105.081,,0.161,0.182,,0.306,34,2,8.838,W*14
$GNRMC,082820.50,A,3737.7611926,N,12704.7276700,E,1.5,14.4,270324,8.8,W,D*03
$PSSN,HRP,082820.50,270324,105.391,,-0.018,0.181,,0.306,34,2,8.838,W*32
$GNRMC,082821.00,A,3737.7613939,N,12704.7277397,E,1.4,13.9,270324,8.8,W,D*0B
$PSSN,HRP,082821.00,270324,103.215,,-0.036,0.182,,0.305,34,2,8.838,W*31
$GNRMC,082821.50,A,3737.7615782,N,12704.7277935,E,1.5,12.7,270324,8.8,W,D*0A
$PSSN,HRP,082821.50,270324,100.208,,-0.443,0.185,,0.305,34,2,8.838,W*3A
$GNRMC,082822.00,A,3737.7617954,N,12704.7278596,E,1.9,13.5,270324,8.8,W,D*0E
$PSSN,HRP,082822.00,270324,103.004,,0.206,0.274,,0.328,34,2,8.838,W*19
$GNRMC,082822.50,A,3737.7620373,N,12704.7279466,E,1.5,15.7,270324,8.8,W,D*07
$PSSN,HRP,082822.50,270324,108.724,,0.822,0.282,,0.370,34,2,8.838,W*1A
$GNRMC,082823.00,A,3737.7622246,N,12704.7280139,E,1.4,15.7,270324,8.8,W,D*0E
$PSSN,HRP,082823.00,270324,110.074,,0.425,0.291,,0.417,34,2,8.838,W*1A
$GNRMC,082823.50,A,3737.7624537,N,12704.7281071,E,1.7,21.3,270324,8.8,W,D*00
$PSSN,HRP,082823.50,270324,115.811,,0.600,0.300,,0.451,34,2,8.838,W*1F
$GNRMC,082824.00,A,3737.7626585,N,12704.7282132,E,1.6,21.8,270324,8.8,W,D*06
$PSSN,HRP,082824.00,270324,119.888,,0.605,0.214,,0.402,34,2,8.838,W*16
$GNRMC,082824.50,A,3737.7628291,N,12704.7283069,E,1.3,26.0,270324,8.8,W,D*0B
$PSSN,HRP,082824.50,270324,120.396,,0.293,0.195,,0.345,34,2,8.838,W*18
$GNRMC,082825.00,A,3737.7629310,N,12704.7283475,E,0.6,23.6,270324,8.8,W,D*08
$PSSN,HRP,082825.00,270324,113.501,,0.774,0.167,,0.309,34,2,8.838,W*1D
$GNRMC,082825.50,A,3737.7629919,N,12704.7283657,E,0.7,20.9,270324,8.8,W,D*01
$PSSN,HRP,082825.50,270324,104.984,,0.890,0.170,,0.308,34,2,8.838,W*1D
$GNRMC,082826.00,A,3737.7630417,N,12704.7283754,E,0.3,17.0,270324,8.8,W,D*07
$PSSN,HRP,082826.00,270324,101.865,,1.154,0.154,,0.306,34,2,8.838,W*18
$GNRMC,082826.50,A,3737.7630510,N,12704.7283730,E,0.3,15.1,270324,8.8,W,D*05
$PSSN,HRP,082826.50,270324,98.502,,0.465,0.157,,0.308,34,2,8.838,W*2B
$GNRMC,082827.00,A,3737.7630958,N,12704.7283809,E,0.6,11.7,270324,8.8,W,D*03
$PSSN,HRP,082827.00,270324,98.898,,0.215,0.169,,0.310,34,2,8.838,W*24
$GNRMC,082827.50,A,3737.7631763,N,12704.7283983,E,0.3,10.4,270324,8.8,W,D*05
$PSSN,HRP,082827.50,270324,100.082,,0.319,0.158,,0.310,34,2,8.838,W*1D
$GNRMC,082828.00,A,3737.7631774,N,12704.7283999,E,0.2,,270324,8.8,W,D*18
$PSSN,HRP,082828.00,270324,99.686,,0.374,0.153,,0.311,34,2,8.838,W*25
$GNRMC,082828.50,A,3737.7631836,N,12704.7284080,E,0.1,,270324,8.8,W,D*11
$PSSN,HRP,082828.50,270324,99.675,,0.357,0.151,,0.310,34,2,8.838,W*2E
$GNRMC,082829.00,A,3737.7631865,N,12704.7284163,E,0.0,,270324,8.8,W,D*1E
$PSSN,HRP,082829.00,270324,99.682,,0.167,0.146,,0.307,34,2,8.838,W*23
$GNRMC,082829.50,A,3737.7631748,N,12704.7284143,E,0.0,,270324,8.8,W,D*19
$PSSN,HRP,082829.50,270324,99.664,,0.111,0.148,,0.310,34,2,8.838,W*27
$GNRMC,082830.00,A,3737.7631422,N,12704.7284020,E,0.3,,270324,8.8,W,D*1C
$PSSN,HRP,082830.00,270324,101.039,,0.063,0.162,,0.316,34,2,8.838,W*1E
$GNRMC,082830.50,A,3737.7630764,N,12704.7283613,E,0.5,205.6,270324,8.8,W,D*31
$PSSN,HRP,082830.50,270324,104.957,,0.266,0.170,,0.321,34,2,8.838,W*1F
$GNRMC,082831.00,A,3737.7629550,N,12704.7282825,E,1.1,207.3,270324,8.8,W,D*30
$PSSN,HRP,082831.00,270324,104.379,,-0.237,0.190,,0.321,34,2,8.838,W*3A
$GNRMC,082831.50,A,3737.7628012,N,12704.7282171,E,1.2,202.2,270324,8.8,W,D*38
$PSSN,HRP,082831.50,270324,102.746,,-0.579,0.189,,0.315,34,2,8.838,W*33
$GNRMC,082832.00,A,3737.7626440,N,12704.7281595,E,1.1,200.3,270324,8.8,W,D*3E
$PSSN,HRP,082832.00,270324,104.831,,-0.577,0.186,,0.311,34,2,8.838,W*39
$GNRMC,082832.50,A,3737.7624603,N,12704.7280873,E,1.6,196.1,270324,8.8,W,D*31
$PSSN,HRP,082832.50,270324,104.971,,-0.771,0.187,,0.309,34,2,8.838,W*35
$GNRMC,082833.00,A,3737.7622522,N,12704.7280195,E,1.5,195.5,270324,8.8,W,D*36
$PSSN,HRP,082833.00,270324,104.611,,-0.777,0.187,,0.310,34,2,8.838,W*36
$GNRMC,082833.50,A,3737.7620623,N,12704.7279532,E,1.5,195.5,270324,8.8,W,D*3C
$PSSN,HRP,082833.50,270324,106.366,,-0.319,0.186,,0.310,34,2,8.838,W*39
$GNRMC,082834.00,A,3737.7618651,N,12704.7278790,E,1.8,196.7,270324,8.8,W,D*37
$PSSN,HRP,082834.00,270324,106.285,,-0.553,0.187,,0.310,34,2,8.838,W*3E
$GNRMC,082834.50,A,3737.7616137,N,12704.7277935,E,1.8,192.2,270324,8.8,W,D*34
$PSSN,HRP,082834.50,270324,103.341,,-0.774,0.186,,0.309,34,2,8.838,W*39
$GNRMC,082835.00,A,3737.7613743,N,12704.7277145,E,1.6,195.9,270324,8.8,W,D*3D
$PSSN,HRP,082835.00,270324,103.613,,-0.170,0.187,,0.308,34,2,8.838,W*3D
$GNRMC,082835.50,A,3737.7611432,N,12704.7276415,E,1.8,192.8,270324,8.8,W,D*36
$PSSN,HRP,082835.50,270324,103.486,,-0.726,0.186,,0.308,34,2,8.838,W*32
$GNRMC,082836.00,A,3737.7609266,N,12704.7275680,E,1.7,193.1,270324,8.8,W,D*34
$PSSN,HRP,082836.00,270324,102.290,,-0.661,0.185,,0.308,34,2,8.838,W*35
$GNRMC,082836.50,A,3737.7607242,N,12704.7274930,E,1.6,194.7,270324,8.8,W,D*3C
$PSSN,HRP,082836.50,270324,102.611,,-0.501,0.184,,0.307,34,2,8.838,W*36
$GNRMC,082837.00,A,3737.7605334,N,12704.7274256,E,1.3,192.4,270324,8.8,W,D*31
$PSSN,HRP,082837.00,270324,103.226,,-0.948,0.185,,0.307,34,2,8.838,W*33
$GNRMC,082837.50,A,3737.7603630,N,12704.7273816,E,1.1,192.1,270324,8.8,W,D*3D
$PSSN,HRP,082837.50,270324,105.374,,-0.629,0.183,,0.305,34,2,8.838,W*3A
$GNRMC,082838.00,A,3737.7602377,N,12704.7273523,E,0.7,191.7,270324,8.8,W,D*39
$PSSN,HRP,082838.00,270324,106.714,,-0.975,0.168,,0.302,34,2,8.838,W*35
$GNRMC,082838.50,A,3737.7601291,N,12704.7273224,E,0.9,194.0,270324,8.8,W,D*3A
$PSSN,HRP,082838.50,270324,105.195,,-0.624,0.176,,0.304,34,2,8.838,W*3E
$GNRMC,082839.00,A,3737.7600650,N,12704.7273144,E,0.1,192.9,270324,8.8,W,D*34
$PSSN,HRP,082839.00,270324,103.916,,-0.639,0.145,,0.299,34,2,8.838,W*36
$GNRMC,082839.50,A,3737.7600861,N,12704.7273294,E,0.0,191.5,270324,8.8,W,D*3D
$PSSN,HRP,082839.50,270324,104.165,,-0.764,0.143,,0.300,34,2,8.838,W*36
$GNRMC,082840.00,A,3737.7601188,N,12704.7273463,E,0.2,,270324,8.8,W,D*17
$PSSN,HRP,082840.00,270324,104.600,,-0.789,0.149,,0.300,34,2,8.838,W*30
$GNRMC,082840.50,A,3737.7601829,N,12704.7273805,E,0.6,27.1,270324,8.8,W,D*02
$PSSN,HRP,082840.50,270324,106.028,,-0.679,0.163,,0.301,34,2,8.838,W*3C
$GNRMC,082841.00,A,3737.7602790,N,12704.7274408,E,0.7,27.2,270324,8.8,W,D*0C
$PSSN,HRP,082841.00,270324,109.166,,-0.629,0.166,,0.301,34,2,8.838,W*3C
$GNRMC,082841.50,A,3737.7603377,N,12704.7274978,E,0.6,32.7,270324,8.8,W,D*0F
$PSSN,HRP,082841.50,270324,105.690,,-0.791,0.162,,0.300,34,2,8.838,W*3C
$GNRMC,082842.00,A,3737.7604274,N,12704.7275639,E,1.2,29.4,270324,8.8,W,D*0B
$PSSN,HRP,082842.00,270324,99.719,,-0.484,0.183,,0.305,34,2,8.838,W*03
$GNRMC,082842.50,A,3737.7605941,N,12704.7276307,E,1.4,23.6,270324,8.8,W,D*07
$PSSN,HRP,082842.50,270324,99.346,,-0.042,0.184,,0.306,34,2,8.838,W*02
$GNRMC,082843.00,A,3737.7607903,N,12704.7276943,E,1.4,19.3,270324,8.8,W,D*01
$PSSN,HRP,082843.00,270324,100.317,,-0.013,0.184,,0.307,34,2,8.838,W*36
$GNRMC,082843.50,A,3737.7609819,N,12704.7277489,E,1.4,16.3,270324,8.8,W,D*05
$PSSN,HRP,082843.50,270324,99.916,,0.430,0.183,,0.306,34,2,8.838,W*27
$GNRMC,082844.00,A,3737.7611779,N,12704.7278094,E,1.4,15.7,270324,8.8,W,D*07
$PSSN,HRP,082844.00,270324,100.652,,0.441,0.185,,0.307,34,2,8.838,W*1A
$GNRMC,082844.50,A,3737.7613598,N,12704.7278693,E,1.5,15.4,270324,8.8,W,D*0E
$PSSN,HRP,082844.50,270324,100.634,,0.347,0.184,,0.305,34,2,8.838,W*1D
$GNRMC,082845.00,A,3737.7615288,N,12704.7279231,E,1.3,15.2,270324,8.8,W,D*07
$PSSN,HRP,082845.00,270324,100.717,,0.562,0.184,,0.304,34,2,8.838,W*19
$GNRMC,082845.50,A,3737.7616988,N,12704.7279757,E,1.2,14.6,270324,8.8,W,D*0B
$PSSN,HRP,082845.50,270324,100.677,,0.730,0.185,,0.306,34,2,8.838,W*1D
$GNRMC,082846.00,A,3737.7618664,N,12704.7280185,E,1.3,13.2,270324,8.8,W,D*03
$PSSN,HRP,082846.00,270324,98.861,,1.070,0.186,,0.308,34,2,8.838,W*2D
$GNRMC,082846.50,A,3737.7620587,N,12704.7280655,E,1.6,13.9,270324,8.8,W,D*07
$PSSN,HRP,082846.50,270324,100.318,,0.739,0.186,,0.310,34,2,8.838,W*1F
$GNRMC,082847.00,A,3737.7622503,N,12704.7281111,E,1.5,12.5,270324,8.8,W,D*05
$PSSN,HRP,082847.00,270324,101.609,,0.795,0.184,,0.308,34,2,8.838,W*12
$GNRMC,082847.50,A,3737.7624275,N,12704.7281519,E,1.3,11.6,270324,8.8,W,D*0A
$PSSN,HRP,082847.50,270324,101.991,,0.752,0.186,,0.310,34,2,8.838,W*19
$GNRMC,082848.00,A,3737.7625656,N,12704.7281843,E,1.0,11.8,270324,8.8,W,D*0B
$PSSN,HRP,082848.00,270324,103.690,,0.634,0.180,,0.310,34,2,8.838,W*18
$GNRMC,082848.50,A,3737.7627089,N,12704.7282121,E,1.0,10.0,270324,8.8,W,D*0F
$PSSN,HRP,082848.50,270324,103.622,,0.888,0.184,,0.313,34,2,8.838,W*1A
$GNRMC,082849.00,A,3737.7628427,N,12704.7282513,E,1.0,12.0,270324,8.8,W,D*03
$PSSN,HRP,082849.00,270324,100.585,,0.304,0.181,,0.312,34,2,8.838,W*18
$GNRMC,082849.50,A,3737.7629711,N,12704.7282961,E,0.9,12.9,270324,8.8,W,D*09
$PSSN,HRP,082849.50,270324,98.271,,0.354,0.179,,0.312,34,2,8.838,W*23
$GNRMC,082850.00,A,3737.7631062,N,12704.7283349,E,0.9,11.2,270324,8.8,W,D*07
$PSSN,HRP,082850.00,270324,98.393,,0.302,0.180,,0.311,34,2,8.838,W*25
$GNRMC,082850.50,A,3737.7631857,N,12704.7283497,E,0.3,11.7,270324,8.8,W,D*07
$PSSN,HRP,082850.50,270324,98.715,,0.336,0.157,,0.308,34,2,8.838,W*2F
$GNRMC,082851.00,A,3737.7632072,N,12704.7283482,E,0.1,12.3,270324,8.8,W,D*0E
$PSSN,HRP,082851.00,270324,98.019,,0.239,0.150,,0.310,34,2,8.838,W*20
$GNRMC,082851.50,A,3737.7632232,N,12704.7283461,E,0.1,13.0,270324,8.8,W,D*02
$PSSN,HRP,082851.50,270324,97.885,,0.457,0.150,,0.315,34,2,8.838,W*2C
$GNRMC,082852.00,A,3737.7632283,N,12704.7283414,E,0.0,,270324,8.8,W,D*11
$PSSN,HRP,082852.00,270324,98.183,,0.381,0.150,,0.317,34,2,8.838,W*24
$GNRMC,082852.50,A,3737.7632199,N,12704.7283377,E,0.1,,270324,8.8,W,D*1F
$PSSN,HRP,082852.50,270324,98.052,,0.190,0.150,,0.317,34,2,8.838,W*2E
$GNRMC,082853.00,A,3737.7632078,N,12704.7283325,E,0.0,,270324,8.8,W,D*13
$PSSN,HRP,082853.00,270324,97.994,,0.163,0.148,,0.315,34,2,8.838,W*21
$GNRMC,082853.50,A,3737.7632046,N,12704.7283314,E,0.0,,270324,8.8,W,D*19
$PSSN,HRP,082853.50,270324,98.005,,0.044,0.148,,0.313,34,2,8.838,W*28
$GNRMC,082854.00,A,3737.7631998,N,12704.7283295,E,0.0,,270324,8.8,W,D*1A
$PSSN,HRP,082854.00,270324,98.171,,-0.156,0.147,,0.311,34,2,8.838,W*0A
$GNRMC,082854.50,A,3737.7631950,N,12704.7283270,E,0.1,,270324,8.8,W,D*11
$PSSN,HRP,082854.50,270324,98.293,,0.064,0.149,,0.311,33,2,8.838,W*24
$GNRMC,082855.00,A,3737.7631691,N,12704.7283182,E,0.4,,270324,8.8,W,D*1C
$PSSN,HRP,082855.00,270324,99.952,,0.359,0.165,,0.314,33,2,8.838,W*21
$GNRMC,082855.50,A,3737.7630677,N,12704.7282765,E,0.8,198.0,270324,8.8,W,D*3C
$PSSN,HRP,082855.50,270324,102.077,,0.115,0.181,,0.321,33,2,8.838,W*1F
$GNRMC,082856.00,A,3737.7629353,N,12704.7282141,E,1.3,201.6,270324,8.8,W,D*3E
$PSSN,HRP,082856.00,270324,102.267,,0.004,0.197,,0.328,33,2,8.838,W*15
$GNRMC,082856.50,A,3737.7627419,N,12704.7281341,E,1.4,198.4,270324,8.8,W,D*3B
$PSSN,HRP,082856.50,270324,101.901,,-0.354,0.194,,0.330,33,2,8.838,W*39
$GNRMC,082857.00,A,3737.7625390,N,12704.7280610,E,1.5,195.9,270324,8.8,W,D*3A
$PSSN,HRP,082857.00,270324,103.734,,-0.201,0.192,,0.328,33,2,8.838,W*39
$GNRMC,082857.50,A,3737.7623234,N,12704.7279801,E,1.8,194.4,270324,8.8,W,D*3F
$PSSN,HRP,082857.50,270324,103.192,,-0.367,0.191,,0.324,34,2,8.838,W*3F
$GNRMC,082858.00,A,3737.7620932,N,12704.7279052,E,1.6,191.7,270324,8.8,W,D*3D
$PSSN,HRP,082858.00,270324,102.473,,-0.129,0.189,,0.322,34,2,8.838,W*39
$GNRMC,082858.50,A,3737.7618919,N,12704.7278542,E,1.5,192.0,270324,8.8,W,D*38
$PSSN,HRP,082858.50,270324,104.503,,-0.565,0.187,,0.315,34,2,8.838,W*3A
$GNRMC,082859.00,A,3737.7616569,N,12704.7277908,E,2.2,192.3,270324,8.8,W,D*33
$PSSN,HRP,082859.00,270324,102.336,,-0.442,0.186,,0.310,34,2,8.838,W*38
$GNRMC,082859.50,A,3737.7613858,N,12704.7277357,E,1.9,189.1,270324,8.8,W,D*3C
$PSSN,HRP,082859.50,270324,99.671,,-0.264,0.186,,0.310,34,2,8.838,W*0A
$GNRMC,082900.00,A,3737.7611338,N,12704.7276822,E,1.7,192.2,270324,8.8,W,D*34
$PSSN,HRP,082900.00,270324,101.716,,0.004,0.185,,0.310,34,2,8.838,W*18
$GNRMC,082900.50,A,3737.7608701,N,12704.7276167,E,2.0,189.5,270324,8.8,W,D*36
$PSSN,HRP,082900.50,270324,101.580,,-0.243,0.185,,0.310,34,2,8.838,W*3C
$GNRMC,082901.00,A,3737.7606137,N,12704.7275597,E,1.7,188.7,270324,8.8,W,D*30
$PSSN,HRP,082901.00,270324,100.601,,-0.613,0.275,,0.330,34,2,8.838,W*3C
$GNRMC,082901.50,A,3737.7604348,N,12704.7275031,E,1.4,189.0,270324,8.8,W,D*31
$PSSN,HRP,082901.50,270324,103.280,,-0.636,0.287,,0.373,34,2,8.838,W*3A
$GNRMC,082902.00,A,3737.7602499,N,12704.7274648,E,1.1,189.1,270324,8.8,W,D*37
$PSSN,HRP,082902.00,270324,104.668,,-0.896,0.297,,0.422,34,2,8.838,W*3F
$GNRMC,082902.50,A,3737.7601319,N,12704.7274508,E,0.6,189.0,270324,8.8,W,D*3E
$PSSN,HRP,082902.50,270324,103.697,,-0.911,0.262,,0.445,34,2,8.838,W*38
$GNRMC,082903.00,A,3737.7601232,N,12704.7274467,E,0.4,189.8,270324,8.8,W,D*30
$PSSN,HRP,082903.00,270324,103.012,,-0.648,0.191,,0.396,34,2,8.838,W*32
$GNRMC,082903.50,A,3737.7601635,N,12704.7274710,E,0.4,,270324,8.8,W,D*13
$PSSN,HRP,082903.50,270324,103.540,,-0.667,0.169,,0.337,34,2,8.838,W*34
$GNRMC,082904.00,A,3737.7602717,N,12704.7275253,E,0.9,21.2,270324,8.8,W,D*02
$PSSN,HRP,082904.00,270324,104.225,,-0.361,0.176,,0.306,34,2,8.838,W*3A
$GNRMC,082904.50,A,3737.7603936,N,12704.7275884,E,0.8,20.9,270324,8.8,W,D*00
$PSSN,HRP,082904.50,270324,102.368,,-0.433,0.172,,0.303,34,2,8.838,W*30
$GNRMC,082905.00,A,3737.7605497,N,12704.7276463,E,1.2,15.7,270324,8.8,W,D*01
$PSSN,HRP,082905.00,270324,99.523,,-0.025,0.184,,0.305,34,2,8.838,W*02
$GNRMC,082905.50,A,3737.7607390,N,12704.7277022,E,1.5,13.7,270324,8.8,W,D*07
$PSSN,HRP,082905.50,270324,100.888,,0.269,0.185,,0.305,34,2,8.838,W*1C
$GNRMC,082906.00,A,3737.7609356,N,12704.7277458,E,1.4,10.4,270324,8.8,W,D*0D
$PSSN,HRP,082906.00,270324,99.841,,0.621,0.183,,0.305,34,2,8.838,W*20
$GNRMC,082906.50,A,3737.7611260,N,12704.7277763,E,1.3,8.5,270324,8.8,W,D*31
$PSSN,HRP,082906.50,270324,98.028,,0.558,0.184,,0.306,34,2,8.838,W*2A
$GNRMC,082907.00,A,3737.7613168,N,12704.7278064,E,1.3,8.0,270324,8.8,W,D*36
$PSSN,HRP,082907.00,270324,97.741,,0.977,0.187,,0.309,34,2,8.838,W*24
$GNRMC,082907.50,A,3737.7614870,N,12704.7278196,E,1.3,6.7,270324,8.8,W,D*31
$PSSN,HRP,082907.50,270324,94.402,,0.612,0.189,,0.310,34,2,8.838,W*2C
$GNRMC,082908.00,A,3737.7617004,N,12704.7278494,E,1.7,10.8,270324,8.8,W,D*08
$PSSN,HRP,082908.00,270324,97.854,,0.180,0.186,,0.308,34,2,8.838,W*20
$GNRMC,082908.50,A,3737.7619021,N,12704.7279022,E,1.4,11.0,270324,8.8,W,D*06
$PSSN,HRP,082908.50,270324,103.084,,0.561,0.191,,0.312,33,2,8.838,W*1D
$GNRMC,082909.00,A,3737.7620918,N,12704.7279886,E,1.4,15.8,270324,8.8,W,D*01
$PSSN,HRP,082909.00,270324,109.569,,0.548,0.194,,0.321,33,2,8.838,W*1B
$GNRMC,082909.50,A,3737.7622480,N,12704.7280734,E,0.8,18.8,270324,8.8,W,D*0A
$PSSN,HRP,082909.50,270324,108.592,,0.663,0.177,,0.322,34,2,8.838,W*18
$GNRMC,082910.00,A,3737.7623668,N,12704.7281402,E,0.8,20.1,270324,8.8,W,D*07
$PSSN,HRP,082910.00,270324,103.250,,0.739,0.176,,0.316,34,2,8.838,W*1F
$GNRMC,082910.50,A,3737.7624821,N,12704.7281816,E,0.7,17.2,270324,8.8,W,D*07
$PSSN,HRP,082910.50,270324,100.664,,0.684,0.170,,0.310,34,2,8.838,W*1D
$GNRMC,082911.00,A,3737.7626402,N,12704.7282233,E,1.2,13.0,270324,8.8,W,D*00
$PSSN,HRP,082911.00,270324,99.951,,0.635,0.185,,0.311,34,2,8.838,W*20
$GNRMC,082911.50,A,3737.7627932,N,12704.7282626,E,1.0,11.9,270324,8.8,W,D*03
$PSSN,HRP,082911.50,270324,99.151,,0.086,0.180,,0.310,34,2,8.838,W*27
$GNRMC,082912.00,A,3737.7629416,N,12704.7282949,E,1.2,10.1,270324,8.8,W,D*0D
$PSSN,HRP,082912.00,270324,97.809,,0.316,0.186,,0.311,34,2,8.838,W*26
$GNRMC,082912.50,A,3737.7631033,N,12704.7283198,E,0.9,8.8,270324,8.8,W,D*3D
$PSSN,HRP,082912.50,270324,98.854,,0.272,0.178,,0.312,34,2,8.838,W*25
$GNRMC,082913.00,A,3737.7632337,N,12704.7283424,E,0.7,9.2,270324,8.8,W,D*3A
$PSSN,HRP,082913.00,270324,98.372,,0.382,0.171,,0.313,34,2,8.838,W*28
$GNRMC,082913.50,A,3737.7633056,N,12704.7283608,E,0.3,10.8,270324,8.8,W,D*00
$PSSN,HRP,082913.50,270324,97.679,,0.356,0.159,,0.312,34,2,8.838,W*2E
$GNRMC,082914.00,A,3737.7633285,N,12704.7283646,E,0.1,10.7,270324,8.8,W,D*09
$PSSN,HRP,082914.00,270324,97.517,,0.312,0.148,,0.311,34,2,8.838,W*24
$GNRMC,082914.50,A,3737.7633284,N,12704.7283634,E,0.1,11.4,270324,8.8,W,D*0A
$PSSN,HRP,082914.50,270324,97.365,,0.331,0.150,,0.313,34,2,8.838,W*28
$GNRMC,082915.00,A,3737.7633126,N,12704.7283572,E,0.0,,270324,8.8,W,D*1F
$PSSN,HRP,082915.00,270324,97.374,,0.326,0.149,,0.314,34,2,8.838,W*25
$GNRMC,082915.50,A,3737.7632958,N,12704.7283515,E,0.1,,270324,8.8,W,D*1A
$PSSN,HRP,082915.50,270324,97.509,,0.217,0.151,,0.316,34,2,8.838,W*24
$GNRMC,082916.00,A,3737.7632810,N,12704.7283475,E,0.0,,270324,8.8,W,D*17
$PSSN,HRP,082916.00,270324,97.681,,-0.057,0.149,,0.316,33,2,8.838,W*04
$GNRMC,082916.50,A,3737.7632849,N,12704.7283470,E,0.1,,270324,8.8,W,D*1A
$PSSN,HRP,082916.50,270324,98.345,,-0.023,0.154,,0.320,33,2,8.838,W*09
$GNRMC,082917.00,A,3737.7632869,N,12704.7283455,E,0.0,,270324,8.8,W,D*1A
$PSSN,HRP,082917.00,270324,98.570,,-0.005,0.152,,0.323,33,2,8.838,W*0C
$GNRMC,082917.50,A,3737.7632693,N,12704.7283428,E,0.2,,270324,8.8,W,D*1C
$PSSN,HRP,082917.50,270324,100.626,,0.133,0.158,,0.324,33,2,8.838,W*1D
$GNRMC,082918.00,A,3737.7632342,N,12704.7283282,E,0.3,198.4,270324,8.8,W,D*32
$PSSN,HRP,082918.00,270324,104.483,,0.192,0.164,,0.322,33,2,8.838,W*1C
$GNRMC,082918.50,A,3737.7632043,N,12704.7283068,E,0.2,196.5,270324,8.8,W,D*3D
$PSSN,HRP,082918.50,270324,107.470,,-0.002,0.159,,0.322,33,2,8.838,W*3D
$GNRMC,082919.00,A,3737.7631557,N,12704.7282739,E,0.6,203.1,270324,8.8,W,D*37
$PSSN,HRP,082919.00,270324,111.807,,-0.421,0.177,,0.325,33,2,8.838,W*3C
$GNRMC,082919.50,A,3737.7630196,N,12704.7281966,E,1.3,203.7,270324,8.8,W,D*3F
$PSSN,HRP,082919.50,270324,109.270,,-0.520,0.195,,0.330,34,2,8.838,W*35
$GNRMC,082920.00,A,3737.7628450,N,12704.7281176,E,1.3,200.1,270324,8.8,W,D*3A
$PSSN,HRP,082920.00,270324,105.495,,-0.581,0.194,,0.329,33,2,8.838,W*3E
$GNRMC,082920.50,A,3737.7626975,N,12704.7280717,E,1.1,196.3,270324,8.8,W,D*37
$PSSN,HRP,082920.50,270324,108.279,,-0.464,0.187,,0.318,34,2,8.838,W*3F
$GNRMC,082921.00,A,3737.7625100,N,12704.7280105,E,1.8,198.0,270324,8.8,W,D*3B
$PSSN,HRP,082921.00,270324,107.772,,-0.500,0.188,,0.312,34,2,8.838,W*3C
$GNRMC,082921.50,A,3737.7622639,N,12704.7279290,E,1.7,192.7,270324,8.8,W,D*3F
$PSSN,HRP,082921.50,270324,104.452,,-0.189,0.187,,0.311,34,2,8.838,W*32
$GNRMC,082922.00,A,3737.7620150,N,12704.7278579,E,1.6,192.0,270324,8.8,W,D*34
$PSSN,HRP,082922.00,270324,104.969,,-0.481,0.187,,0.310,34,2,8.838,W*3D
$GNRMC,082922.50,A,3737.7617623,N,12704.7277749,E,1.9,193.5,270324,8.8,W,D*33
$PSSN,HRP,082922.50,270324,102.871,,-0.248,0.186,,0.310,34,2,8.838,W*34
$GNRMC,082923.00,A,3737.7615290,N,12704.7277045,E,1.5,191.2,270324,8.8,W,D*3B
$PSSN,HRP,082923.00,270324,101.146,,-1.067,0.186,,0.308,34,2,8.838,W*39
$GNRMC,082923.50,A,3737.7613257,N,12704.7276575,E,1.6,191.2,270324,8.8,W,D*37
$PSSN,HRP,082923.50,270324,104.594,,-0.975,0.185,,0.307,34,2,8.838,W*35
$GNRMC,082924.00,A,3737.7611015,N,12704.7276071,E,1.9,191.5,270324,8.8,W,D*3A
$PSSN,HRP,082924.00,270324,103.718,,-0.701,0.184,,0.309,34,2,8.838,W*34
$GNRMC,082924.50,A,3737.7608719,N,12704.7275708,E,1.4,188.4,270324,8.8,W,D*32
$PSSN,HRP,082924.50,270324,101.137,,-0.571,0.183,,0.308,34,2,8.838,W*3B
$GNRMC,082925.00,A,3737.7606873,N,12704.7275406,E,1.4,189.7,270324,8.8,W,D*34
$PSSN,HRP,082925.00,270324,104.508,,-0.270,0.183,,0.305,34,2,8.838,W*39
$GNRMC,082925.50,A,3737.7604794,N,12704.7274807,E,1.6,190.6,270324,8.8,W,D*32
$PSSN,HRP,082925.50,270324,105.959,,-0.946,0.184,,0.305,34,2,8.838,W*3C
$GNRMC,082926.00,A,3737.7602955,N,12704.7274233,E,0.8,191.4,270324,8.8,W,D*30
$PSSN,HRP,082926.00,270324,105.096,,-1.476,0.171,,0.302,34,2,8.838,W*32
$GNRMC,082926.50,A,3737.7602067,N,12704.7273960,E,0.5,191.2,270324,8.8,W,D*3C
$PSSN,HRP,082926.50,270324,106.630,,-0.776,0.159,,0.299,34,2,8.838,W*35
$GNRMC,082927.00,A,3737.7601616,N,12704.7273774,E,0.6,193.5,270324,8.8,W,D*36
$PSSN,HRP,082927.00,270324,103.119,,-0.646,0.164,,0.299,34,2,8.838,W*34
$GNRMC,082927.50,A,3737.7601515,N,12704.7273761,E,0.4,192.4,270324,8.8,W,D*35
$PSSN,HRP,082927.50,270324,102.737,,-0.695,0.154,,0.298,34,2,8.838,W*36
$GNRMC,082928.00,A,3737.7601483,N,12704.7273783,E,0.1,,270324,8.8,W,D*18
$PSSN,HRP,082928.00,270324,101.794,,-0.790,0.144,,0.297,34,2,8.838,W*3C
$GNRMC,082928.50,A,3737.7601627,N,12704.7273916,E,0.5,29.0,270324,8.8,W,D*02
$PSSN,HRP,082928.50,270324,99.988,,-0.922,0.159,,0.300,34,2,8.838,W*0E
$GNRMC,082929.00,A,3737.7602140,N,12704.7274117,E,0.8,20.0,270324,8.8,W,D*09
$PSSN,HRP,082929.00,270324,102.025,,-0.433,0.170,,0.301,34,2,8.838,W*30
$GNRMC,082929.50,A,3737.7602944,N,12704.7274543,E,0.8,22.9,270324,8.8,W,D*0E
$PSSN,HRP,082929.50,270324,100.675,,-0.447,0.171,,0.301,34,2,8.838,W*36
$GNRMC,082930.00,A,3737.7604204,N,12704.7275045,E,1.2,19.2,270324,8.8,W,D*00
$PSSN,HRP,082930.00,270324,97.690,,-0.341,0.184,,0.304,34,2,8.838,W*01
$GNRMC,082930.50,A,3737.7606032,N,12704.7275610,E,1.5,16.1,270324,8.8,W,D*0D
$PSSN,HRP,082930.50,270324,99.714,,0.026,0.184,,0.304,34,2,8.838,W*28
$GNRMC,082931.00,A,3737.7607854,N,12704.7276128,E,1.3,14.1,270324,8.8,W,D*0B
$PSSN,HRP,082931.00,270324,99.140,,0.182,0.184,,0.303,34,2,8.838,W*23
$GNRMC,082931.50,A,3737.7609733,N,12704.7276617,E,1.4,12.7,270324,8.8,W,D*02
$PSSN,HRP,082931.50,270324,98.385,,0.036,0.186,,0.305,34,2,8.838,W*26
$GNRMC,082932.00,A,3737.7611798,N,12704.7277199,E,1.4,15.0,270324,8.8,W,D*0C
$PSSN,HRP,082932.00,270324,100.369,,0.563,0.184,,0.306,34,2,8.838,W*16
$GNRMC,082932.50,A,3737.7613599,N,12704.7277784,E,1.5,14.0,270324,8.8,W,D*02
$PSSN,HRP,082932.50,270324,100.805,,0.361,0.186,,0.306,34,2,8.838,W*14
$GNRMC,082933.00,A,3737.7615473,N,12704.7278461,E,1.8,13.7,270324,8.8,W,D*0F
$PSSN,HRP,082933.00,270324,102.509,,0.940,0.182,,0.304,34,2,8.838,W*1C
$GNRMC,082933.50,A,3737.7617500,N,12704.7279203,E,1.4,16.8,270324,8.8,W,D*08
$PSSN,HRP,082933.50,270324,102.419,,0.461,0.182,,0.305,34,2,8.838,W*16
$GNRMC,082934.00,A,3737.7619561,N,12704.7279845,E,1.4,14.9,270324,8.8,W,D*08
$PSSN,HRP,082934.00,270324,101.507,,0.141,0.184,,0.305,34,2,8.838,W*18
$GNRMC,082934.50,A,3737.7621667,N,12704.7280482,E,1.2,14.1,270324,8.8,W,D*0C
$PSSN,HRP,082934.50,270324,101.055,,0.241,0.184,,0.307,34,2,8.838,W*1E
$GNRMC,082935.00,A,3737.7623503,N,12704.7280832,E,1.2,10.7,270324,8.8,W,D*0E
$PSSN,HRP,082935.00,270324,96.090,,0.723,0.185,,0.306,34,2,8.838,W*2D
$GNRMC,082935.50,A,3737.7625243,N,12704.7281177,E,1.4,9.4,270324,8.8,W,D*3A
$PSSN,HRP,082935.50,270324,93.535,,0.367,0.186,,0.308,34,2,8.838,W*2E
$GNRMC,082936.00,A,3737.7626944,N,12704.7281406,E,1.2,7.1,270324,8.8,W,D*3D
$PSSN,HRP,082936.00,270324,90.741,,-0.012,0.188,,0.311,34,2,8.838,W*00
$GNRMC,082936.50,A,3737.7628701,N,12704.7281470,E,1.4,4.9,270324,8.8,W,D*35
$PSSN,HRP,082936.50,270324,90.948,,0.468,0.190,,0.317,34,2,8.838,W*29
$GNRMC,082937.00,A,3737.7630565,N,12704.7281713,E,1.3,7.1,270324,8.8,W,D*32
$PSSN,HRP,082937.00,270324,98.411,,0.984,0.189,,0.318,34,2,8.838,W*2C
$GNRMC,082937.50,A,3737.7631863,N,12704.7282214,E,0.8,11.1,270324,8.8,W,D*01
$PSSN,HRP,082937.50,270324,104.140,,0.589,0.177,,0.315,34,2,8.838,W*11
$GNRMC,082938.00,A,3737.7632667,N,12704.7282967,E,0.5,20.9,270324,8.8,W,D*0A
$PSSN,HRP,082938.00,270324,106.399,,0.498,0.167,,0.311,34,2,8.838,W*1B
$GNRMC,082938.50,A,3737.7632265,N,12704.7283058,E,0.7,37.9,270324,8.8,W,D*09
$PSSN,HRP,082938.50,270324,101.239,,0.485,0.172,,0.312,34,2,8.838,W*19
$GNRMC,082939.00,A,3737.7631918,N,12704.7282979,E,0.3,,270324,8.8,W,D*13
$PSSN,HRP,082939.00,270324,99.944,,0.348,0.157,,0.311,34,2,8.838,W*2E
$GNRMC,082939.50,A,3737.7632054,N,12704.7283132,E,0.1,,270324,8.8,W,D*10
$PSSN,HRP,082939.50,270324,101.393,,0.237,0.150,,0.313,34,2,8.838,W*17
$GNRMC,082940.00,A,3737.7632471,N,12704.7283313,E,0.3,,270324,8.8,W,D*1B
$PSSN,HRP,082940.00,270324,100.375,,-0.084,0.162,,0.318,34,2,8.838,W*38
$GNRMC,082940.50,A,3737.7632649,N,12704.7283510,E,0.2,,270324,8.8,W,D*13
$PSSN,HRP,082940.50,270324,99.028,,-0.226,0.156,,0.316,34,2,8.838,W*04
$GNRMC,082941.00,A,3737.7632980,N,12704.7283604,E,0.2,,270324,8.8,W,D*1B
$PSSN,HRP,082941.00,270324,100.234,,-0.150,0.152,,0.309,34,2,8.838,W*36
$GNRMC,082941.50,A,3737.7632901,N,12704.7283579,E,0.0,,270324,8.8,W,D*1C
$PSSN,HRP,082941.50,270324,100.315,,0.054,0.146,,0.309,34,2,8.838,W*1C
$GNRMC,082942.00,A,3737.7632760,N,12704.7283534,E,0.0,,270324,8.8,W,D*1A
$PSSN,HRP,082942.00,270324,100.388,,-0.197,0.146,,0.309,34,2,8.838,W*3D
$GNRMC,082942.50,A,3737.7632589,N,12704.7283498,E,0.0,,270324,8.8,W,D*1D
$PSSN,HRP,082942.50,270324,100.431,,-0.247,0.147,,0.310,34,2,8.838,W*3A
$GNRMC,082943.00,A,3737.7632398,N,12704.7283447,E,0.0,,270324,8.8,W,D*1D
$PSSN,HRP,082943.00,270324,100.418,,-0.209,0.146,,0.308,34,2,8.838,W*37
$GNRMC,082943.50,A,3737.7632196,N,12704.7283414,E,0.2,,270324,8.8,W,D*10
$PSSN,HRP,082943.50,270324,101.041,,-0.044,0.154,,0.308,34,2,8.838,W*33
$GNRMC,082944.00,A,3737.7631406,N,12704.7283226,E,0.9,191.2,270324,8.8,W,D*34
$PSSN,HRP,082944.00,270324,104.736,,0.071,0.177,,0.311,34,2,8.838,W*11
$GNRMC,082944.50,A,3737.7630052,N,12704.7282694,E,1.1,194.3,270324,8.8,W,D*34
$PSSN,HRP,082944.50,270324,107.267,,-0.238,0.187,,0.312,34,2,8.838,W*38
$GNRMC,082945.00,A,3737.7628333,N,12704.7281956,E,1.2,196.7,270324,8.8,W,D*3A
$PSSN,HRP,082945.00,270324,108.045,,-0.052,0.189,,0.313,34,2,8.838,W*30
$GNRMC,082945.50,A,3737.7626852,N,12704.7281446,E,1.2,195.2,270324,8.8,W,D*37
$PSSN,HRP,082945.50,270324,109.771,,-0.649,0.189,,0.314,33,2,8.838,W*38
$GNRMC,082946.00,A,3737.7625105,N,12704.7280637,E,1.5,198.1,270324,8.8,W,D*35
$PSSN,HRP,082946.00,270324,110.791,,-0.434,0.189,,0.311,33,2,8.838,W*35
$GNRMC,082946.50,A,3737.7622921,N,12704.7279724,E,1.5,195.1,270324,8.8,W,D*31
$PSSN,HRP,082946.50,270324,108.714,,-0.362,0.189,,0.313,34,2,8.838,W*35
$GNRMC,082947.00,A,3737.7620791,N,12704.7278857,E,1.4,196.6,270324,8.8,W,D*3D
$PSSN,HRP,082947.00,270324,108.222,,-0.029,0.188,,0.312,34,2,8.838,W*3D
$GNRMC,082947.50,A,3737.7618673,N,12704.7278015,E,1.8,196.9,270324,8.8,W,D*33
$PSSN,HRP,082947.50,270324,105.920,,0.039,0.188,,0.311,34,2,8.838,W*13
$GNRMC,082948.00,A,3737.7616264,N,12704.7277203,E,1.8,193.8,270324,8.8,W,D*3B
$PSSN,HRP,082948.00,270324,105.637,,-0.262,0.185,,0.310,34,2,8.838,W*3D
$GNRMC,082948.50,A,3737.7614110,N,12704.7276501,E,1.6,198.1,270324,8.8,W,D*34
$PSSN,HRP,082948.50,270324,106.850,,-0.384,0.186,,0.307,34,2,8.838,W*38
$GNRMC,082949.00,A,3737.7611774,N,12704.7275721,E,2.0,193.4,270324,8.8,W,D*39
$PSSN,HRP,082949.00,270324,104.868,,-0.535,0.184,,0.305,34,2,8.838,W*39
$GNRMC,082949.50,A,3737.7609222,N,12704.7275030,E,1.7,189.7,270324,8.8,W,D*38
$PSSN,HRP,082949.50,270324,102.831,,-0.847,0.183,,0.304,35,2,8.838,W*39
$GNRMC,082950.00,A,3737.7606988,N,12704.7274453,E,1.5,192.5,270324,8.8,W,D*3B
$PSSN,HRP,082950.00,270324,104.985,,-0.407,0.182,,0.305,35,2,8.838,W*34
$GNRMC,082950.50,A,3737.7604639,N,12704.7273701,E,1.7,190.8,270324,8.8,W,D*37
$PSSN,HRP,082950.50,270324,104.368,,-0.748,0.184,,0.299,35,2,8.838,W*32
$GNRMC,082951.00,A,3737.7602517,N,12704.7273048,E,1.4,192.3,270324,8.8,W,D*3A
$PSSN,HRP,082951.00,270324,102.923,,-0.925,0.182,,0.292,35,2,8.838,W*3D
$GNRMC,082951.50,A,3737.7601228,N,12704.7272673,E,0.8,191.8,270324,8.8,W,D*3D
$PSSN,HRP,082951.50,270324,103.661,,-0.602,0.172,,0.292,35,2,8.838,W*35
$GNRMC,082952.00,A,3737.7600498,N,12704.7272428,E,0.4,192.5,270324,8.8,W,D*39
$PSSN,HRP,082952.00,270324,102.545,,-0.751,0.156,,0.291,35,2,8.838,W*35
$GNRMC,082952.50,A,3737.7600566,N,12704.7272433,E,0.2,192.6,270324,8.8,W,D*33
$PSSN,HRP,082952.50,270324,102.466,,-0.876,0.149,,0.292,35,2,8.838,W*37
$GNRMC,082953.00,A,3737.7600813,N,12704.7272479,E,0.2,,270324,8.8,W,D*14
$PSSN,HRP,082953.00,270324,102.396,,-0.734,0.150,,0.290,35,2,8.838,W*38
$GNRMC,082953.50,A,3737.7601321,N,12704.7272662,E,0.8,19.5,270324,8.8,W,D*0B
$PSSN,HRP,082953.50,270324,102.060,,-0.949,0.171,,0.293,35,2,8.838,W*33
$GNRMC,082954.00,A,3737.7602243,N,12704.7273176,E,0.8,23.8,270324,8.8,W,D*08
$PSSN,HRP,082954.00,270324,103.644,,-0.909,0.169,,0.293,35,2,8.838,W*3D
$GNRMC,082954.50,A,3737.7603174,N,12704.7273648,E,0.9,22.7,270324,8.8,W,D*0E
$PSSN,HRP,082954.50,270324,99.378,,-0.519,0.174,,0.294,35,2,8.838,W*06
$GNRMC,082955.00,A,3737.7604476,N,12704.7274146,E,1.3,18.4,270324,8.8,W,D*05
$PSSN,HRP,082955.00,270324,99.089,,-0.359,0.183,,0.297,35,2,8.838,W*06
$GNRMC,082955.50,A,3737.7606217,N,12704.7274681,E,1.2,17.7,270324,8.8,W,D*02
$PSSN,HRP,082955.50,270324,101.185,,-0.281,0.182,,0.295,35,2,8.838,W*39
$GNRMC,082956.00,A,3737.7608164,N,12704.7275170,E,1.5,17.7,270324,8.8,W,D*02
$PSSN,HRP,082956.00,270324,101.103,,0.262,0.182,,0.294,35,2,8.838,W*10
$GNRMC,082956.50,A,3737.7610255,N,12704.7275848,E,1.6,16.9,270324,8.8,W,D*01
$PSSN,HRP,082956.50,270324,101.944,,0.194,0.182,,0.294,35,2,8.838,W*14
$GNRMC,082957.00,A,3737.7612289,N,12704.7276557,E,1.3,18.1,270324,8.8,W,D*05
$PSSN,HRP,082957.00,270324,103.010,,0.736,0.182,,0.295,35,2,8.838,W*15
$GNRMC,082957.50,A,3737.7614065,N,12704.7277156,E,1.4,17.7,270324,8.8,W,D*0C
$PSSN,HRP,082957.50,270324,101.618,,0.221,0.183,,0.295,35,2,8.838,W*1E
$GNRMC,082958.00,A,3737.7616002,N,12704.7277759,E,1.6,17.5,270324,8.8,W,D*0C
$PSSN,HRP,082958.00,270324,103.653,,0.645,0.181,,0.294,35,2,8.838,W*1C
$GNRMC,082958.50,A,3737.7617907,N,12704.7278391,E,1.3,16.3,270324,8.8,W,D*09
$PSSN,HRP,082958.50,270324,102.051,,0.745,0.182,,0.294,35,2,8.838,W*1E
$GNRMC,082959.00,A,3737.7619910,N,12704.7279020,E,1.4,15.0,270324,8.8,W,D*0A
$PSSN,HRP,082959.00,270324,100.543,,0.081,0.182,,0.295,35,2,8.838,W*10
$GNRMC,082959.50,A,3737.7622118,N,12704.7279792,E,1.5,15.5,270324,8.8,W,D*0D
$PSSN,HRP,082959.50,270324,102.917,,0.394,0.183,,0.295,35,2,8.838,W*1C
$GNRMC,083000.00,A,3737.7624050,N,12704.7280525,E,1.3,15.3,270324,8.8,W,D*0F
$PSSN,HRP,083000.00,270324,105.147,,0.713,0.183,,0.293,35,2,8.838,W*1A
$GNRMC,083000.50,A,3737.7625583,N,12704.7281113,E,1.0,15.1,270324,8.8,W,D*01
$PSSN,HRP,083000.50,270324,103.114,,0.695,0.178,,0.293,35,2,8.838,W*14
$GNRMC,083001.00,A,3737.7627061,N,12704.7281623,E,1.3,14.2,270324,8.8,W,D*0B
$PSSN,HRP,083001.00,270324,100.016,,0.291,0.184,,0.296,35,2,8.838,W*16
$GNRMC,083001.50,A,3737.7628728,N,12704.7282005,E,0.9,11.4,270324,8.8,W,D*02
$PSSN,HRP,083001.50,270324,99.997,,0.585,0.176,,0.297,35,2,8.838,W*2C
$GNRMC,083002.00,A,3737.7629829,N,12704.7282165,E,0.7,8.7,270324,8.8,W,D*39
$PSSN,HRP,083002.00,270324,95.494,,0.221,0.168,,0.294,35,2,8.838,W*2D
$GNRMC,083002.50,A,3737.7631284,N,12704.7282364,E,0.9,5.2,270324,8.8,W,D*3D
$PSSN,HRP,083002.50,270324,97.699,,0.460,0.176,,0.300,35,2,8.838,W*25
$GNRMC,083003.00,A,3737.7632294,N,12704.7282547,E,0.5,4.4,270324,8.8,W,D*37
$PSSN,HRP,083003.00,270324,99.786,,0.657,0.165,,0.302,35,2,8.838,W*26
$GNRMC,083003.50,A,3737.7632687,N,12704.7282735,E,0.1,7.6,270324,8.8,W,D*36
$PSSN,HRP,083003.50,270324,99.279,,0.334,0.150,,0.303,35,2,8.838,W*21
$GNRMC,083004.00,A,3737.7632543,N,12704.7282782,E,0.1,7.3,270324,8.8,W,D*36
$PSSN,HRP,083004.00,270324,99.503,,0.051,0.148,,0.301,35,2,8.838,W*22
$GNRMC,083004.50,A,3737.7632487,N,12704.7282737,E,0.0,,270324,8.8,W,D*1F
$PSSN,HRP,083004.50,270324,99.448,,-0.015,0.146,,0.302,35,2,8.838,W*09
$GNRMC,083005.00,A,3737.7632433,N,12704.7282694,E,0.0,,270324,8.8,W,D*1C
$PSSN,HRP,083005.00,270324,99.432,,0.283,0.147,,0.304,35,2,8.838,W*27
$GNRMC,083005.50,A,3737.7632397,N,12704.7282697,E,0.0,,270324,8.8,W,D*13
$PSSN,HRP,083005.50,270324,99.424,,0.348,0.148,,0.306,35,2,8.838,W*2E
$GNRMC,083006.00,A,3737.7632295,N,12704.7282698,E,0.1,,270324,8.8,W,D*18
$PSSN,HRP,083006.00,270324,99.606,,0.115,0.153,,0.309,35,2,8.838,W*25
$GNRMC,083006.50,A,3737.7631831,N,12704.7282584,E,0.5,192.9,270324,8.8,W,D*3D
$PSSN,HRP,083006.50,270324,101.518,,0.230,0.167,,0.313,35,2,8.838,W*14
$GNRMC,083007.00,A,3737.7631144,N,12704.7282318,E,0.5,198.6,270324,8.8,W,D*34
$PSSN,HRP,083007.00,270324,104.751,,0.449,0.167,,0.312,35,2,8.838,W*13
$GNRMC,083007.50,A,3737.7630690,N,12704.7282042,E,0.7,201.6,270324,8.8,W,D*33
$PSSN,HRP,083007.50,270324,108.453,,0.035,0.173,,0.312,35,2,8.838,W*11
$GNRMC,083008.00,A,3737.7629912,N,12704.7281574,E,0.8,202.2,270324,8.8,W,D*3F
$PSSN,HRP,083008.00,270324,109.675,,-0.237,0.177,,0.310,35,2,8.838,W*37
$GNRMC,083008.50,A,3737.7628584,N,12704.7281009,E,1.2,200.2,270324,8.8,W,D*3E
$PSSN,HRP,083008.50,270324,106.758,,-0.060,0.189,,0.308,35,2,8.838,W*3B
$GNRMC,083009.00,A,3737.7626875,N,12704.7280441,E,1.4,197.0,270324,8.8,W,D*37
$PSSN,HRP,083009.00,270324,104.802,,-0.316,0.187,,0.304,35,2,8.838,W*3D
$GNRMC,083009.50,A,3737.7624997,N,12704.7279821,E,1.4,195.8,270324,8.8,W,D*3B
$PSSN,HRP,083009.50,270324,105.412,,-0.126,0.186,,0.300,35,2,8.838,W*30
$GNRMC,083010.00,A,3737.7622895,N,12704.7279270,E,1.5,193.6,270324,8.8,W,D*34
$PSSN,HRP,083010.00,270324,106.953,,-0.142,0.185,,0.298,35,2,8.838,W*37
$GNRMC,083010.50,A,3737.7620692,N,12704.7278771,E,1.8,192.0,270324,8.8,W,D*35
$PSSN,HRP,083010.50,270324,107.342,,-0.337,0.185,,0.295,35,2,8.838,W*34
$GNRMC,083011.00,A,3737.7618101,N,12704.7278090,E,2.1,190.2,270324,8.8,W,D*35
$PSSN,HRP,083011.00,270324,104.605,,-0.300,0.185,,0.294,35,2,8.838,W*30
$GNRMC,083011.50,A,3737.7615374,N,12704.7277459,E,2.0,190.4,270324,8.8,W,D*34
$PSSN,HRP,083011.50,270324,101.682,,-0.447,0.182,,0.293,35,2,8.838,W*3B
$GNRMC,083012.00,A,3737.7612719,N,12704.7276868,E,1.9,192.1,270324,8.8,W,D*38
$PSSN,HRP,083012.00,270324,101.608,,-0.386,0.181,,0.292,35,2,8.838,W*37
$GNRMC,083012.50,A,3737.7609913,N,12704.7276136,E,2.0,190.7,270324,8.8,W,D*3F
$PSSN,HRP,083012.50,270324,101.913,,-0.389,0.182,,0.292,35,2,8.838,W*3B
$GNRMC,083013.00,A,3737.7607337,N,12704.7275423,E,1.8,190.4,270324,8.8,W,D*33
$PSSN,HRP,083013.00,270324,102.752,,-1.153,0.182,,0.292,35,2,8.838,W*33
$GNRMC,083013.50,A,3737.7604992,N,12704.7274738,E,1.9,194.5,270324,8.8,W,D*3C
$PSSN,HRP,083013.50,270324,103.548,,-0.809,0.274,,0.314,35,2,8.838,W*3C
$GNRMC,083014.00,A,3737.7602794,N,12704.7274143,E,1.4,191.2,270324,8.8,W,D*35
$PSSN,HRP,083014.00,270324,100.781,,-0.733,0.274,,0.313,35,2,8.838,W*3B
$GNRMC,083014.50,A,3737.7601467,N,12704.7274117,E,1.0,190.7,270324,8.8,W,D*3D
$PSSN,HRP,083014.50,270324,98.936,,-0.638,0.269,,0.352,35,2,8.838,W*0F
$GNRMC,083015.00,A,3737.7600437,N,12704.7273881,E,0.4,190.6,270324,8.8,W,D*38
$PSSN,HRP,083015.00,270324,98.698,,-0.583,0.230,,0.390,35,2,8.838,W*01
$GNRMC,083015.50,A,3737.7600533,N,12704.7274051,E,0.4,186.9,270324,8.8,W,D*32
$PSSN,HRP,083015.50,270324,98.700,,-0.586,0.203,,0.420,35,2,8.838,W*0D
$GNRMC,083016.00,A,3737.7601416,N,12704.7274402,E,1.1,21.7,270324,8.8,W,D*07
$PSSN,HRP,083016.00,270324,100.812,,-0.721,0.209,,0.386,35,2,8.838,W*39
$GNRMC,083016.50,A,3737.7602784,N,12704.7274916,E,1.3,16.6,270324,8.8,W,D*06
$PSSN,HRP,083016.50,270324,101.724,,-0.343,0.193,,0.327,35,2,8.838,W*3C
$GNRMC,083017.00,A,3737.7604367,N,12704.7275659,E,1.3,18.7,270324,8.8,W,D*07
$PSSN,HRP,083017.00,270324,100.728,,-0.074,0.183,,0.294,35,2,8.838,W*3A
$GNRMC,083017.50,A,3737.7606218,N,12704.7276327,E,1.4,17.0,270324,8.8,W,D*09
$PSSN,HRP,083017.50,270324,99.835,,0.116,0.181,,0.292,35,2,8.838,W*21
$GNRMC,083018.00,A,3737.7607974,N,12704.7276879,E,1.5,15.4,270324,8.8,W,D*04
$PSSN,HRP,083018.00,270324,95.633,,0.597,0.184,,0.293,35,2,8.838,W*26
$GNRMC,083018.50,A,3737.7610084,N,12704.7277384,E,1.7,13.3,270324,8.8,W,D*0A
$PSSN,HRP,083018.50,270324,95.489,,0.188,0.184,,0.294,35,2,8.838,W*2D
$GNRMC,083019.00,A,3737.7612521,N,12704.7277932,E,1.8,10.5,270324,8.8,W,D*0B
$PSSN,HRP,083019.00,270324,96.728,,0.569,0.185,,0.297,35,2,8.838,W*2B
$GNRMC,083019.50,A,3737.7614780,N,12704.7278446,E,1.6,10.6,270324,8.8,W,D*0D
$PSSN,HRP,083019.50,270324,97.761,,0.120,0.183,,0.297,35,2,8.838,W*2D
$GNRMC,083020.00,A,3737.7617090,N,12704.7279040,E,1.6,15.3,270324,8.8,W,D*04
$PSSN,HRP,083020.00,270324,100.023,,0.159,0.183,,0.295,35,2,8.838,W*10
$GNRMC,083020.50,A,3737.7619359,N,12704.7279715,E,1.8,12.3,270324,8.8,W,D*07
$PSSN,HRP,083020.50,270324,100.674,,0.592,0.182,,0.294,35,2,8.838,W*12
$GNRMC,083021.00,A,3737.7621613,N,12704.7280512,E,1.7,14.2,270324,8.8,W,D*08
$PSSN,HRP,083021.00,270324,101.760,,0.767,0.183,,0.293,35,2,8.838,W*1D
$GNRMC,083021.50,A,3737.7623628,N,12704.7281220,E,1.6,13.9,270324,8.8,W,D*0D
$PSSN,HRP,083021.50,270324,101.752,,0.888,0.184,,0.294,35,2,8.838,W*17
$GNRMC,083022.00,A,3737.7625552,N,12704.7281905,E,1.5,13.4,270324,8.8,W,D*01
$PSSN,HRP,083022.00,270324,101.744,,0.539,0.184,,0.296,35,2,8.838,W*13
$GNRMC,083022.50,A,3737.7627446,N,12704.7282437,E,1.4,13.5,270324,8.8,W,D*0D
$PSSN,HRP,083022.50,270324,100.831,,0.288,0.185,,0.299,35,2,8.838,W*19
$GNRMC,083023.00,A,3737.7629334,N,12704.7282901,E,1.2,12.1,270324,8.8,W,D*0E
$PSSN,HRP,083023.00,270324,100.180,,0.553,0.183,,0.299,35,2,8.838,W*19
$GNRMC,083023.50,A,3737.7630526,N,12704.7283012,E,0.7,10.0,270324,8.8,W,D*0B
$PSSN,HRP,083023.50,270324,98.097,,0.374,0.168,,0.298,35,2,8.838,W*2C
$GNRMC,083024.00,A,3737.7631320,N,12704.7282965,E,0.6,7.6,270324,8.8,W,D*31
$PSSN,HRP,083024.00,270324,96.584,,0.112,0.166,,0.298,35,2,8.838,W*2B
$GNRMC,083024.50,A,3737.7631951,N,12704.7282988,E,0.2,6.9,270324,8.8,W,D*31
$PSSN,HRP,083024.50,270324,97.483,,0.096,0.153,,0.298,35,2,8.838,W*22
$GNRMC,083025.00,A,3737.7632302,N,12704.7283022,E,0.0,6.5,270324,8.8,W,D*3C
$PSSN,HRP,083025.00,270324,98.183,,0.054,0.147,,0.300,35,2,8.838,W*27
$GNRMC,083025.50,A,3737.7632377,N,12704.7283037,E,0.1,,270324,8.8,W,D*13
$PSSN,HRP,083025.50,270324,98.387,,0.319,0.151,,0.304,35,2,8.838,W*2D
$GNRMC,083026.00,A,3737.7632423,N,12704.7283063,E,0.0,,270324,8.8,W,D*13
$PSSN,HRP,083026.00,270324,98.295,,0.255,0.147,,0.303,34,2,8.838,W*21
$GNRMC,083026.50,A,3737.7632400,N,12704.7283032,E,0.0,,270324,8.8,W,D*13
$PSSN,HRP,083026.50,270324,98.426,,0.228,0.148,,0.306,33,2,8.838,W*2D
$GNRMC,083027.00,A,3737.7632392,N,12704.7283006,E,0.2,,270324,8.8,W,D*1E
$PSSN,HRP,083027.00,270324,98.929,,0.244,0.158,,0.312,33,2,8.838,W*25
$GNRMC,083027.50,A,3737.7632304,N,12704.7282943,E,0.1,,270324,8.8,W,D*1E
$PSSN,HRP,083027.50,270324,99.440,,0.063,0.152,,0.317,34,2,8.838,W*2C
$GNRMC,083028.00,A,3737.7632076,N,12704.7282805,E,0.2,,270324,8.8,W,D*12
$PSSN,HRP,083028.00,270324,101.222,,0.049,0.156,,0.316,34,2,8.838,W*19
$GNRMC,083028.50,A,3737.7631672,N,12704.7282512,E,0.3,204.5,270324,8.8,W,D*31
$PSSN,HRP,083028.50,270324,108.386,,0.776,0.160,,0.315,34,2,8.838,W*17
$GNRMC,083029.00,A,3737.7630966,N,12704.7282072,E,0.7,205.5,270324,8.8,W,D*38
$PSSN,HRP,083029.00,270324,111.179,,0.447,0.173,,0.315,34,2,8.838,W*1A
$GNRMC,083029.50,A,3737.7629541,N,12704.7281289,E,1.4,203.4,270324,8.8,W,D*3C
