$GNRMC,084114.50,A,3737.7552187,N,12704.7381257,E,0.0,,270324,8.8,W,D*19
$PSSN,HRP,084114.50,270324,296.966,,6.257,0.276,,0.684,19,2,8.838,W*18
$GNRMC,084115.00,A,3737.7552194,N,12704.7381280,E,0.0,,270324,8.8,W,D*15
$PSSN,HRP,084115.00,270324,296.920,,6.102,0.275,,0.690,19,2,8.838,W*1B
$GNRMC,084115.50,A,3737.7552199,N,12704.7381266,E,0.0,,270324,8.8,W,D*15
$PSSN,HRP,084115.50,270324,296.886,,6.159,0.274,,0.688,22,2,8.838,W*1D
$GNRMC,084116.00,A,3737.7552223,N,12704.7381270,E,0.0,,270324,8.8,W,D*16
$PSSN,HRP,084116.00,270324,296.837,,6.078,0.274,,0.689,22,2,8.838,W*12
$GNRMC,084116.50,A,3737.7552208,N,12704.7381295,E,0.0,,270324,8.8,W,D*11
$PSSN,HRP,084116.50,270324,296.946,,6.043,0.273,,0.680,22,2,8.838,W*16
$GNRMC,084117.00,A,3737.7552201,N,12704.7381288,E,0.0,,270324,8.8,W,D*10
$PSSN,HRP,084117.00,270324,296.900,,6.129,0.269,,0.650,22,2,8.838,W*1B
$GNRMC,084117.50,A,3737.7552209,N,12704.7381267,E,0.0,,270324,8.8,W,D*1C
$PSSN,HRP,084117.50,270324,296.845,,6.208,0.268,,0.633,22,2,8.838,W*1A
$GNRMC,084118.00,A,3737.7552194,N,12704.7381272,E,0.0,,270324,8.8,W,D*15
$PSSN,HRP,084118.00,270324,296.871,,6.257,0.265,,0.626,22,2,8.838,W*14
$GNRMC,084118.50,A,3737.7552193,N,12704.7381272,E,0.0,,270324,8.8,W,D*17
$PSSN,HRP,084118.50,270324,296.872,,6.225,0.265,,0.625,22,2,8.838,W*14
$GNRMC,084119.00,A,3737.7552183,N,12704.7381330,E,0.0,,270324,8.8,W,D*15
$PSSN,HRP,084119.00,270324,296.906,,6.164,0.267,,0.625,22,2,8.838,W*16
$GNRMC,084119.50,A,3737.7552172,N,12704.7381321,E,0.0,,270324,8.8,W,D*1E
$PSSN,HRP,084119.50,270324,296.840,,6.312,0.266,,0.619,22,2,8.838,W*1D
$GNRMC,084120.00,A,3737.7552171,N,12704.7381298,E,0.0,,270324,8.8,W,D*11
$PSSN,HRP,084120.00,270324,296.843,,6.315,0.264,,0.615,22,2,8.838,W*18
$GNRMC,084120.50,A,3737.7552183,N,12704.7381295,E,0.0,,270324,8.8,W,D*14
$PSSN,HRP,084120.50,270324,296.820,,6.298,0.264,,0.611,22,2,8.838,W*18
$GNRMC,084121.00,A,3737.7552191,N,12704.7381301,E,0.0,,270324,8.8,W,D*1F
$PSSN,HRP,084121.00,270324,296.741,,6.391,0.263,,0.609,22,2,8.838,W*12
$GNRMC,084121.50,A,3737.7552185,N,12704.7381333,E,0.0,,270324,8.8,W,D*1E
$PSSN,HRP,084121.50,270324,296.770,,6.342,0.264,,0.610,22,2,8.838,W*14
$GNRMC,084122.00,A,3737.7552182,N,12704.7381326,E,0.0,,270324,8.8,W,D*1B
$PSSN,HRP,084122.00,270324,296.857,,6.402,0.263,,0.611,21,2,8.838,W*1E
$GNRMC,084122.50,A,3737.7552192,N,12704.7381368,E,0.0,,270324,8.8,W,D*15
$PSSN,HRP,084122.50,270324,296.640,,6.423,0.261,,0.612,21,2,8.838,W*11
$GNRMC,084123.00,A,3737.7552181,N,12704.7381399,E,0.0,,270324,8.8,W,D*1D
$PSSN,HRP,084123.00,270324,296.831,,6.429,0.264,,0.620,20,2,8.838,W*12
$GNRMC,084123.50,A,3737.7552178,N,12704.7381384,E,0.0,,270324,8.8,W,D*12
$PSSN,HRP,084123.50,270324,296.896,,6.046,0.266,,0.637,20,2,8.838,W*13
$GNRMC,084124.00,A,3737.7552159,N,12704.7381312,E,0.0,,270324,8.8,W,D*1C
$PSSN,HRP,084124.00,270324,296.993,,5.689,0.274,,0.661,20,2,8.838,W*13
$GNRMC,084124.50,A,3737.7552177,N,12704.7381291,E,0.0,,270324,8.8,W,D*1F
$PSSN,HRP,084124.50,270324,296.963,,5.840,0.283,,0.690,20,2,8.838,W*14
$GNRMC,084125.00,A,3737.7552198,N,12704.7381307,E,0.0,,270324,8.8,W,D*14
$PSSN,HRP,084125.00,270324,296.882,,5.995,0.284,,0.697,20,2,8.838,W*17
$GNRMC,084125.50,A,3737.7552188,N,12704.7381340,E,0.0,,270324,8.8,W,D*13
$PSSN,HRP,084125.50,270324,296.841,,6.027,0.277,,0.686,20,2,8.838,W*12
$GNRMC,084126.00,A,3737.7552175,N,12704.7381374,E,0.0,,270324,8.8,W,D*10
$PSSN,HRP,084126.00,270324,296.878,,6.040,0.275,,0.665,20,2,8.838,W*10
$GNRMC,084126.50,A,3737.7552176,N,12704.7381332,E,0.0,,270324,8.8,W,D*14
$PSSN,HRP,084126.50,270324,296.888,,5.947,0.274,,0.662,20,2,8.838,W*11
$GNRMC,084127.00,A,3737.7552181,N,12704.7381357,E,0.0,,270324,8.8,W,D*1B
$PSSN,HRP,084127.00,270324,296.889,,5.853,0.273,,0.661,20,2,8.838,W*14
$GNRMC,084127.50,A,3737.7552182,N,12704.7381300,E,0.0,,270324,8.8,W,D*1F
$PSSN,HRP,084127.50,270324,296.830,,6.256,0.272,,0.657,20,2,8.838,W*1B
$GNRMC,084128.00,A,3737.7552189,N,12704.7381283,E,0.0,,270324,8.8,W,D*14
$PSSN,HRP,084128.00,270324,296.879,,6.391,0.274,,0.659,20,2,8.838,W*1E
$GNRMC,084128.50,A,3737.7552192,N,12704.7381298,E,0.0,,270324,8.8,W,D*11
$PSSN,HRP,084128.50,270324,296.870,,6.165,0.277,,0.664,20,2,8.838,W*16
$GNRMC,084129.00,A,3737.7552203,N,12704.7381312,E,0.0,,270324,8.8,W,D*1D
$PSSN,HRP,084129.00,270324,296.836,,6.176,0.277,,0.661,20,2,8.838,W*17
$GNRMC,084129.50,A,3737.7552195,N,12704.7381377,E,0.0,,270324,8.8,W,D*17
$PSSN,HRP,084129.50,270324,296.785,,6.258,0.274,,0.656,20,2,8.838,W*1D
$GNRMC,084130.00,A,3737.7552179,N,12704.7381394,E,0.0,,270324,8.8,W,D*15
$PSSN,HRP,084130.00,270324,296.832,,6.392,0.273,,0.652,20,2,8.838,W*17
$GNRMC,084130.50,A,3737.7552183,N,12704.7381381,E,0.0,,270324,8.8,W,D*11
$PSSN,HRP,084130.50,270324,296.808,,6.381,0.273,,0.655,20,2,8.838,W*1E
$GNRMC,084131.00,A,3737.7552167,N,12704.7381391,E,0.0,,270324,8.8,W,D*1E
$PSSN,HRP,084131.00,270324,296.826,,6.212,0.274,,0.663,20,2,8.838,W*1F
$GNRMC,084131.50,A,3737.7552208,N,12704.7381240,E,0.1,,270324,8.8,W,D*1D
$PSSN,HRP,084131.50,270324,296.813,,6.447,0.275,,0.668,20,2,8.838,W*10
$GNRMC,084132.00,A,3737.7552255,N,12704.7381143,E,0.1,,270324,8.8,W,D*13
$PSSN,HRP,084132.00,270324,296.648,,6.459,0.283,,0.669,18,2,8.838,W*1A
$GNRMC,084132.50,A,3737.7552208,N,12704.7381305,E,0.1,,270324,8.8,W,D*1E
$PSSN,HRP,084132.50,270324,296.698,,6.241,0.281,,0.670,20,2,8.838,W*1C
$GNRMC,084133.00,A,3737.7552181,N,12704.7381338,E,0.1,,270324,8.8,W,D*16
$PSSN,HRP,084133.00,270324,296.881,,5.911,0.276,,0.669,20,2,8.838,W*13
$GNRMC,084133.50,A,3737.7552154,N,12704.7381436,E,0.0,,270324,8.8,W,D*13
$PSSN,HRP,084133.50,270324,297.113,,5.693,0.277,,0.677,22,2,8.838,W*1C
$GNRMC,084134.00,A,3737.7552154,N,12704.7381252,E,0.1,,270324,8.8,W,D*14
$PSSN,HRP,084134.00,270324,296.985,,5.590,0.288,,0.694,22,2,8.838,W*15
$GNRMC,084134.50,A,3737.7552134,N,12704.7381330,E,0.0,,270324,8.8,W,D*13
$PSSN,HRP,084134.50,270324,297.576,,5.728,0.295,,0.698,21,2,8.838,W*13
$GNRMC,084135.00,A,3737.7552151,N,12704.7381383,E,0.0,,270324,8.8,W,D*1C
$PSSN,HRP,084135.00,270324,297.391,,6.003,0.284,,0.676,20,2,8.838,W*14
$GNRMC,084135.50,A,3737.7552167,N,12704.7381320,E,0.0,,270324,8.8,W,D*15
$PSSN,HRP,084135.50,270324,297.285,,6.005,0.283,,0.670,21,2,8.838,W*13
$GNRMC,084136.00,A,3737.7552194,N,12704.7381254,E,0.1,,270324,8.8,W,D*1C
$PSSN,HRP,084136.00,270324,297.078,,5.890,0.280,,0.682,20,2,8.838,W*1D
$GNRMC,084136.50,A,3737.7552068,N,12704.7381355,E,0.1,,270324,8.8,W,D*1B
$PSSN,HRP,084136.50,270324,297.266,,5.806,0.288,,0.726,19,2,8.838,W*17
$GNRMC,084137.00,A,3737.7551963,N,12704.7381682,E,0.3,,270324,8.8,W,D*13
$PSSN,HRP,084137.00,270324,297.059,,6.028,0.308,,0.834,18,2,8.838,W*1E
$GNRMC,084137.50,A,3737.7552106,N,12704.7381385,E,0.1,,270324,8.8,W,D*1E
$PSSN,HRP,084137.50,270324,296.971,,5.919,0.306,,0.876,19,2,8.838,W*18
$GNRMC,084138.00,A,3737.7552150,N,12704.7381393,E,0.0,,270324,8.8,W,D*11
$PSSN,HRP,084138.00,270324,296.791,,5.750,0.293,,0.738,18,2,8.838,W*18
$GNRMC,084138.50,A,3737.7552051,N,12704.7381596,E,0.0,,270324,8.8,W,D*17
$PSSN,HRP,084138.50,270324,296.712,,6.148,0.296,,0.725,19,2,8.838,W*12
$GNRMC,084139.00,A,3737.7551971,N,12704.7381677,E,0.1,,270324,8.8,W,D*16
$PSSN,HRP,084139.00,270324,296.871,,6.324,0.297,,0.717,18,2,8.838,W*15
$GNRMC,084139.50,A,3737.7552269,N,12704.7380887,E,0.1,,270324,8.8,W,D*12
$PSSN,HRP,084139.50,270324,296.556,,6.132,0.296,,0.701,20,2,8.838,W*10
$GNRMC,084140.00,A,3737.7552307,N,12704.7380833,E,0.1,,270324,8.8,W,D*1F
$PSSN,HRP,084140.00,270324,296.740,,6.415,0.294,,0.672,20,2,8.838,W*19
$GNRMC,084140.50,A,3737.7552270,N,12704.7381003,E,0.1,,270324,8.8,W,D*11
$PSSN,HRP,084140.50,270324,296.703,,6.112,0.281,,0.679,21,2,8.838,W*17
$GNRMC,084141.00,A,3737.7552126,N,12704.7381381,E,0.0,,270324,8.8,W,D*1D
$PSSN,HRP,084141.00,270324,296.889,,5.771,0.284,,0.716,21,2,8.838,W*13
$GNRMC,084141.50,A,3737.7552104,N,12704.7381483,E,0.0,,270324,8.8,W,D*1D
$PSSN,HRP,084141.50,270324,296.849,,5.994,0.281,,0.730,21,2,8.838,W*1E
$GNRMC,084142.00,A,3737.7552101,N,12704.7381484,E,0.0,,270324,8.8,W,D*19
$PSSN,HRP,084142.00,270324,296.745,,6.467,0.277,,0.690,21,2,8.838,W*1B
$GNRMC,084142.50,A,3737.7552103,N,12704.7381505,E,0.0,,270324,8.8,W,D*16
$PSSN,HRP,084142.50,270324,296.777,,6.586,0.275,,0.679,21,2,8.838,W*14
$GNRMC,084143.00,A,3737.7552105,N,12704.7381489,E,0.0,,270324,8.8,W,D*11
$PSSN,HRP,084143.00,270324,296.750,,6.722,0.273,,0.669,21,2,8.838,W*1E
$GNRMC,084143.50,A,3737.7552102,N,12704.7381501,E,0.0,,270324,8.8,W,D*12
$PSSN,HRP,084143.50,270324,296.806,,6.794,0.272,,0.666,22,2,8.838,W*17
$GNRMC,084144.00,A,3737.7552102,N,12704.7381481,E,0.0,,270324,8.8,W,D*19
$PSSN,HRP,084144.00,270324,296.913,,6.604,0.272,,0.667,22,2,8.838,W*19
$GNRMC,084144.50,A,3737.7552120,N,12704.7381473,E,0.0,,270324,8.8,W,D*11
$PSSN,HRP,084144.50,270324,296.870,,6.593,0.271,,0.668,22,2,8.838,W*19
$GNRMC,084145.00,A,3737.7552128,N,12704.7381421,E,0.0,,270324,8.8,W,D*1A
$PSSN,HRP,084145.00,270324,296.927,,6.657,0.273,,0.669,22,2,8.838,W*16
$GNRMC,084145.50,A,3737.7552120,N,12704.7381386,E,0.0,,270324,8.8,W,D*1D
$PSSN,HRP,084145.50,270324,296.964,,6.711,0.272,,0.667,23,2,8.838,W*19
$GNRMC,084146.00,A,3737.7552130,N,12704.7381394,E,0.0,,270324,8.8,W,D*19
$PSSN,HRP,084146.00,270324,296.880,,6.816,0.268,,0.655,23,2,8.838,W*16
$GNRMC,084146.50,A,3737.7552145,N,12704.7381316,E,0.0,,270324,8.8,W,D*14
$PSSN,HRP,084146.50,270324,296.927,,6.732,0.268,,0.653,23,2,8.838,W*10
$GNRMC,084147.00,A,3737.7552202,N,12704.7381010,E,0.2,,270324,8.8,W,D*17
$PSSN,HRP,084147.00,270324,296.885,,6.848,0.279,,0.652,22,2,8.838,W*1F
$GNRMC,084147.50,A,3737.7552172,N,12704.7381021,E,0.1,,270324,8.8,W,D*17
$PSSN,HRP,084147.50,270324,296.908,,6.539,0.270,,0.644,23,2,8.838,W*1A
$GNRMC,084148.00,A,3737.7552177,N,12704.7380938,E,0.1,,270324,8.8,W,D*18
$PSSN,HRP,084148.00,270324,296.835,,6.411,0.264,,0.631,22,2,8.838,W*12
$GNRMC,084148.50,A,3737.7552117,N,12704.7380945,E,0.1,,270324,8.8,W,D*11
$PSSN,HRP,084148.50,270324,298.084,,6.342,0.276,,0.622,21,2,8.838,W*18
$GNRMC,084149.00,A,3737.7551603,N,12704.7380470,E,0.9,216.6,270324,8.8,W,D*3A
$PSSN,HRP,084149.00,270324,301.434,,6.099,0.325,,0.621,21,2,8.838,W*13
$GNRMC,084149.50,A,3737.7550593,N,12704.7379526,E,1.2,216.5,270324,8.8,W,D*39
$PSSN,HRP,084149.50,270324,306.939,,5.027,0.365,,0.650,20,2,8.838,W*14
$GNRMC,084150.00,A,3737.7549494,N,12704.7378963,E,1.2,210.6,270324,8.8,W,D*33
$PSSN,HRP,084150.00,270324,312.663,,4.655,0.401,,0.683,18,2,8.838,W*1E
$GNRMC,084150.50,A,3737.7547962,N,12704.7377560,E,1.4,222.2,270324,8.8,W,D*3F
$PSSN,HRP,084150.50,270324,324.337,,2.960,0.561,,0.766,16,2,8.838,W*16
$GNRMC,084151.00,A,3737.7546352,N,12704.7375827,E,1.4,216.9,270324,8.8,W,D*33
$PSSN,HRP,084151.00,270324,339.614,,2.198,0.723,,0.844,16,2,8.838,W*1E
$GNRMC,084151.50,A,3737.7544896,N,12704.7373717,E,1.6,225.7,270324,8.8,W,D*31
$PSSN,HRP,084151.50,270324,353.098,,0.812,0.790,,0.918,20,2,8.838,W*19
$GNRMC,084152.00,A,3737.7543741,N,12704.7371468,E,1.3,245.5,270324,8.8,W,D*3D
$PSSN,HRP,084152.00,270324,12.626,,-0.965,0.901,,1.023,18,2,8.838,W*0B
$GNRMC,084152.50,A,3737.7543443,N,12704.7370124,E,1.0,255.1,270324,8.8,W,D*33
$PSSN,HRP,084152.50,270324,33.625,,-1.259,0.863,,1.140,14,2,8.838,W*06
$GNRMC,084153.00,A,3737.7543415,N,12704.7368194,E,0.8,261.4,270324,8.8,W,D*3D
$PSSN,HRP,084153.00,270324,47.002,,-1.838,0.666,,1.229,15,2,8.838,W*09
$GNRMC,084153.50,A,3737.7543389,N,12704.7366292,E,1.1,265.7,270324,8.8,W,D*3E
$PSSN,HRP,084153.50,270324,53.429,,-1.621,0.619,,1.208,16,2,8.838,W*0A
$GNRMC,084154.00,A,3737.7543406,N,12704.7364723,E,1.0,269.7,270324,8.8,W,D*3C
$PSSN,HRP,084154.00,270324,52.077,,0.235,0.613,,1.182,16,2,8.838,W*20
$GNRMC,084154.50,A,3737.7543713,N,12704.7363929,E,0.6,279.9,270324,8.8,W,D*35
$PSSN,HRP,084154.50,270324,47.989,,-0.814,0.729,,1.372,17,2,8.838,W*09
$GNRMC,084155.00,A,3737.7543982,N,12704.7362959,E,0.6,284.6,270324,8.8,W,D*3C
$PSSN,HRP,084155.00,270324,41.964,,0.998,1.049,,1.874,17,2,8.838,W*2D
$GNRMC,084155.50,A,3737.7544575,N,12704.7361356,E,1.0,293.7,270324,8.8,W,D*3C
$PSSN,HRP,084155.50,270324,39.100,,0.355,1.190,,1.913,18,2,8.838,W*2C
$GNRMC,084156.00,A,3737.7545648,N,12704.7359352,E,1.4,305.5,270324,8.8,W,D*31
$PSSN,HRP,084156.00,270324,49.007,,1.140,0.519,,0.751,18,2,8.838,W*21
$GNRMC,084156.50,A,3737.7546481,N,12704.7357577,E,1.0,303.1,270324,8.8,W,D*39
$PSSN,HRP,084156.50,270324,65.755,,1.217,0.387,,0.733,21,2,8.838,W*24
$GNRMC,084157.00,A,3737.7546254,N,12704.7356663,E,0.7,281.0,270324,8.8,W,D*38
$PSSN,HRP,084157.00,270324,80.179,,1.245,0.349,,0.769,21,2,8.838,W*29
$GNRMC,084157.50,A,3737.7544891,N,12704.7355741,E,1.6,200.0,270324,8.8,W,D*37
$PSSN,HRP,084157.50,270324,88.392,,1.129,0.367,,0.778,24,2,8.838,W*23
$GNRMC,084158.00,A,3737.7542366,N,12704.7354880,E,2.0,193.5,270324,8.8,W,D*32
$PSSN,HRP,084158.00,270324,89.584,,1.151,0.371,,0.790,23,2,8.838,W*20
$GNRMC,084158.50,A,3737.7539702,N,12704.7354032,E,1.9,196.4,270324,8.8,W,D*32
$PSSN,HRP,084158.50,270324,90.483,,1.301,0.408,,0.787,21,2,8.838,W*21
$GNRMC,084159.00,A,3737.7537196,N,12704.7353230,E,2.0,193.3,270324,8.8,W,D*3C
$PSSN,HRP,084159.00,270324,91.254,,1.417,0.414,,0.759,21,2,8.838,W*26
$GNRMC,084159.50,A,3737.7534333,N,12704.7352324,E,2.2,195.4,270324,8.8,W,D*31
$PSSN,HRP,084159.50,270324,92.020,,1.880,0.381,,0.758,27,2,8.838,W*2F
$GNRMC,084200.00,A,3737.7531296,N,12704.7351556,E,2.5,189.5,270324,8.8,W,D*3B
$PSSN,HRP,084200.00,270324,93.054,,1.972,0.386,,0.766,27,2,8.838,W*21
$GNRMC,084200.50,A,3737.7527877,N,12704.7350765,E,2.5,189.5,270324,8.8,W,D*3F
$PSSN,HRP,084200.50,270324,91.996,,1.905,0.379,,0.759,27,2,8.838,W*2D
$GNRMC,084201.00,A,3737.7524629,N,12704.7350024,E,2.3,191.0,270324,8.8,W,D*35
$PSSN,HRP,084201.00,270324,91.604,,1.639,0.363,,0.720,27,2,8.838,W*28
$GNRMC,084201.50,A,3737.7521532,N,12704.7349360,E,2.1,191.2,270324,8.8,W,D*37
$PSSN,HRP,084201.50,270324,92.900,,1.727,0.279,,0.714,28,2,8.838,W*29
$GNRMC,084202.00,A,3737.7518774,N,12704.7348559,E,2.1,193.3,270324,8.8,W,D*35
$PSSN,HRP,084202.00,270324,95.174,,1.865,0.290,,0.714,28,2,8.838,W*2D
$GNRMC,084202.50,A,3737.7515653,N,12704.7347735,E,2.2,192.3,270324,8.8,W,D*3C
$PSSN,HRP,084202.50,270324,95.411,,1.450,0.283,,0.668,27,2,8.838,W*23
$GNRMC,084203.00,A,3737.7512764,N,12704.7346865,E,2.1,192.3,270324,8.8,W,D*32
$PSSN,HRP,084203.00,270324,95.377,,1.257,0.236,,0.512,27,2,8.838,W*21
$GNRMC,084203.50,A,3737.7509568,N,12704.7346014,E,2.4,192.9,270324,8.8,W,D*32
$PSSN,HRP,084203.50,270324,94.324,,1.229,0.232,,0.507,29,2,8.838,W*24
$GNRMC,084204.00,A,3737.7506568,N,12704.7345270,E,2.0,193.1,270324,8.8,W,D*31
$PSSN,HRP,084204.00,270324,94.256,,1.369,0.232,,0.510,29,2,8.838,W*21
$GNRMC,084204.50,A,3737.7503344,N,12704.7344441,E,2.4,192.2,270324,8.8,W,D*3A
$PSSN,HRP,084204.50,270324,94.404,,1.512,0.232,,0.503,29,2,8.838,W*2D
$GNRMC,084205.00,A,3737.7500220,N,12704.7343600,E,2.1,194.4,270324,8.8,W,D*3B
$PSSN,HRP,084205.00,270324,94.765,,1.372,0.234,,0.482,29,2,8.838,W*23
$GNRMC,084205.50,A,3737.7497063,N,12704.7342703,E,2.6,192.4,270324,8.8,W,D*36
$PSSN,HRP,084205.50,270324,95.462,,1.333,0.234,,0.481,29,2,8.838,W*25
$GNRMC,084206.00,A,3737.7493862,N,12704.7341720,E,2.3,194.7,270324,8.8,W,D*3F
$PSSN,HRP,084206.00,270324,95.559,,1.156,0.234,,0.480,29,2,8.838,W*2A
$GNRMC,084206.50,A,3737.7490604,N,12704.7340719,E,2.7,192.6,270324,8.8,W,D*3F
$PSSN,HRP,084206.50,270324,93.897,,1.179,0.235,,0.482,29,2,8.838,W*28
$GNRMC,084207.00,A,3737.7487241,N,12704.7339748,E,2.4,192.3,270324,8.8,W,D*34
$PSSN,HRP,084207.00,270324,90.376,,1.237,0.230,,0.483,29,2,8.838,W*26
$GNRMC,084207.50,A,3737.7483820,N,12704.7338930,E,2.7,189.5,270324,8.8,W,D*37
$PSSN,HRP,084207.50,270324,86.215,,1.670,0.225,,0.487,29,2,8.838,W*27
$GNRMC,084208.00,A,3737.7480412,N,12704.7338189,E,2.4,192.8,270324,8.8,W,D*3D
$PSSN,HRP,084208.00,270324,82.131,,1.708,0.219,,0.491,29,2,8.838,W*2A
$GNRMC,084208.50,A,3737.7477118,N,12704.7337332,E,2.6,189.0,270324,8.8,W,D*32
$PSSN,HRP,084208.50,270324,79.956,,1.866,0.215,,0.492,29,2,8.838,W*2A
$GNRMC,084209.00,A,3737.7473654,N,12704.7336573,E,2.5,190.8,270324,8.8,W,D*3C
$PSSN,HRP,084209.00,270324,76.587,,2.153,0.211,,0.486,29,2,8.838,W*2C
$GNRMC,084209.50,A,3737.7470387,N,12704.7335770,E,2.4,190.0,270324,8.8,W,D*3A
$PSSN,HRP,084209.50,270324,73.546,,1.959,0.208,,0.487,30,2,8.838,W*21
$GNRMC,084210.00,A,3737.7467137,N,12704.7335015,E,2.3,192.4,270324,8.8,W,D*3D
$PSSN,HRP,084210.00,270324,71.151,,1.887,0.205,,0.489,30,2,8.838,W*2D
$GNRMC,084210.50,A,3737.7464182,N,12704.7334237,E,2.2,191.5,270324,8.8,W,D*35
$PSSN,HRP,084210.50,270324,70.737,,2.200,0.205,,0.459,31,2,8.838,W*25
$GNRMC,084211.00,A,3737.7461020,N,12704.7333580,E,2.3,189.9,270324,8.8,W,D*35
$PSSN,HRP,084211.00,270324,69.213,,2.067,0.196,,0.346,31,2,8.838,W*29
$GNRMC,084211.50,A,3737.7457956,N,12704.7332903,E,2.1,189.9,270324,8.8,W,D*39
$PSSN,HRP,084211.50,270324,67.853,,2.102,0.199,,0.343,31,2,8.838,W*24
$GNRMC,084212.00,A,3737.7454754,N,12704.7332287,E,2.3,188.9,270324,8.8,W,D*34
$PSSN,HRP,084212.00,270324,66.044,,2.195,0.291,,0.362,31,2,8.838,W*2B
$GNRMC,084212.50,A,3737.7451600,N,12704.7331551,E,2.3,193.5,270324,8.8,W,D*3D
$PSSN,HRP,084212.50,270324,69.016,,2.508,0.285,,0.367,33,2,8.838,W*24
$GNRMC,084213.00,A,3737.7448577,N,12704.7330625,E,2.2,194.2,270324,8.8,W,D*32
$PSSN,HRP,084213.00,270324,73.755,,2.218,0.305,,0.406,32,2,8.838,W*25
$GNRMC,084213.50,A,3737.7445650,N,12704.7329551,E,2.1,198.2,270324,8.8,W,D*3B
$PSSN,HRP,084213.50,270324,80.230,,2.055,0.311,,0.437,31,2,8.838,W*25
$GNRMC,084214.00,A,3737.7442461,N,12704.7328498,E,2.6,192.8,270324,8.8,W,D*3C
$PSSN,HRP,084214.00,270324,82.749,,1.940,0.234,,0.445,31,2,8.838,W*23
$GNRMC,084214.50,A,3737.7439320,N,12704.7327474,E,2.2,195.0,270324,8.8,W,D*31
$PSSN,HRP,084214.50,270324,82.409,,1.764,0.230,,0.423,29,2,8.838,W*24
$GNRMC,084215.00,A,3737.7436455,N,12704.7326514,E,2.2,193.0,270324,8.8,W,D*3F
$PSSN,HRP,084215.00,270324,81.723,,2.118,0.205,,0.354,29,2,8.838,W*27
$GNRMC,084215.50,A,3737.7433642,N,12704.7325561,E,2.0,194.8,270324,8.8,W,D*37
$PSSN,HRP,084215.50,270324,81.114,,1.832,0.208,,0.355,30,2,8.838,W*26
$GNRMC,084216.00,A,3737.7430757,N,12704.7324657,E,2.4,192.4,270324,8.8,W,D*3E
$PSSN,HRP,084216.00,270324,80.801,,1.835,0.205,,0.355,30,2,8.838,W*26
$GNRMC,084216.50,A,3737.7427631,N,12704.7323818,E,2.3,191.8,270324,8.8,W,D*36
$PSSN,HRP,084216.50,270324,79.224,,1.852,0.205,,0.354,31,2,8.838,W*29
$GNRMC,084217.00,A,3737.7424587,N,12704.7322942,E,2.3,192.8,270324,8.8,W,D*33
$PSSN,HRP,084217.00,270324,78.567,,1.850,0.207,,0.349,31,2,8.838,W*20
$GNRMC,084217.50,A,3737.7421534,N,12704.7322099,E,2.2,192.6,270324,8.8,W,D*3B
$PSSN,HRP,084217.50,270324,78.979,,1.933,0.211,,0.351,29,2,8.838,W*25
$GNRMC,084218.00,A,3737.7418546,N,12704.7321094,E,2.1,197.2,270324,8.8,W,D*32
$PSSN,HRP,084218.00,270324,81.261,,2.481,0.217,,0.354,29,2,8.838,W*2F
$GNRMC,084218.50,A,3737.7415623,N,12704.7320091,E,2.2,194.5,270324,8.8,W,D*39
$PSSN,HRP,084218.50,270324,83.817,,2.237,0.219,,0.357,29,2,8.838,W*25
$GNRMC,084219.00,A,3737.7412696,N,12704.7319114,E,2.0,194.8,270324,8.8,W,D*3D
$PSSN,HRP,084219.00,270324,83.561,,1.887,0.210,,0.352,28,2,8.838,W*22
$GNRMC,084219.50,A,3737.7409658,N,12704.7318377,E,2.3,189.4,270324,8.8,W,D*35
$PSSN,HRP,084219.50,270324,82.441,,2.023,0.213,,0.354,29,2,8.838,W*24
$GNRMC,084220.00,A,3737.7406411,N,12704.7317602,E,2.4,190.8,270324,8.8,W,D*31
$PSSN,HRP,084220.00,270324,78.589,,2.354,0.221,,0.356,30,2,8.838,W*23
$GNRMC,084220.50,A,3737.7403095,N,12704.7316891,E,2.5,188.4,270324,8.8,W,D*38
$PSSN,HRP,084220.50,270324,74.098,,2.353,0.228,,0.357,28,2,8.838,W*29
$GNRMC,084221.00,A,3737.7399839,N,12704.7316244,E,2.3,189.8,270324,8.8,W,D*3F
$PSSN,HRP,084221.00,270324,72.523,,2.204,0.229,,0.359,28,2,8.838,W*22
$GNRMC,084221.50,A,3737.7396581,N,12704.7315612,E,2.7,185.7,270324,8.8,W,D*38
$PSSN,HRP,084221.50,270324,71.727,,2.256,0.223,,0.360,28,2,8.838,W*25
$GNRMC,084222.00,A,3737.7393196,N,12704.7315111,E,2.4,186.3,270324,8.8,W,D*39
$PSSN,HRP,084222.00,270324,69.599,,2.274,0.323,,0.375,28,2,8.838,W*28
$GNRMC,084222.50,A,3737.7390087,N,12704.7314614,E,2.3,185.2,270324,8.8,W,D*38
$PSSN,HRP,084222.50,270324,70.135,,2.304,0.325,,0.391,29,2,8.838,W*2C
$GNRMC,084223.00,A,3737.7386781,N,12704.7314211,E,2.4,185.4,270324,8.8,W,D*3A
$PSSN,HRP,084223.00,270324,68.741,,2.373,0.331,,0.438,29,2,8.838,W*25
$GNRMC,084223.50,A,3737.7383423,N,12704.7313735,E,2.4,187.4,270324,8.8,W,D*37
$PSSN,HRP,084223.50,270324,65.933,,2.207,0.348,,0.475,29,2,8.838,W*23
$GNRMC,084224.00,A,3737.7379965,N,12704.7313409,E,2.4,184.3,270324,8.8,W,D*37
$PSSN,HRP,084224.00,270324,61.404,,1.877,0.343,,0.469,29,2,8.838,W*24
$GNRMC,084224.50,A,3737.7376670,N,12704.7313080,E,2.3,185.6,270324,8.8,W,D*30
$PSSN,HRP,084224.50,270324,56.848,,1.675,0.352,,0.470,28,2,8.838,W*24
$GNRMC,084225.00,A,3737.7373517,N,12704.7312801,E,2.4,181.3,270324,8.8,W,D*35
$PSSN,HRP,084225.00,270324,51.744,,1.676,0.352,,0.470,28,2,8.838,W*27
$GNRMC,084225.50,A,3737.7370018,N,12704.7313003,E,2.6,174.4,270324,8.8,W,D*3D
$PSSN,HRP,084225.50,270324,39.673,,1.506,0.337,,0.472,31,2,8.838,W*24
$GNRMC,084226.00,A,3737.7366731,N,12704.7313428,E,2.2,172.5,270324,8.8,W,D*3E
$PSSN,HRP,084226.00,270324,27.695,,1.143,0.329,,0.475,31,2,8.838,W*28
$GNRMC,084226.50,A,3737.7363741,N,12704.7314069,E,2.2,167.7,270324,8.8,W,D*39
$PSSN,HRP,084226.50,270324,18.072,,1.223,0.327,,0.465,30,2,8.838,W*25
$GNRMC,084227.00,A,3737.7360941,N,12704.7314853,E,1.8,163.4,270324,8.8,W,D*3F
$PSSN,HRP,084227.00,270324,6.160,,1.346,0.320,,0.415,30,2,8.838,W*1E
$GNRMC,084227.50,A,3737.7358542,N,12704.7315681,E,1.7,162.8,270324,8.8,W,D*3C
$PSSN,HRP,084227.50,270324,354.012,,1.761,0.319,,0.414,31,2,8.838,W*10
$GNRMC,084228.00,A,3737.7356756,N,12704.7316594,E,1.2,154.6,270324,8.8,W,D*35
$PSSN,HRP,084228.00,270324,339.188,,1.269,0.323,,0.427,31,2,8.838,W*17
$GNRMC,084228.50,A,3737.7355266,N,12704.7317115,E,1.1,161.0,270324,8.8,W,D*3A
$PSSN,HRP,084228.50,270324,328.243,,1.515,0.332,,0.436,28,2,8.838,W*12
$GNRMC,084229.00,A,3737.7353878,N,12704.7317347,E,1.0,166.7,270324,8.8,W,D*39
$PSSN,HRP,084229.00,270324,316.461,,1.834,0.319,,0.437,28,2,8.838,W*1B
$GNRMC,084229.50,A,3737.7352359,N,12704.7317327,E,1.2,176.6,270324,8.8,W,D*31
$PSSN,HRP,084229.50,270324,306.423,,1.673,0.339,,0.439,29,2,8.838,W*19
$GNRMC,084230.00,A,3737.7350677,N,12704.7317038,E,1.3,183.4,270324,8.8,W,D*33
$PSSN,HRP,084230.00,270324,297.009,,1.644,0.334,,0.442,29,2,8.838,W*14
$GNRMC,084230.50,A,3737.7348707,N,12704.7316697,E,1.5,187.2,270324,8.8,W,D*3F
$PSSN,HRP,084230.50,270324,287.380,,2.354,0.235,,0.428,29,2,8.838,W*19
$GNRMC,084231.00,A,3737.7346637,N,12704.7316400,E,1.5,186.7,270324,8.8,W,D*3F
$PSSN,HRP,084231.00,270324,278.474,,1.883,0.239,,0.427,29,2,8.838,W*10
$GNRMC,084231.50,A,3737.7344317,N,12704.7316299,E,1.8,183.9,270324,8.8,W,D*3F
$PSSN,HRP,084231.50,270324,272.120,,2.296,0.231,,0.396,32,2,8.838,W*19
$GNRMC,084232.00,A,3737.7341747,N,12704.7316345,E,1.8,180.8,270324,8.8,W,D*3F
$PSSN,HRP,084232.00,270324,270.749,,2.331,0.206,,0.319,31,2,8.838,W*18
$GNRMC,084232.50,A,3737.7339111,N,12704.7316511,E,1.9,178.1,270324,8.8,W,D*38
$PSSN,HRP,084232.50,270324,271.024,,2.077,0.207,,0.309,32,2,8.838,W*12
$GNRMC,084233.00,A,3737.7336349,N,12704.7316657,E,2.1,180.8,270324,8.8,W,D*38
$PSSN,HRP,084233.00,270324,274.545,,1.716,0.206,,0.302,32,2,8.838,W*18
$GNRMC,084233.50,A,3737.7333282,N,12704.7316602,E,2.3,184.6,270324,8.8,W,D*36
$PSSN,HRP,084233.50,270324,284.403,,2.263,0.315,,0.328,31,2,8.838,W*1D
$GNRMC,084234.00,A,3737.7330231,N,12704.7316299,E,2.0,186.3,270324,8.8,W,D*3D
$PSSN,HRP,084234.00,270324,294.473,,1.902,0.328,,0.342,30,2,8.838,W*15
$GNRMC,084234.50,A,3737.7327563,N,12704.7316128,E,1.8,184.8,270324,8.8,W,D*35
$PSSN,HRP,084234.50,270324,299.453,,2.200,0.335,,0.374,30,2,8.838,W*1C
$GNRMC,084235.00,A,3737.7325202,N,12704.7315929,E,1.7,184.1,270324,8.8,W,D*3F
$PSSN,HRP,084235.00,270324,298.254,,1.858,0.357,,0.434,30,2,8.838,W*1B
$GNRMC,084235.50,A,3737.7323178,N,12704.7315811,E,1.5,182.6,270324,8.8,W,D*3B
$PSSN,HRP,084235.50,270324,295.398,,1.317,0.271,,0.450,30,2,8.838,W*15
$GNRMC,084236.00,A,3737.7321183,N,12704.7315629,E,1.4,184.0,270324,8.8,W,D*3F
$PSSN,HRP,084236.00,270324,290.802,,1.097,0.262,,0.421,30,2,8.838,W*11
$GNRMC,084236.50,A,3737.7319353,N,12704.7315545,E,1.3,183.2,270324,8.8,W,D*35
$PSSN,HRP,084236.50,270324,286.635,,1.261,0.237,,0.378,29,2,8.838,W*11
$GNRMC,084237.00,A,3737.7317580,N,12704.7315221,E,1.4,186.0,270324,8.8,W,D*32
$PSSN,HRP,084237.00,270324,285.955,,1.845,0.324,,0.349,29,2,8.838,W*12
$GNRMC,084237.50,A,3737.7315774,N,12704.7314891,E,1.3,187.1,270324,8.8,W,D*3B
$PSSN,HRP,084237.50,270324,285.127,,1.657,0.329,,0.369,30,2,8.838,W*10
$GNRMC,084238.00,A,3737.7313767,N,12704.7314473,E,1.6,189.1,270324,8.8,W,D*3E
$PSSN,HRP,084238.00,270324,289.067,,1.890,0.355,,0.430,30,2,8.838,W*16
$GNRMC,084238.50,A,3737.7311597,N,12704.7313733,E,1.7,194.9,270324,8.8,W,D*31
$PSSN,HRP,084238.50,270324,300.168,,2.198,0.368,,0.469,29,2,8.838,W*15
$GNRMC,084239.00,A,3737.7309508,N,12704.7312883,E,1.5,203.1,270324,8.8,W,D*38
$PSSN,HRP,084239.00,270324,310.866,,2.116,0.307,,0.428,28,2,8.838,W*1C
$GNRMC,084239.50,A,3737.7307725,N,12704.7311928,E,1.1,205.9,270324,8.8,W,D*37
$PSSN,HRP,084239.50,270324,314.738,,2.181,0.346,,0.437,28,2,8.838,W*1C
$GNRMC,084240.00,A,3737.7306631,N,12704.7311402,E,0.7,203.8,270324,8.8,W,D*3C
$PSSN,HRP,084240.00,270324,308.927,,2.020,0.324,,0.438,28,2,8.838,W*1B
$GNRMC,084240.50,A,3737.7306019,N,12704.7311094,E,0.4,202.6,270324,8.8,W,D*32
$PSSN,HRP,084240.50,270324,298.466,,2.460,0.285,,0.440,29,2,8.838,W*1A
$GNRMC,084241.00,A,3737.7305607,N,12704.7310969,E,0.2,198.9,270324,8.8,W,D*3F
$PSSN,HRP,084241.00,270324,285.342,,2.755,0.263,,0.437,29,2,8.838,W*1E
$GNRMC,084241.50,A,3737.7305370,N,12704.7310841,E,0.2,200.8,270324,8.8,W,D*37
$PSSN,HRP,084241.50,270324,274.761,,2.030,0.264,,0.439,28,2,8.838,W*1C
$GNRMC,084242.00,A,3737.7305097,N,12704.7310654,E,0.3,206.8,270324,8.8,W,D*36
$PSSN,HRP,084242.00,270324,267.082,,1.784,0.275,,0.432,28,2,8.838,W*12
$GNRMC,084242.50,A,3737.7304357,N,12704.7310170,E,1.0,205.5,270324,8.8,W,D*30
$PSSN,HRP,084242.50,270324,268.190,,1.837,0.354,,0.442,29,2,8.838,W*19
$GNRMC,084243.00,A,3737.7303308,N,12704.7309462,E,0.5,208.6,270324,8.8,W,D*3D
$PSSN,HRP,084243.00,270324,274.442,,1.889,0.306,,0.432,29,2,8.838,W*1F
$GNRMC,084243.50,A,3737.7302930,N,12704.7309205,E,0.0,207.9,270324,8.8,W,D*3A
$PSSN,HRP,084243.50,270324,276.330,,1.727,0.246,,0.429,28,2,8.838,W*1F
$GNRMC,084244.00,A,3737.7303426,N,12704.7309556,E,0.6,,270324,8.8,W,D*16
$PSSN,HRP,084244.00,270324,274.105,,1.549,0.335,,0.451,29,2,8.838,W*1A
$GNRMC,084244.50,A,3737.7303447,N,12704.7309713,E,0.4,,270324,8.8,W,D*15
$PSSN,HRP,084244.50,270324,275.614,,1.620,0.321,,0.451,29,2,8.838,W*10
$GNRMC,084245.00,A,3737.7302665,N,12704.7309578,E,0.4,184.0,270324,8.8,W,D*3E
$PSSN,HRP,084245.00,270324,277.562,,1.633,0.256,,0.418,29,2,8.838,W*1A
$GNRMC,084245.50,A,3737.7302624,N,12704.7309606,E,0.3,,270324,8.8,W,D*10
$PSSN,HRP,084245.50,270324,277.586,,1.675,0.233,,0.379,28,2,8.838,W*15
$GNRMC,084246.00,A,3737.7302642,N,12704.7309669,E,0.1,,270324,8.8,W,D*1D
$PSSN,HRP,084246.00,270324,277.907,,1.402,0.193,,0.314,28,2,8.838,W*16
$GNRMC,084246.50,A,3737.7302456,N,12704.7309758,E,0.1,,270324,8.8,W,D*1C
$PSSN,HRP,084246.50,270324,278.199,,1.517,0.193,,0.310,30,2,8.838,W*1B
$GNRMC,084247.00,A,3737.7302765,N,12704.7309695,E,0.1,,270324,8.8,W,D*1B
$PSSN,HRP,084247.00,270324,277.261,,1.283,0.191,,0.304,30,2,8.838,W*19
$GNRMC,084247.50,A,3737.7302605,N,12704.7309769,E,0.4,,270324,8.8,W,D*1E
$PSSN,HRP,084247.50,270324,278.125,,1.434,0.206,,0.305,30,2,8.838,W*16
$GNRMC,084248.00,A,3737.7302275,N,12704.7309910,E,0.2,,270324,8.8,W,D*11
$PSSN,HRP,084248.00,270324,280.285,,1.276,0.196,,0.304,29,2,8.838,W*11
$GNRMC,084248.50,A,3737.7302598,N,12704.7309781,E,0.2,,270324,8.8,W,D*16
$PSSN,HRP,084248.50,270324,278.468,,1.577,0.196,,0.304,29,2,8.838,W*10
$GNRMC,084249.00,A,3737.7302554,N,12704.7309797,E,0.1,,270324,8.8,W,D*16
$PSSN,HRP,084249.00,270324,278.821,,2.005,0.196,,0.305,29,2,8.838,W*17
$GNRMC,084249.50,A,3737.7302576,N,12704.7309775,E,0.2,,270324,8.8,W,D*1C
$PSSN,HRP,084249.50,270324,279.195,,1.676,0.199,,0.309,30,2,8.838,W*1F
$GNRMC,084250.00,A,3737.7302509,N,12704.7309794,E,0.1,,270324,8.8,W,D*15
$PSSN,HRP,084250.00,270324,279.033,,1.604,0.195,,0.310,30,2,8.838,W*1E
$GNRMC,084250.50,A,3737.7302479,N,12704.7309813,E,0.0,,270324,8.8,W,D*17
$PSSN,HRP,084250.50,270324,279.463,,1.484,0.191,,0.309,31,2,8.838,W*1D
$GNRMC,084251.00,A,3737.7302484,N,12704.7309816,E,0.0,,270324,8.8,W,D*14
$PSSN,HRP,084251.00,270324,279.478,,1.320,0.190,,0.309,31,2,8.838,W*1B
$GNRMC,084251.50,A,3737.7302515,N,12704.7309816,E,0.0,,270324,8.8,W,D*18
$PSSN,HRP,084251.50,270324,279.496,,1.487,0.188,,0.309,29,2,8.838,W*14
$GNRMC,084252.00,A,3737.7302512,N,12704.7309828,E,0.0,,270324,8.8,W,D*14
$PSSN,HRP,084252.00,270324,279.588,,1.660,0.185,,0.309,29,2,8.838,W*1A
$GNRMC,084252.50,A,3737.7302514,N,12704.7309839,E,0.0,,270324,8.8,W,D*17
$PSSN,HRP,084252.50,270324,279.590,,1.514,0.184,,0.310,29,2,8.838,W*1F
$GNRMC,084253.00,A,3737.7302494,N,12704.7309846,E,0.0,,270324,8.8,W,D*12
$PSSN,HRP,084253.00,270324,279.634,,1.721,0.182,,0.309,29,2,8.838,W*1C
$GNRMC,084253.50,A,3737.7302493,N,12704.7309849,E,0.0,,270324,8.8,W,D*1F
$PSSN,HRP,084253.50,270324,279.701,,1.639,0.182,,0.310,29,2,8.838,W*1E
$GNRMC,084254.00,A,3737.7302484,N,12704.7309844,E,0.0,,270324,8.8,W,D*16
$PSSN,HRP,084254.00,270324,279.644,,1.517,0.183,,0.312,30,2,8.838,W*18
$GNRMC,084254.50,A,3737.7302498,N,12704.7309853,E,0.0,,270324,8.8,W,D*18
$PSSN,HRP,084254.50,270324,279.641,,1.502,0.185,,0.311,28,2,8.838,W*10
$GNRMC,084255.00,A,3737.7302531,N,12704.7309834,E,0.0,,270324,8.8,W,D*1F
$PSSN,HRP,084255.00,270324,279.550,,1.518,0.185,,0.307,28,2,8.838,W*1B
$GNRMC,084255.50,A,3737.7302497,N,12704.7309869,E,0.1,,270324,8.8,W,D*1E
$PSSN,HRP,084255.50,270324,279.887,,1.670,0.188,,0.307,27,2,8.838,W*16
$GNRMC,084256.00,A,3737.7302473,N,12704.7309856,E,0.1,,270324,8.8,W,D*1E
$PSSN,HRP,084256.00,270324,279.843,,1.817,0.188,,0.313,26,2,8.838,W*13
$GNRMC,084256.50,A,3737.7302499,N,12704.7309846,E,0.0,,270324,8.8,W,D*1F
$PSSN,HRP,084256.50,270324,279.753,,1.694,0.188,,0.318,28,2,8.838,W*18
$GNRMC,084257.00,A,3737.7302525,N,12704.7309870,E,0.1,,270324,8.8,W,D*19
$PSSN,HRP,084257.00,270324,279.559,,1.607,0.192,,0.321,27,2,8.838,W*10
$GNRMC,084257.50,A,3737.7302525,N,12704.7309895,E,0.0,,270324,8.8,W,D*16
$PSSN,HRP,084257.50,270324,279.515,,1.544,0.189,,0.322,28,2,8.838,W*1F
$GNRMC,084258.00,A,3737.7302502,N,12704.7309855,E,0.0,,270324,8.8,W,D*15
$PSSN,HRP,084258.00,270324,279.760,,1.454,0.187,,0.323,28,2,8.838,W*1A
$GNRMC,084258.50,A,3737.7302520,N,12704.7309841,E,0.0,,270324,8.8,W,D*15
$PSSN,HRP,084258.50,270324,279.782,,1.863,0.184,,0.320,29,2,8.838,W*1A
$GNRMC,084259.00,A,3737.7302509,N,12704.7309827,E,0.0,,270324,8.8,W,D*1A
$PSSN,HRP,084259.00,270324,279.823,,1.912,0.180,,0.309,29,2,8.838,W*12
$GNRMC,084259.50,A,3737.7302508,N,12704.7309839,E,0.0,,270324,8.8,W,D*11
$PSSN,HRP,084259.50,270324,279.778,,1.872,0.177,,0.308,29,2,8.838,W*18
$GNRMC,084300.00,A,3737.7302491,N,12704.7309844,E,0.0,,270324,8.8,W,D*12
$PSSN,HRP,084300.00,270324,279.778,,1.705,0.177,,0.308,29,2,8.838,W*1F
$GNRMC,084300.50,A,3737.7302490,N,12704.7309846,E,0.0,,270324,8.8,W,D*14
$PSSN,HRP,084300.50,270324,279.745,,1.505,0.177,,0.309,29,2,8.838,W*17
$GNRMC,084301.00,A,3737.7302489,N,12704.7309858,E,0.0,,270324,8.8,W,D*17
$PSSN,HRP,084301.00,270324,279.780,,1.580,0.177,,0.309,29,2,8.838,W*17
$GNRMC,084301.50,A,3737.7302496,N,12704.7309838,E,0.0,,270324,8.8,W,D*1A
$PSSN,HRP,084301.50,270324,279.792,,1.580,0.176,,0.309,31,2,8.838,W*19
$GNRMC,084302.00,A,3737.7302504,N,12704.7309827,E,0.0,,270324,8.8,W,D*18
$PSSN,HRP,084302.00,270324,279.763,,1.322,0.175,,0.308,31,2,8.838,W*1D
$GNRMC,084302.50,A,3737.7302502,N,12704.7309825,E,0.0,,270324,8.8,W,D*19
$PSSN,HRP,084302.50,270324,279.872,,1.656,0.173,,0.303,30,2,8.838,W*1D
$GNRMC,084303.00,A,3737.7302516,N,12704.7309827,E,0.0,,270324,8.8,W,D*1A
$PSSN,HRP,084303.00,270324,279.841,,1.794,0.173,,0.292,30,2,8.838,W*1F
$GNRMC,084303.50,A,3737.7302504,N,12704.7309841,E,0.0,,270324,8.8,W,D*1C
$PSSN,HRP,084303.50,270324,279.758,,1.922,0.174,,0.296,28,2,8.838,W*14
$GNRMC,084304.00,A,3737.7302491,N,12704.7309853,E,0.0,,270324,8.8,W,D*10
$PSSN,HRP,084304.00,270324,279.795,,1.616,0.176,,0.306,28,2,8.838,W*15
$GNRMC,084304.50,A,3737.7302505,N,12704.7309877,E,0.0,,270324,8.8,W,D*1F
$PSSN,HRP,084304.50,270324,279.668,,1.796,0.176,,0.308,30,2,8.838,W*1D
$GNRMC,084305.00,A,3737.7302500,N,12704.7309893,E,0.0,,270324,8.8,W,D*14
$PSSN,HRP,084305.00,270324,279.558,,1.898,0.175,,0.293,28,2,8.838,W*11
$GNRMC,084305.50,A,3737.7302470,N,12704.7309848,E,0.1,,270324,8.8,W,D*10
$PSSN,HRP,084305.50,270324,279.680,,2.033,0.186,,0.300,28,2,8.838,W*1F
$GNRMC,084306.00,A,3737.7302485,N,12704.7309785,E,0.1,,270324,8.8,W,D*12
$PSSN,HRP,084306.00,270324,279.858,,1.725,0.196,,0.321,25,2,8.838,W*1E
$GNRMC,084306.50,A,3737.7302506,N,12704.7309814,E,0.2,,270324,8.8,W,D*19
$PSSN,HRP,084306.50,270324,279.863,,1.568,0.196,,0.331,29,2,8.838,W*15
$GNRMC,084307.00,A,3737.7302566,N,12704.7309816,E,0.0,,270324,8.8,W,D*1B
$PSSN,HRP,084307.00,270324,279.917,,1.564,0.188,,0.317,28,2,8.838,W*15
$GNRMC,084307.50,A,3737.7302509,N,12704.7309833,E,0.0,,270324,8.8,W,D*10
$PSSN,HRP,084307.50,270324,279.795,,1.628,0.188,,0.312,29,2,8.838,W*1B
$GNRMC,084308.00,A,3737.7302458,N,12704.7309840,E,0.0,,270324,8.8,W,D*1B
$PSSN,HRP,084308.00,270324,279.816,,1.751,0.184,,0.305,27,2,8.838,W*1E
$GNRMC,084308.50,A,3737.7302580,N,12704.7309838,E,0.2,,270324,8.8,W,D*17
$PSSN,HRP,084308.50,270324,279.257,,1.894,0.190,,0.300,30,2,8.838,W*14
$GNRMC,084309.00,A,3737.7303290,N,12704.7310072,E,0.7,14.9,270324,8.8,W,D*0D
$PSSN,HRP,084309.00,270324,277.726,,2.130,0.218,,0.299,30,2,8.838,W*1B
$GNRMC,084309.50,A,3737.7304551,N,12704.7310653,E,1.2,19.0,270324,8.8,W,D*00
$PSSN,HRP,084309.50,270324,274.194,,2.340,0.333,,0.324,30,2,8.838,W*18
$GNRMC,084310.00,A,3737.7306121,N,12704.7311073,E,1.3,13.3,270324,8.8,W,D*01
$PSSN,HRP,084310.00,270324,271.191,,2.339,0.335,,0.327,30,2,8.838,W*1E
$GNRMC,084310.50,A,3737.7308212,N,12704.7311399,E,1.8,9.5,270324,8.8,W,D*38
$PSSN,HRP,084310.50,270324,267.695,,2.433,0.350,,0.355,30,2,8.838,W*14
$GNRMC,084311.00,A,3737.7310770,N,12704.7311740,E,1.8,6.2,270324,8.8,W,D*3C
$PSSN,HRP,084311.00,270324,264.517,,2.817,0.375,,0.420,29,2,8.838,W*1A
$GNRMC,084311.50,A,3737.7313352,N,12704.7312055,E,1.8,9.7,270324,8.8,W,D*34
$PSSN,HRP,084311.50,270324,262.193,,2.322,0.387,,0.457,29,2,8.838,W*11
$GNRMC,084312.00,A,3737.7315954,N,12704.7312399,E,2.0,7.5,270324,8.8,W,D*3C
$PSSN,HRP,084312.00,270324,259.765,,2.296,0.373,,0.427,29,2,8.838,W*12
$GNRMC,084312.50,A,3737.7318660,N,12704.7312693,E,1.8,6.0,270324,8.8,W,D*3C
$PSSN,HRP,084312.50,270324,258.320,,2.186,0.371,,0.424,29,2,8.838,W*10
$GNRMC,084313.00,A,3737.7321089,N,12704.7313087,E,1.7,6.7,270324,8.8,W,D*39
$PSSN,HRP,084313.00,270324,257.795,,1.955,0.371,,0.424,29,2,8.838,W*14
$GNRMC,084313.50,A,3737.7323349,N,12704.7313443,E,1.6,6.7,270324,8.8,W,D*3C
$PSSN,HRP,084313.50,270324,257.194,,2.228,0.365,,0.421,31,2,8.838,W*1D
$GNRMC,084314.00,A,3737.7325563,N,12704.7313824,E,1.7,9.9,270324,8.8,W,D*3B
$PSSN,HRP,084314.00,270324,258.642,,2.289,0.369,,0.421,31,2,8.838,W*1B
$GNRMC,084314.50,A,3737.7327718,N,12704.7314137,E,1.4,7.8,270324,8.8,W,D*32
$PSSN,HRP,084314.50,270324,260.408,,2.219,0.369,,0.423,31,2,8.838,W*12
$GNRMC,084315.00,A,3737.7329549,N,12704.7314509,E,1.2,8.8,270324,8.8,W,D*3E
$PSSN,HRP,084315.00,270324,265.791,,1.618,0.354,,0.423,31,2,8.838,W*18
$GNRMC,084315.50,A,3737.7330882,N,12704.7314847,E,0.8,10.7,270324,8.8,W,D*03
$PSSN,HRP,084315.50,270324,270.246,,1.633,0.245,,0.416,32,2,8.838,W*1B
$GNRMC,084316.00,A,3737.7331345,N,12704.7314983,E,0.0,11.7,270324,8.8,W,D*04
$PSSN,HRP,084316.00,270324,276.395,,1.610,0.221,,0.416,31,2,8.838,W*14
$GNRMC,084316.50,A,3737.7331336,N,12704.7314993,E,0.2,10.3,270324,8.8,W,D*03
$PSSN,HRP,084316.50,270324,277.040,,1.543,0.226,,0.405,33,2,8.838,W*19
$GNRMC,084317.00,A,3737.7330441,N,12704.7314656,E,1.1,202.2,270324,8.8,W,D*35
$PSSN,HRP,084317.00,270324,275.107,,1.621,0.219,,0.305,32,2,8.838,W*10
$GNRMC,084317.50,A,3737.7328655,N,12704.7314107,E,1.5,194.3,270324,8.8,W,D*34
$PSSN,HRP,084317.50,270324,279.390,,1.516,0.228,,0.305,30,2,8.838,W*12
$GNRMC,084318.00,A,3737.7326536,N,12704.7313554,E,1.5,191.5,270324,8.8,W,D*30
$PSSN,HRP,084318.00,270324,282.130,,1.996,0.234,,0.309,30,2,8.838,W*11
$GNRMC,084318.50,A,3737.7324458,N,12704.7313223,E,1.6,188.5,270324,8.8,W,D*32
$PSSN,HRP,084318.50,270324,282.235,,2.059,0.235,,0.309,31,2,8.838,W*1B
$GNRMC,084319.00,A,3737.7322269,N,12704.7312944,E,1.6,187.1,270324,8.8,W,D*34
$PSSN,HRP,084319.00,270324,282.036,,1.433,0.236,,0.297,31,2,8.838,W*10
$GNRMC,084319.50,A,3737.7320070,N,12704.7312734,E,1.6,185.3,270324,8.8,W,D*30
$PSSN,HRP,084319.50,270324,281.449,,1.879,0.343,,0.319,33,2,8.838,W*1E
$GNRMC,084320.00,A,3737.7317672,N,12704.7312504,E,1.8,184.7,270324,8.8,W,D*35
$PSSN,HRP,084320.00,270324,283.859,,2.174,0.344,,0.316,33,2,8.838,W*11
$GNRMC,084320.50,A,3737.7315266,N,12704.7312250,E,1.5,185.8,270324,8.8,W,D*36
$PSSN,HRP,084320.50,270324,285.141,,2.196,0.347,,0.336,32,2,8.838,W*1E
$GNRMC,084321.00,A,3737.7313081,N,12704.7312055,E,1.5,185.4,270324,8.8,W,D*34
$PSSN,HRP,084321.00,270324,285.218,,2.064,0.360,,0.393,32,2,8.838,W*13
$GNRMC,084321.50,A,3737.7311105,N,12704.7311847,E,1.3,185.6,270324,8.8,W,D*32
$PSSN,HRP,084321.50,270324,284.801,,2.505,0.357,,0.428,33,2,8.838,W*15
$GNRMC,084322.00,A,3737.7309323,N,12704.7311645,E,1.2,185.5,270324,8.8,W,D*35
$PSSN,HRP,084322.00,270324,284.481,,2.614,0.348,,0.397,33,2,8.838,W*19
$GNRMC,084322.50,A,3737.7307715,N,12704.7311328,E,1.1,187.1,270324,8.8,W,D*34
$PSSN,HRP,084322.50,270324,284.102,,2.691,0.347,,0.388,32,2,8.838,W*1F
$GNRMC,084323.00,A,3737.7306383,N,12704.7311142,E,0.8,187.1,270324,8.8,W,D*3C
$PSSN,HRP,084323.00,270324,282.392,,2.639,0.318,,0.374,32,2,8.838,W*1D
$GNRMC,084323.50,A,3737.7305102,N,12704.7310835,E,1.0,188.3,270324,8.8,W,D*3D
$PSSN,HRP,084323.50,270324,283.063,,2.347,0.331,,0.380,33,2,8.838,W*19
$GNRMC,084324.00,A,3737.7303938,N,12704.7310584,E,0.8,189.2,270324,8.8,W,D*36
$PSSN,HRP,084324.00,270324,284.399,,2.315,0.316,,0.381,33,2,8.838,W*19
$GNRMC,084324.50,A,3737.7302944,N,12704.7310319,E,0.7,192.0,270324,8.8,W,D*3C
$PSSN,HRP,084324.50,270324,284.174,,2.037,0.309,,0.386,32,2,8.838,W*16
$GNRMC,084325.00,A,3737.7302446,N,12704.7310152,E,0.1,193.7,270324,8.8,W,D*3A
$PSSN,HRP,084325.00,270324,283.274,,1.749,0.224,,0.375,32,2,8.838,W*19
$GNRMC,084325.50,A,3737.7302396,N,12704.7310004,E,0.1,203.8,270324,8.8,W,D*32
$PSSN,HRP,084325.50,270324,280.915,,1.452,0.212,,0.356,30,2,8.838,W*1C
$GNRMC,084326.00,A,3737.7302654,N,12704.7309908,E,0.2,,270324,8.8,W,D*16
$PSSN,HRP,084326.00,270324,277.717,,1.564,0.197,,0.297,30,2,8.838,W*18
$GNRMC,084326.50,A,3737.7302707,N,12704.7309785,E,0.1,,270324,8.8,W,D*1C
$PSSN,HRP,084326.50,270324,275.845,,1.228,0.193,,0.296,31,2,8.838,W*1C
$GNRMC,084327.00,A,3737.7302692,N,12704.7309785,E,0.1,,270324,8.8,W,D*15
$PSSN,HRP,084327.00,270324,275.899,,1.059,0.187,,0.295,31,2,8.838,W*1B
$GNRMC,084327.50,A,3737.7302673,N,12704.7309821,E,0.1,,270324,8.8,W,D*1E
$PSSN,HRP,084327.50,270324,276.917,,1.126,0.188,,0.299,30,2,8.838,W*11
$GNRMC,084328.00,A,3737.7302620,N,12704.7309865,E,0.2,,270324,8.8,W,D*11
$PSSN,HRP,084328.00,270324,278.203,,1.117,0.195,,0.306,30,2,8.838,W*12
$GNRMC,084328.50,A,3737.7302697,N,12704.7309844,E,0.1,,270324,8.8,W,D*18
$PSSN,HRP,084328.50,270324,277.861,,1.395,0.194,,0.309,29,2,8.838,W*18
$GNRMC,084329.00,A,3737.7303645,N,12704.7309867,E,1.2,1.2,270324,8.8,W,D*3C
$PSSN,HRP,084329.00,270324,273.589,,1.453,0.239,,0.312,29,2,8.838,W*10
$GNRMC,084329.50,A,3737.7305214,N,12704.7309628,E,1.2,354.7,270324,8.8,W,D*3C
$PSSN,HRP,084329.50,270324,273.651,,1.638,0.235,,0.312,30,2,8.838,W*18
$GNRMC,084330.00,A,3737.7307105,N,12704.7309614,E,1.5,358.9,270324,8.8,W,D*3A
$PSSN,HRP,084330.00,270324,275.085,,1.552,0.234,,0.316,30,2,8.838,W*16
$GNRMC,084330.50,A,3737.7309330,N,12704.7309839,E,1.7,5.7,270324,8.8,W,D*33
$PSSN,HRP,084330.50,270324,275.501,,1.632,0.334,,0.336,30,2,8.838,W*1C
$GNRMC,084331.00,A,3737.7311902,N,12704.7310223,E,1.8,8.4,270324,8.8,W,D*3D
$PSSN,HRP,084331.00,270324,275.875,,2.250,0.329,,0.326,30,2,8.838,W*18
$GNRMC,084331.50,A,3737.7314545,N,12704.7310578,E,2.1,7.0,270324,8.8,W,D*3A
$PSSN,HRP,084331.50,270324,275.949,,2.175,0.333,,0.349,32,2,8.838,W*17
$GNRMC,084332.00,A,3737.7317255,N,12704.7311104,E,2.0,11.0,270324,8.8,W,D*01
$PSSN,HRP,084332.00,270324,276.981,,2.016,0.350,,0.413,32,2,8.838,W*1F
$GNRMC,084332.50,A,3737.7319993,N,12704.7311798,E,2.1,11.3,270324,8.8,W,D*0A
$PSSN,HRP,084332.50,270324,278.093,,1.412,0.275,,0.430,32,2,8.838,W*1A
$GNRMC,084333.00,A,3737.7322725,N,12704.7312578,E,1.9,11.5,270324,8.8,W,D*07
$PSSN,HRP,084333.00,270324,276.893,,1.400,0.243,,0.373,32,2,8.838,W*1E
$GNRMC,084333.50,A,3737.7325174,N,12704.7313405,E,1.7,15.3,270324,8.8,W,D*01
$PSSN,HRP,084333.50,270324,277.140,,1.736,0.228,,0.331,33,2,8.838,W*11
$GNRMC,084334.00,A,3737.7327145,N,12704.7314045,E,1.4,13.1,270324,8.8,W,D*03
$PSSN,HRP,084334.00,270324,279.325,,1.705,0.208,,0.285,33,2,8.838,W*10
$GNRMC,084334.50,A,3737.7328878,N,12704.7314667,E,1.2,15.2,270324,8.8,W,D*0B
$PSSN,HRP,084334.50,270324,281.490,,1.436,0.212,,0.286,33,2,8.838,W*10
$GNRMC,084335.00,A,3737.7330049,N,12704.7315137,E,0.6,17.4,270324,8.8,W,D*0E
$PSSN,HRP,084335.00,270324,282.901,,1.637,0.190,,0.284,32,2,8.838,W*1B
$GNRMC,084335.50,A,3737.7330281,N,12704.7315257,E,0.2,16.9,270324,8.8,W,D*00
$PSSN,HRP,084335.50,270324,283.139,,1.617,0.171,,0.286,32,2,8.838,W*13
$GNRMC,084336.00,A,3737.7329365,N,12704.7314863,E,1.1,205.3,270324,8.8,W,D*31
$PSSN,HRP,084336.00,270324,280.927,,1.470,0.219,,0.300,32,2,8.838,W*10
$GNRMC,084336.50,A,3737.7328227,N,12704.7314261,E,1.0,203.8,270324,8.8,W,D*36
$PSSN,HRP,084336.50,270324,273.118,,1.389,0.263,,0.314,31,2,8.838,W*17
$GNRMC,084337.00,A,3737.7326425,N,12704.7313793,E,1.6,192.8,270324,8.8,W,D*3A
$PSSN,HRP,084337.00,270324,271.337,,1.654,0.310,,0.319,31,2,8.838,W*13
$GNRMC,084337.50,A,3737.7324131,N,12704.7313533,E,1.9,183.8,270324,8.8,W,D*3A
$PSSN,HRP,084337.50,270324,274.240,,1.922,0.317,,0.343,31,2,8.838,W*14
$GNRMC,084338.00,A,3737.7321576,N,12704.7313284,E,1.9,183.9,270324,8.8,W,D*38
$PSSN,HRP,084338.00,270324,277.011,,1.952,0.335,,0.407,31,2,8.838,W*1B
$GNRMC,084338.50,A,3737.7318955,N,12704.7313027,E,2.0,185.5,270324,8.8,W,D*31
$PSSN,HRP,084338.50,270324,281.084,,1.816,0.311,,0.434,31,2,8.838,W*1C
$GNRMC,084339.00,A,3737.7316133,N,12704.7312704,E,2.1,187.6,270324,8.8,W,D*34
$PSSN,HRP,084339.00,270324,286.626,,2.086,0.247,,0.376,31,2,8.838,W*10
$GNRMC,084339.50,A,3737.7313507,N,12704.7312119,E,1.7,188.7,270324,8.8,W,D*36
$PSSN,HRP,084339.50,270324,290.938,,2.197,0.338,,0.356,33,2,8.838,W*1A
$GNRMC,084340.00,A,3737.7311210,N,12704.7311631,E,1.6,188.3,270324,8.8,W,D*35
$PSSN,HRP,084340.00,270324,291.314,,1.973,0.335,,0.316,33,2,8.838,W*1C
$GNRMC,084340.50,A,3737.7309065,N,12704.7311297,E,1.4,188.9,270324,8.8,W,D*39
$PSSN,HRP,084340.50,270324,292.075,,1.796,0.340,,0.323,33,2,8.838,W*1F
$GNRMC,084341.00,A,3737.7307328,N,12704.7310966,E,1.1,188.2,270324,8.8,W,D*33
$PSSN,HRP,084341.00,270324,290.691,,2.112,0.360,,0.385,33,2,8.838,W*12
$GNRMC,084341.50,A,3737.7305662,N,12704.7310731,E,1.3,187.2,270324,8.8,W,D*3E
$PSSN,HRP,084341.50,270324,289.735,,2.392,0.272,,0.402,33,2,8.838,W*10
$GNRMC,084342.00,A,3737.7304063,N,12704.7310412,E,1.1,188.2,270324,8.8,W,D*31
$PSSN,HRP,084342.00,270324,289.340,,2.293,0.309,,0.382,32,2,8.838,W*13
$GNRMC,084342.50,A,3737.7302759,N,12704.7310135,E,0.8,189.1,270324,8.8,W,D*36
$PSSN,HRP,084342.50,270324,288.481,,2.142,0.329,,0.389,32,2,8.838,W*1B
$GNRMC,084343.00,A,3737.7302231,N,12704.7309993,E,0.0,189.9,270324,8.8,W,D*35
$PSSN,HRP,084343.00,270324,285.359,,1.847,0.225,,0.384,32,2,8.838,W*1F
$GNRMC,084343.50,A,3737.7302296,N,12704.7309955,E,0.1,195.1,270324,8.8,W,D*33
$PSSN,HRP,084343.50,270324,282.053,,1.802,0.240,,0.392,32,2,8.838,W*11
$GNRMC,084344.00,A,3737.7302588,N,12704.7309890,E,0.1,,270324,8.8,W,D*13
$PSSN,HRP,084344.00,270324,280.080,,1.806,0.246,,0.385,32,2,8.838,W*1B
$GNRMC,084344.50,A,3737.7302575,N,12704.7309888,E,0.0,,270324,8.8,W,D*1C
$PSSN,HRP,084344.50,270324,279.568,,1.853,0.235,,0.381,32,2,8.838,W*1B
$GNRMC,084345.00,A,3737.7302641,N,12704.7309848,E,0.1,,270324,8.8,W,D*11
$PSSN,HRP,084345.00,270324,278.192,,1.731,0.230,,0.378,32,2,8.838,W*17
$GNRMC,084345.50,A,3737.7302964,N,12704.7309889,E,0.7,,270324,8.8,W,D*17
$PSSN,HRP,084345.50,270324,278.037,,1.618,0.243,,0.363,31,2,8.838,W*1B
$GNRMC,084346.00,A,3737.7304479,N,12704.7309784,E,1.4,358.0,270324,8.8,W,D*36
$PSSN,HRP,084346.00,270324,271.359,,1.452,0.228,,0.303,31,2,8.838,W*18
$GNRMC,084346.50,A,3737.7306634,N,12704.7309665,E,1.6,358.0,270324,8.8,W,D*36
$PSSN,HRP,084346.50,270324,267.021,,1.508,0.330,,0.325,31,2,8.838,W*14
$GNRMC,084347.00,A,3737.7309032,N,12704.7309657,E,1.7,359.5,270324,8.8,W,D*39
$PSSN,HRP,084347.00,270324,265.921,,1.989,0.324,,0.324,31,2,8.838,W*1A
$GNRMC,084347.50,A,3737.7311526,N,12704.7309836,E,1.8,6.4,270324,8.8,W,D*3B
$PSSN,HRP,084347.50,270324,266.505,,2.540,0.332,,0.348,32,2,8.838,W*12
$GNRMC,084348.00,A,3737.7314192,N,12704.7310195,E,2.0,8.3,270324,8.8,W,D*35
$PSSN,HRP,084348.00,270324,267.137,,2.683,0.352,,0.411,32,2,8.838,W*1D
$GNRMC,084348.50,A,3737.7317025,N,12704.7310694,E,2.1,10.3,270324,8.8,W,D*00
$PSSN,HRP,084348.50,270324,267.835,,2.082,0.277,,0.428,32,2,8.838,W*18
$GNRMC,084349.00,A,3737.7319845,N,12704.7311340,E,2.2,8.1,270324,8.8,W,D*31
$PSSN,HRP,084349.00,270324,268.673,,1.921,0.258,,0.380,32,2,8.838,W*14
$GNRMC,084349.50,A,3737.7322695,N,12704.7312048,E,2.0,9.9,270324,8.8,W,D*3C
$PSSN,HRP,084349.50,270324,267.513,,1.829,0.235,,0.335,33,2,8.838,W*16
$GNRMC,084350.00,A,3737.7325272,N,12704.7312768,E,1.8,15.2,270324,8.8,W,D*03
$PSSN,HRP,084350.00,270324,268.314,,2.352,0.305,,0.307,33,2,8.838,W*12
$GNRMC,084350.50,A,3737.7327551,N,12704.7313364,E,1.6,12.9,270324,8.8,W,D*09
$PSSN,HRP,084350.50,270324,268.509,,1.838,0.327,,0.319,33,2,8.838,W*16
$GNRMC,084351.00,A,3737.7329607,N,12704.7313925,E,1.3,12.6,270324,8.8,W,D*06
$PSSN,HRP,084351.00,270324,268.663,,1.577,0.343,,0.401,33,2,8.838,W*17
$GNRMC,084351.50,A,3737.7331191,N,12704.7314398,E,1.0,13.6,270324,8.8,W,D*0B
$PSSN,HRP,084351.50,270324,268.793,,1.482,0.331,,0.443,34,2,8.838,W*13
$GNRMC,084352.00,A,3737.7332103,N,12704.7314708,E,0.3,14.3,270324,8.8,W,D*08
$PSSN,HRP,084352.00,270324,268.135,,1.627,0.221,,0.394,34,2,8.838,W*1F
$GNRMC,084352.50,A,3737.7331604,N,12704.7314567,E,0.8,,270324,8.8,W,D*16
$PSSN,HRP,084352.50,270324,269.719,,1.602,0.216,,0.349,33,2,8.838,W*17
$GNRMC,084353.00,A,3737.7330400,N,12704.7314218,E,1.2,194.3,270324,8.8,W,D*30
$PSSN,HRP,084353.00,270324,271.515,,1.789,0.214,,0.298,32,2,8.838,W*18
$GNRMC,084353.50,A,3737.7328292,N,12704.7313873,E,1.6,188.5,270324,8.8,W,D*3E
$PSSN,HRP,084353.50,270324,276.802,,1.670,0.216,,0.299,33,2,8.838,W*14
$GNRMC,084354.00,A,3737.7325833,N,12704.7313363,E,1.9,190.6,270324,8.8,W,D*3F
$PSSN,HRP,084354.00,270324,281.708,,1.597,0.217,,0.301,33,2,8.838,W*10
$GNRMC,084354.50,A,3737.7323316,N,12704.7313112,E,1.8,184.2,270324,8.8,W,D*34
$PSSN,HRP,084354.50,270324,282.641,,2.097,0.331,,0.323,33,2,8.838,W*19
$GNRMC,084355.00,A,3737.7320768,N,12704.7312780,E,1.9,186.3,270324,8.8,W,D*30
$PSSN,HRP,084355.00,270324,283.199,,1.795,0.334,,0.321,33,2,8.838,W*1F
$GNRMC,084355.50,A,3737.7318245,N,12704.7312408,E,1.9,184.0,270324,8.8,W,D*36
$PSSN,HRP,084355.50,270324,283.615,,1.915,0.342,,0.347,34,2,8.838,W*19
$GNRMC,084356.00,A,3737.7315569,N,12704.7312066,E,1.9,188.8,270324,8.8,W,D*3C
$PSSN,HRP,084356.00,270324,285.010,,2.166,0.359,,0.411,34,2,8.838,W*1B
$GNRMC,084356.50,A,3737.7312934,N,12704.7311663,E,1.8,186.1,270324,8.8,W,D*3C
$PSSN,HRP,084356.50,270324,286.402,,2.263,0.369,,0.443,33,2,8.838,W*1F
$GNRMC,084357.00,A,3737.7310494,N,12704.7311244,E,1.7,189.9,270324,8.8,W,D*34
$PSSN,HRP,084357.00,270324,288.548,,2.231,0.353,,0.390,33,2,8.838,W*1D
$GNRMC,084357.50,A,3737.7308434,N,12704.7310759,E,1.4,190.4,270324,8.8,W,D*3C
$PSSN,HRP,084357.50,270324,290.195,,1.822,0.355,,0.392,33,2,8.838,W*1A
$GNRMC,084358.00,A,3737.7306691,N,12704.7310395,E,1.2,189.1,270324,8.8,W,D*3A
$PSSN,HRP,084358.00,270324,289.056,,2.150,0.350,,0.396,33,2,8.838,W*18
$GNRMC,084358.50,A,3737.7305003,N,12704.7310121,E,1.1,188.8,270324,8.8,W,D*37
$PSSN,HRP,084358.50,270324,287.207,,1.837,0.344,,0.397,33,2,8.838,W*1A
$GNRMC,084359.00,A,3737.7303750,N,12704.7309929,E,0.9,188.0,270324,8.8,W,D*3D
$PSSN,HRP,084359.00,270324,284.236,,1.834,0.326,,0.395,33,2,8.838,W*1A
$GNRMC,084359.50,A,3737.7302955,N,12704.7309795,E,0.2,187.1,270324,8.8,W,D*3E
$PSSN,HRP,084359.50,270324,282.574,,2.158,0.249,,0.387,33,2,8.838,W*13
$GNRMC,084400.00,A,3737.7302730,N,12704.7309819,E,0.2,184.9,270324,8.8,W,D*3D
$PSSN,HRP,084400.00,270324,280.735,,2.194,0.229,,0.396,33,2,8.838,W*1E
$GNRMC,084400.50,A,3737.7302582,N,12704.7309835,E,0.1,183.4,270324,8.8,W,D*34
$PSSN,HRP,084400.50,270324,279.619,,1.867,0.224,,0.391,31,2,8.838,W*1C
$GNRMC,084401.00,A,3737.7302603,N,12704.7309852,E,0.1,,270324,8.8,W,D*1B
$PSSN,HRP,084401.00,270324,279.252,,1.908,0.185,,0.287,31,2,8.838,W*15
$GNRMC,084401.50,A,3737.7302857,N,12704.7309867,E,0.5,,270324,8.8,W,D*13
$PSSN,HRP,084401.50,270324,279.481,,1.730,0.199,,0.291,31,2,8.838,W*17
$GNRMC,084402.00,A,3737.7304183,N,12704.7310221,E,1.4,12.9,270324,8.8,W,D*07
$PSSN,HRP,084402.00,270324,277.686,,2.068,0.326,,0.323,31,2,8.838,W*1D
$GNRMC,084402.50,A,3737.7306078,N,12704.7310615,E,1.4,11.0,270324,8.8,W,D*0C
$PSSN,HRP,084402.50,270324,275.951,,1.975,0.327,,0.335,32,2,8.838,W*1C
$GNRMC,084403.00,A,3737.7308129,N,12704.7311274,E,1.8,13.3,270324,8.8,W,D*0C
$PSSN,HRP,084403.00,270324,276.961,,2.214,0.349,,0.398,32,2,8.838,W*18
$GNRMC,084403.50,A,3737.7310937,N,12704.7311900,E,2.2,11.5,270324,8.8,W,D*02
$PSSN,HRP,084403.50,270324,272.602,,2.094,0.359,,0.426,32,2,8.838,W*1A
$GNRMC,084404.00,A,3737.7313696,N,12704.7312399,E,2.0,7.1,270324,8.8,W,D*3F
$PSSN,HRP,084404.00,270324,269.952,,2.377,0.346,,0.393,32,2,8.838,W*11
$GNRMC,084404.50,A,3737.7316671,N,12704.7312949,E,2.2,7.4,270324,8.8,W,D*36
$PSSN,HRP,084404.50,270324,268.748,,2.360,0.256,,0.375,32,2,8.838,W*1E
$GNRMC,084405.00,A,3737.7319558,N,12704.7313482,E,2.0,9.2,270324,8.8,W,D*34
$PSSN,HRP,084405.00,270324,269.234,,1.636,0.257,,0.378,32,2,8.838,W*1C
$GNRMC,084405.50,A,3737.7322315,N,12704.7314099,E,2.1,9.3,270324,8.8,W,D*3F
$PSSN,HRP,084405.50,270324,270.568,,1.714,0.245,,0.357,32,2,8.838,W*10
$GNRMC,084406.00,A,3737.7324957,N,12704.7314696,E,1.8,11.5,270324,8.8,W,D*0F
$PSSN,HRP,084406.00,270324,272.999,,1.948,0.216,,0.294,32,2,8.838,W*19
$GNRMC,084406.50,A,3737.7327166,N,12704.7315344,E,1.5,13.9,270324,8.8,W,D*0B
$PSSN,HRP,084406.50,270324,276.678,,2.225,0.336,,0.318,31,2,8.838,W*1E
$GNRMC,084407.00,A,3737.7328757,N,12704.7315949,E,1.0,15.7,270324,8.8,W,D*0E
$PSSN,HRP,084407.00,270324,282.249,,2.294,0.328,,0.330,31,2,8.838,W*18
$GNRMC,084407.50,A,3737.7329469,N,12704.7316370,E,0.2,18.8,270324,8.8,W,D*06
$PSSN,HRP,084407.50,270324,286.833,,2.220,0.227,,0.354,31,2,8.838,W*1D
$GNRMC,084408.00,A,3737.7329304,N,12704.7316308,E,0.5,17.0,270324,8.8,W,D*0F
$PSSN,HRP,084408.00,270324,285.592,,2.475,0.290,,0.432,31,2,8.838,W*1F
$GNRMC,084408.50,A,3737.7328411,N,12704.7315551,E,1.0,218.9,270324,8.8,W,D*31
$PSSN,HRP,084408.50,270324,280.403,,2.173,0.314,,0.466,32,2,8.838,W*1A
$GNRMC,084409.00,A,3737.7327089,N,12704.7315025,E,1.5,199.9,270324,8.8,W,D*36
$PSSN,HRP,084409.00,270324,276.015,,1.886,0.251,,0.399,32,2,8.838,W*13
$GNRMC,084409.50,A,3737.7325032,N,12704.7314438,E,1.7,193.7,270324,8.8,W,D*3E
$PSSN,HRP,084409.50,270324,275.326,,1.765,0.229,,0.351,33,2,8.838,W*1E
$GNRMC,084410.00,A,3737.7322523,N,12704.7313980,E,1.9,187.7,270324,8.8,W,D*33
$PSSN,HRP,084410.00,270324,275.826,,1.545,0.208,,0.297,33,2,8.838,W*10
$GNRMC,084410.50,A,3737.7319818,N,12704.7313441,E,1.9,187.7,270324,8.8,W,D*3B
$PSSN,HRP,084410.50,270324,279.886,,1.781,0.209,,0.294,33,2,8.838,W*1B
$GNRMC,084411.00,A,3737.7317079,N,12704.7313021,E,2.1,187.3,270324,8.8,W,D*33
$PSSN,HRP,084411.00,270324,283.653,,2.246,0.308,,0.308,33,2,8.838,W*15
$GNRMC,084411.50,A,3737.7314160,N,12704.7312658,E,2.1,189.4,270324,8.8,W,D*3C
$PSSN,HRP,084411.50,270324,288.692,,2.003,0.320,,0.328,34,2,8.838,W*1A
$GNRMC,084412.00,A,3737.7311208,N,12704.7312117,E,2.1,189.6,270324,8.8,W,D*3C
$PSSN,HRP,084412.00,270324,295.178,,1.899,0.349,,0.389,34,2,8.838,W*1F
$GNRMC,084412.50,A,3737.7308611,N,12704.7311342,E,1.6,191.5,270324,8.8,W,D*32
$PSSN,HRP,084412.50,270324,301.195,,1.956,0.370,,0.424,33,2,8.838,W*1A
$GNRMC,084413.00,A,3737.7306495,N,12704.7310801,E,1.4,190.9,270324,8.8,W,D*34
$PSSN,HRP,084413.00,270324,302.755,,1.702,0.359,,0.393,33,2,8.838,W*18
$GNRMC,084413.50,A,3737.7304614,N,12704.7310373,E,1.2,191.1,270324,8.8,W,D*39
$PSSN,HRP,084413.50,270324,304.007,,2.001,0.361,,0.395,33,2,8.838,W*11
$GNRMC,084414.00,A,3737.7303337,N,12704.7310180,E,0.7,189.1,270324,8.8,W,D*3B
$PSSN,HRP,084414.00,270324,298.684,,2.034,0.314,,0.388,32,2,8.838,W*13
$GNRMC,084414.50,A,3737.7302504,N,12704.7310139,E,0.5,185.9,270324,8.8,W,D*3D
$PSSN,HRP,084414.50,270324,290.792,,1.840,0.291,,0.385,32,2,8.838,W*11
$GNRMC,084415.00,A,3737.7302281,N,12704.7310145,E,0.1,184.9,270324,8.8,W,D*3D
$PSSN,HRP,084415.00,270324,284.780,,1.928,0.242,,0.381,32,2,8.838,W*16
$GNRMC,084415.50,A,3737.7302510,N,12704.7310065,E,0.3,,270324,8.8,W,D*1C
$PSSN,HRP,084415.50,270324,279.192,,1.811,0.272,,0.388,32,2,8.838,W*15
$GNRMC,084416.00,A,3737.7302631,N,12704.7309935,E,0.1,,270324,8.8,W,D*1C
$PSSN,HRP,084416.00,270324,278.719,,1.546,0.240,,0.381,32,2,8.838,W*10
$GNRMC,084416.50,A,3737.7302581,N,12704.7309960,E,0.1,,270324,8.8,W,D*11
$PSSN,HRP,084416.50,270324,279.866,,1.566,0.227,,0.379,32,2,8.838,W*17
$GNRMC,084417.00,A,3737.7302660,N,12704.7309847,E,0.2,,270324,8.8,W,D*1E
$PSSN,HRP,084417.00,270324,278.682,,1.463,0.237,,0.383,32,2,8.838,W*16
$GNRMC,084417.50,A,3737.7302654,N,12704.7309858,E,0.0,,270324,8.8,W,D*10
$PSSN,HRP,084417.50,270324,278.385,,1.634,0.223,,0.363,32,2,8.838,W*1A
$GNRMC,084418.00,A,3737.7302834,N,12704.7309875,E,0.5,,270324,8.8,W,D*18
$PSSN,HRP,084418.00,270324,277.717,,1.701,0.201,,0.293,32,2,8.838,W*19
$GNRMC,084418.50,A,3737.7304135,N,12704.7309767,E,1.3,355.2,270324,8.8,W,D*37
$PSSN,HRP,084418.50,270324,277.288,,1.437,0.228,,0.296,32,2,8.838,W*17
$GNRMC,084419.00,A,3737.7306335,N,12704.7309717,E,1.9,358.6,270324,8.8,W,D*37
$PSSN,HRP,084419.00,270324,276.753,,1.117,0.282,,0.305,32,2,8.838,W*1D
$GNRMC,084419.50,A,3737.7309099,N,12704.7309770,E,2.1,3.3,270324,8.8,W,D*3A
$PSSN,HRP,084419.50,270324,275.799,,1.604,0.334,,0.339,33,2,8.838,W*1A
$GNRMC,084420.00,A,3737.7311991,N,12704.7310043,E,2.0,6.6,270324,8.8,W,D*33
$PSSN,HRP,084420.00,270324,275.479,,2.231,0.351,,0.397,33,2,8.838,W*1E
$GNRMC,084420.50,A,3737.7315010,N,12704.7310518,E,2.3,7.8,270324,8.8,W,D*35
$PSSN,HRP,084420.50,270324,274.854,,2.309,0.360,,0.430,33,2,8.838,W*1B
$GNRMC,084421.00,A,3737.7318117,N,12704.7311294,E,2.2,13.7,270324,8.8,W,D*03
$PSSN,HRP,084421.00,270324,275.154,,2.175,0.343,,0.379,33,2,8.838,W*15
$GNRMC,084421.50,A,3737.7321067,N,12704.7312253,E,2.2,17.2,270324,8.8,W,D*03
$PSSN,HRP,084421.50,270324,276.475,,1.696,0.341,,0.376,33,2,8.838,W*11
$GNRMC,084422.00,A,3737.7323938,N,12704.7313166,E,2.1,14.3,270324,8.8,W,D*01
$PSSN,HRP,084422.00,270324,277.717,,1.670,0.342,,0.375,33,2,8.838,W*19
$GNRMC,084422.50,A,3737.7326664,N,12704.7314121,E,1.9,14.9,270324,8.8,W,D*02
$PSSN,HRP,084422.50,270324,279.151,,1.798,0.374,,0.382,32,2,8.838,W*1D
$GNRMC,084423.00,A,3737.7329145,N,12704.7314939,E,1.7,16.8,270324,8.8,W,D*01
$PSSN,HRP,084423.00,270324,279.873,,1.792,0.382,,0.401,32,2,8.838,W*1F
$GNRMC,084423.50,A,3737.7330644,N,12704.7315454,E,0.7,15.7,270324,8.8,W,D*00
$PSSN,HRP,084423.50,270324,280.251,,1.634,0.344,,0.408,31,2,8.838,W*1B
$GNRMC,084424.00,A,3737.7330744,N,12704.7315514,E,0.6,16.0,270324,8.8,W,D*03
$PSSN,HRP,084424.00,270324,280.010,,1.410,0.331,,0.403,31,2,8.838,W*13
$GNRMC,084424.50,A,3737.7329421,N,12704.7314849,E,1.4,202.1,270324,8.8,W,D*3F
$PSSN,HRP,084424.50,270324,281.109,,1.377,0.262,,0.390,33,2,8.838,W*10
$GNRMC,084425.00,A,3737.7327808,N,12704.7314032,E,1.4,201.0,270324,8.8,W,D*34
$PSSN,HRP,084425.00,270324,278.258,,1.446,0.262,,0.384,33,2,8.838,W*15
$GNRMC,084425.50,A,3737.7325564,N,12704.7313453,E,1.9,193.6,270324,8.8,W,D*33
$PSSN,HRP,084425.50,270324,277.310,,1.652,0.251,,0.369,34,2,8.838,W*11
$GNRMC,084426.00,A,3737.7322765,N,12704.7312831,E,2.1,190.0,270324,8.8,W,D*36
$PSSN,HRP,084426.00,270324,280.668,,1.839,0.218,,0.284,34,2,8.838,W*19
$GNRMC,084426.50,A,3737.7319799,N,12704.7312173,E,2.2,191.5,270324,8.8,W,D*30
$PSSN,HRP,084426.50,270324,284.775,,1.641,0.316,,0.305,33,2,8.838,W*14
$GNRMC,084427.00,A,3737.7316733,N,12704.7311427,E,2.1,190.3,270324,8.8,W,D*38
$PSSN,HRP,084427.00,270324,288.421,,1.696,0.315,,0.304,33,2,8.838,W*16
$GNRMC,084427.50,A,3737.7313870,N,12704.7310746,E,2.1,190.9,270324,8.8,W,D*3F
$PSSN,HRP,084427.50,270324,292.253,,1.818,0.326,,0.327,33,2,8.838,W*12
$GNRMC,084428.00,A,3737.7311120,N,12704.7310099,E,1.8,189.5,270324,8.8,W,D*30
$PSSN,HRP,084428.00,270324,296.639,,2.125,0.354,,0.388,33,2,8.838,W*10
$GNRMC,084428.50,A,3737.7308741,N,12704.7309711,E,1.6,187.9,270324,8.8,W,D*3F
$PSSN,HRP,084428.50,270324,295.347,,1.984,0.367,,0.420,34,2,8.838,W*18
$GNRMC,084429.00,A,3737.7306940,N,12704.7309297,E,1.1,189.0,270324,8.8,W,D*31
$PSSN,HRP,084429.00,270324,292.783,,1.354,0.354,,0.390,34,2,8.838,W*1C
$GNRMC,084429.50,A,3737.7305691,N,12704.7309069,E,0.8,188.1,270324,8.8,W,D*3F
$PSSN,HRP,084429.50,270324,287.398,,1.301,0.322,,0.385,34,2,8.838,W*16
$GNRMC,084430.00,A,3737.7304658,N,12704.7308953,E,0.7,187.2,270324,8.8,W,D*34
$PSSN,HRP,084430.00,270324,282.239,,1.463,0.309,,0.387,34,2,8.838,W*1C
$GNRMC,084430.50,A,3737.7303687,N,12704.7308809,E,0.6,187.0,270324,8.8,W,D*39
$PSSN,HRP,084430.50,270324,281.590,,1.742,0.296,,0.385,34,2,8.838,W*1B
$GNRMC,084431.00,A,3737.7303085,N,12704.7308715,E,0.3,187.2,270324,8.8,W,D*3C
$PSSN,HRP,084431.00,270324,281.765,,2.005,0.223,,0.369,34,2,8.838,W*1C
$GNRMC,084431.50,A,3737.7302721,N,12704.7308655,E,0.2,187.5,270324,8.8,W,D*32
$PSSN,HRP,084431.50,270324,282.034,,1.842,0.209,,0.346,32,2,8.838,W*12
$GNRMC,084432.00,A,3737.7302816,N,12704.7308781,E,0.5,,270324,8.8,W,D*15
$PSSN,HRP,084432.00,270324,278.587,,1.854,0.190,,0.286,32,2,8.838,W*15
$GNRMC,084432.50,A,3737.7303353,N,12704.7309095,E,0.4,34.7,270324,8.8,W,D*07
$PSSN,HRP,084432.50,270324,271.784,,1.739,0.191,,0.286,32,2,8.838,W*1D
$GNRMC,084433.00,A,3737.7303085,N,12704.7309376,E,0.6,128.9,270324,8.8,W,D*35
$PSSN,HRP,084433.00,270324,271.733,,1.731,0.205,,0.293,32,2,8.838,W*17
$GNRMC,084433.50,A,3737.7302503,N,12704.7309697,E,0.1,148.9,270324,8.8,W,D*31
$PSSN,HRP,084433.50,270324,279.330,,1.612,0.201,,0.295,32,2,8.838,W*1F
$GNRMC,084434.00,A,3737.7302650,N,12704.7309683,E,0.2,,270324,8.8,W,D*1A
$PSSN,HRP,084434.00,270324,278.073,,1.589,0.212,,0.295,32,2,8.838,W*1B
$GNRMC,084434.50,A,3737.7302712,N,12704.7309726,E,0.1,,270324,8.8,W,D*15
$PSSN,HRP,084434.50,270324,275.880,,1.768,0.218,,0.317,32,2,8.838,W*1B
$GNRMC,084435.00,A,3737.7302596,N,12704.7309826,E,0.2,,270324,8.8,W,D*13
$PSSN,HRP,084435.00,270324,278.921,,1.908,0.263,,0.382,32,2,8.838,W*10
$GNRMC,084435.50,A,3737.7302490,N,12704.7309916,E,0.1,,270324,8.8,W,D*10
$PSSN,HRP,084435.50,270324,280.044,,1.945,0.261,,0.415,32,2,8.838,W*1A
$GNRMC,084436.00,A,3737.7302607,N,12704.7309794,E,0.2,,270324,8.8,W,D*1D
$PSSN,HRP,084436.00,270324,278.201,,1.692,0.233,,0.377,32,2,8.838,W*19
$GNRMC,084436.50,A,3737.7302573,N,12704.7309836,E,0.1,,270324,8.8,W,D*1C
$PSSN,HRP,084436.50,270324,278.876,,1.810,0.204,,0.332,32,2,8.838,W*17
$GNRMC,084437.00,A,3737.7302592,N,12704.7309837,E,0.0,,270324,8.8,W,D*17
$PSSN,HRP,084437.00,270324,278.728,,1.917,0.172,,0.282,32,2,8.838,W*19
$GNRMC,084437.50,A,3737.7302823,N,12704.7309844,E,0.4,,270324,8.8,W,D*15
$PSSN,HRP,084437.50,270324,280.253,,2.170,0.193,,0.285,31,2,8.838,W*13
$GNRMC,084438.00,A,3737.7303906,N,12704.7310332,E,1.2,19.3,270324,8.8,W,D*08
$PSSN,HRP,084438.00,270324,284.065,,2.537,0.226,,0.291,31,2,8.838,W*15
$GNRMC,084438.50,A,3737.7305702,N,12704.7311030,E,1.5,16.9,270324,8.8,W,D*03
