09:13:31 : $GNRMC,001331.00,A,3737.8008366,N,12704.7237664,E,0.0,,050424,8.8,W,D*13
09:13:31 : $PSSN,HRP,001331.00,050424,189.938,,1.177,0.113,,0.269,38,2,8.839,W*17
09:13:31 : $GNRMC,001331.20,A,3737.8008365,N,12704.7237667,E,0.0,,050424,8.8,W,D*11
09:13:31 : $PSSN,HRP,001331.20,050424,189.947,,1.181,0.113,,0.269,38,2,8.839,W*14
09:13:31 : $GNRMC,001331.40,A,3737.8008356,N,12704.7237668,E,0.0,,050424,8.8,W,D*18
09:13:31 : $PSSN,HRP,001331.40,050424,189.964,,1.148,0.113,,0.269,38,2,8.839,W*16
09:13:32 : $GNRMC,001331.60,A,3737.8008358,N,12704.7237666,E,0.0,,050424,8.8,W,D*1A
09:13:32 : $PSSN,HRP,001331.60,050424,189.932,,1.157,0.113,,0.269,38,2,8.839,W*19
09:13:32 : $GNRMC,001332.00,A,3737.8008358,N,12704.7237662,E,0.0,,050424,8.8,W,D*1B
09:13:32 : $PSSN,HRP,001332.00,050424,189.942,,1.257,0.113,,0.269,38,2,8.839,W*18
09:13:32 : $GNRMC,001332.20,A,3737.8008359,N,12704.7237664,E,0.0,,050424,8.8,W,D*1E
09:13:32 : $PSSN,HRP,001332.20,050424,189.931,,1.246,0.113,,0.269,38,2,8.839,W*1E
09:13:32 : $GNRMC,001332.40,A,3737.8008360,N,12704.7237660,E,0.0,,050424,8.8,W,D*16
09:13:32 : $PSSN,HRP,001332.40,050424,189.909,,1.297,0.113,,0.269,38,2,8.839,W*1F
09:13:32 : $GNRMC,001332.60,A,3737.8008362,N,12704.7237661,E,0.0,,050424,8.8,W,D*17
09:13:32 : $PSSN,HRP,001332.60,050424,189.903,,1.083,0.113,,0.269,38,2,8.839,W*10
09:13:33 : $GNRMC,001332.80,A,3737.8008361,N,12704.7237656,E,0.0,,050424,8.8,W,D*1E
09:13:33 : $PSSN,HRP,001332.80,050424,189.898,,1.219,0.114,,0.270,38,2,8.839,W*13
09:13:33 : $GNRMC,001333.00,A,3737.8008371,N,12704.7237659,E,0.0,,050424,8.8,W,D*19
09:13:33 : $PSSN,HRP,001333.00,050424,189.881,,1.137,0.113,,0.270,38,2,8.839,W*1A
09:13:33 : $GNRMC,001333.20,A,3737.8008370,N,12704.7237657,E,0.0,,050424,8.8,W,D*14
09:13:33 : $PSSN,HRP,001333.20,050424,189.886,,1.128,0.113,,0.270,38,2,8.839,W*11
09:13:33 : $GNRMC,001333.40,A,3737.8008374,N,12704.7237659,E,0.0,,050424,8.8,W,D*18
09:13:33 : $PSSN,HRP,001333.40,050424,189.906,,1.186,0.114,,0.270,38,2,8.839,W*1D
09:13:33 : $GNRMC,001333.60,A,3737.8008377,N,12704.7237660,E,0.0,,050424,8.8,W,D*13
09:13:33 : $PSSN,HRP,001333.60,050424,189.911,,1.158,0.113,,0.269,38,2,8.839,W*15
09:13:34 : $GNRMC,001333.80,A,3737.8008386,N,12704.7237662,E,0.0,,050424,8.8,W,D*11
09:13:34 : $PSSN,HRP,001333.80,050424,189.912,,1.148,0.113,,0.269,38,2,8.839,W*19
09:13:34 : $GNRMC,001334.00,A,3737.8008387,N,12704.7237660,E,0.0,,050424,8.8,W,D*1D
09:13:34 : $PSSN,HRP,001334.00,050424,189.898,,1.148,0.113,,0.269,38,2,8.839,W*15
09:13:34 : $GNRMC,001334.20,A,3737.8008390,N,12704.7237662,E,0.0,,050424,8.8,W,D*1B
09:13:34 : $PSSN,HRP,001334.20,050424,189.936,,1.158,0.113,,0.269,38,2,8.839,W*13
09:13:34 : $GNRMC,001334.60,A,3737.8008393,N,12704.7237666,E,0.0,,050424,8.8,W,D*18
09:13:34 : $PSSN,HRP,001334.60,050424,189.922,,1.277,0.113,,0.269,38,2,8.839,W*1C
09:13:35 : $GNRMC,001334.80,A,3737.8008389,N,12704.7237666,E,0.0,,050424,8.8,W,D*1D
09:13:35 : $PSSN,HRP,001334.80,050424,189.914,,1.245,0.113,,0.269,38,2,8.839,W*16
09:13:35 : $GNRMC,001335.00,A,3737.8008387,N,12704.7237668,E,0.0,,050424,8.8,W,D*14
09:13:35 : $PSSN,HRP,001335.00,050424,189.933,,1.128,0.113,,0.269,38,2,8.839,W*12
09:13:35 : $GNRMC,001335.20,A,3737.8008386,N,12704.7237669,E,0.0,,050424,8.8,W,D*16
09:13:35 : $PSSN,HRP,001335.20,050424,189.926,,1.235,0.113,,0.269,38,2,8.839,W*1B
09:13:35 : $GNRMC,001335.40,A,3737.8008383,N,12704.7237670,E,0.0,,050424,8.8,W,D*1D
09:13:35 : $PSSN,HRP,001335.40,050424,189.910,,1.236,0.113,,0.270,38,2,8.839,W*13
09:13:35 : $GNRMC,001335.60,A,3737.8008376,N,12704.7237674,E,0.0,,050424,8.8,W,D*11
09:13:35 : $PSSN,HRP,001335.60,050424,189.921,,1.299,0.113,,0.269,38,2,8.839,W*1E
09:13:36 : $GNRMC,001335.80,A,3737.8008370,N,12704.7237671,E,0.0,,050424,8.8,W,D*1C
09:13:36 : $PSSN,HRP,001335.80,050424,189.915,,1.321,0.113,,0.269,38,2,8.839,W*15
09:13:36 : $GNRMC,001336.00,A,3737.8008370,N,12704.7237675,E,0.0,,050424,8.8,W,D*13
09:13:36 : $PSSN,HRP,001336.00,050424,189.902,,1.341,0.113,,0.269,38,2,8.839,W*1E
09:13:36 : $GNRMC,001336.20,A,3737.8008363,N,12704.7237673,E,0.0,,050424,8.8,W,D*15
09:13:36 : $PSSN,HRP,001336.20,050424,189.910,,1.262,0.113,,0.269,38,2,8.839,W*1F
09:13:36 : $GNRMC,001336.40,A,3737.8008366,N,12704.7237671,E,0.0,,050424,8.8,W,D*14
09:13:36 : $PSSN,HRP,001336.40,050424,189.901,,1.223,0.113,,0.268,38,2,8.839,W*1D
09:13:36 : $GNRMC,001336.60,A,3737.8008366,N,12704.7237670,E,0.0,,050424,8.8,W,D*17
09:13:36 : $PSSN,HRP,001336.60,050424,189.908,,1.220,0.113,,0.268,38,2,8.839,W*15
09:13:37 : $GNRMC,001336.80,A,3737.8008365,N,12704.7237666,E,0.0,,050424,8.8,W,D*1D
09:13:37 : $PSSN,HRP,001336.80,050424,189.894,,1.255,0.113,,0.268,38,2,8.839,W*1D
09:13:37 : $GNRMC,001337.00,A,3737.8008368,N,12704.7237667,E,0.0,,050424,8.8,W,D*18
09:13:37 : $PSSN,HRP,001337.00,050424,189.917,,1.207,0.113,,0.268,38,2,8.839,W*19
09:13:37 : $GNRMC,001337.20,A,3737.8008366,N,12704.7237673,E,0.0,,050424,8.8,W,D*11
09:13:37 : $PSSN,HRP,001337.20,050424,189.936,,1.119,0.113,,0.268,38,2,8.839,W*14
09:13:37 : $GNRMC,001337.60,A,3737.8008374,N,12704.7237674,E,0.0,,050424,8.8,W,D*11
09:13:37 : $PSSN,HRP,001337.60,050424,189.952,,1.145,0.113,,0.268,38,2,8.839,W*1B
09:13:37 : $GNRMC,001337.80,A,3737.8008375,N,12704.7237674,E,0.0,,050424,8.8,W,D*1E
09:13:37 : $PSSN,HRP,001337.80,050424,189.958,,0.995,0.113,,0.269,38,2,8.839,W*1A
09:13:38 : $GNRMC,001338.00,A,3737.8008377,N,12704.7237675,E,0.0,,050424,8.8,W,D*1A
09:13:38 : $PSSN,HRP,001338.00,050424,189.920,,1.044,0.113,,0.269,38,2,8.839,W*16
09:13:38 : $GNRMC,001338.20,A,3737.8008378,N,12704.7237681,E,0.0,,050424,8.8,W,D*1C
09:13:38 : $PSSN,HRP,001338.20,050424,189.942,,1.004,0.113,,0.269,38,2,8.839,W*14
09:13:38 : $GNRMC,001338.40,A,3737.8008374,N,12704.7237682,E,0.0,,050424,8.8,W,D*15
09:13:38 : $PSSN,HRP,001338.40,050424,189.946,,0.981,0.113,,0.270,38,2,8.839,W*1B
09:13:38 : $GNRMC,001338.60,A,3737.8008374,N,12704.7237683,E,0.0,,050424,8.8,W,D*16
09:13:38 : $PSSN,HRP,001338.60,050424,189.960,,1.235,0.114,,0.270,38,2,8.839,W*1F
09:13:39 : $GNRMC,001338.80,A,3737.8008368,N,12704.7237679,E,0.0,,050424,8.8,W,D*10
09:13:39 : $PSSN,HRP,001338.80,050424,189.957,,1.003,0.113,,0.271,38,2,8.839,W*14
09:13:39 : $GNRMC,001339.00,A,3737.8008368,N,12704.7237681,E,0.0,,050424,8.8,W,D*1E
09:13:39 : $PSSN,HRP,001339.00,050424,189.951,,1.111,0.114,,0.271,38,2,8.839,W*1E
09:13:39 : $GNRMC,001339.20,A,3737.8008363,N,12704.7237680,E,0.0,,050424,8.8,W,D*16
09:13:39 : $PSSN,HRP,001339.20,050424,189.958,,1.067,0.114,,0.271,38,2,8.839,W*15
09:13:39 : $GNRMC,001339.40,A,3737.8008365,N,12704.7237675,E,0.0,,050424,8.8,W,D*1C
09:13:39 : $PSSN,HRP,001339.40,050424,189.939,,1.192,0.114,,0.271,38,2,8.839,W*1F
09:13:39 : $GNRMC,001339.60,A,3737.8008373,N,12704.7237674,E,0.0,,050424,8.8,W,D*18
09:13:39 : $PSSN,HRP,001339.60,050424,189.930,,1.316,0.114,,0.271,38,2,8.839,W*1A
09:13:40 : $GNRMC,001339.80,A,3737.8008369,N,12704.7237673,E,0.0,,050424,8.8,W,D*1A
09:13:40 : $PSSN,HRP,001339.80,050424,189.942,,1.137,0.114,,0.271,38,2,8.839,W*10
09:13:40 : $GNRMC,001340.20,A,3737.8008371,N,12704.7237665,E,0.0,,050424,8.8,W,D*10
09:13:40 : $PSSN,HRP,001340.20,050424,189.916,,1.133,0.114,,0.271,38,2,8.839,W*11
09:13:40 : $GNRMC,001340.40,A,3737.8008372,N,12704.7237669,E,0.0,,050424,8.8,W,D*19
09:13:40 : $PSSN,HRP,001340.40,050424,189.960,,1.043,0.113,,0.270,38,2,8.839,W*16
09:13:40 : $GNRMC,001340.60,A,3737.8008370,N,12704.7237664,E,0.0,,050424,8.8,W,D*14
09:13:40 : $PSSN,HRP,001340.60,050424,189.929,,1.019,0.114,,0.270,38,2,8.839,W*11
09:13:40 : $GNRMC,001340.80,A,3737.8008371,N,12704.7237667,E,0.0,,050424,8.8,W,D*18
09:13:40 : $PSSN,HRP,001340.80,050424,189.961,,1.006,0.113,,0.270,38,2,8.839,W*1A
09:13:41 : $GNRMC,001341.00,A,3737.8008372,N,12704.7237663,E,0.0,,050424,8.8,W,D*16
09:13:41 : $PSSN,HRP,001341.00,050424,189.950,,1.125,0.113,,0.270,38,2,8.839,W*11
09:13:41 : $GNRMC,001341.20,A,3737.8008371,N,12704.7237660,E,0.0,,050424,8.8,W,D*14
09:13:41 : $PSSN,HRP,001341.20,050424,189.956,,1.133,0.113,,0.270,38,2,8.839,W*12
09:13:41 : $GNRMC,001341.40,A,3737.8008363,N,12704.7237659,E,0.0,,050424,8.8,W,D*1B
09:13:41 : $PSSN,HRP,001341.40,050424,189.951,,1.083,0.113,,0.270,38,2,8.839,W*19
09:13:41 : $GNRMC,001341.60,A,3737.8008369,N,12704.7237660,E,0.0,,050424,8.8,W,D*19
09:13:41 : $PSSN,HRP,001341.60,050424,189.950,,1.283,0.113,,0.270,38,2,8.839,W*18
09:13:42 : $GNRMC,001341.80,A,3737.8008368,N,12704.7237655,E,0.0,,050424,8.8,W,D*10
09:13:42 : $PSSN,HRP,001341.80,050424,189.956,,1.089,0.113,,0.270,38,2,8.839,W*18
09:13:42 : $GNRMC,001342.00,A,3737.8008365,N,12704.7237651,E,0.0,,050424,8.8,W,D*12
09:13:42 : $PSSN,HRP,001342.00,050424,189.928,,1.109,0.113,,0.270,38,2,8.839,W*13
09:13:42 : $GNRMC,001342.20,A,3737.8008368,N,12704.7237650,E,0.0,,050424,8.8,W,D*1C
09:13:42 : $PSSN,HRP,001342.20,050424,189.942,,1.203,0.114,,0.270,38,2,8.839,W*13
09:13:42 : $GNRMC,001342.40,A,3737.8008372,N,12704.7237654,E,0.0,,050424,8.8,W,D*15
09:13:42 : $PSSN,HRP,001342.40,050424,189.926,,1.154,0.113,,0.270,38,2,8.839,W*11
09:13:42 : $GNRMC,001342.60,A,3737.8008372,N,12704.7237651,E,0.0,,050424,8.8,W,D*12
09:13:42 : $PSSN,HRP,001342.60,050424,189.911,,1.211,0.114,,0.270,38,2,8.839,W*12
09:13:43 : $GNRMC,001342.80,A,3737.8008377,N,12704.7237658,E,0.0,,050424,8.8,W,D*10
09:13:43 : $PSSN,HRP,001342.80,050424,189.921,,1.034,0.114,,0.270,38,2,8.839,W*1A
09:13:43 : $GNRMC,001343.20,A,3737.8008381,N,12704.7237656,E,0.0,,050424,8.8,W,D*1C
09:13:43 : $PSSN,HRP,001343.20,050424,189.892,,1.240,0.114,,0.270,38,2,8.839,W*19
09:13:43 : $GNRMC,001343.40,A,3737.8008386,N,12704.7237660,E,0.0,,050424,8.8,W,D*18
09:13:43 : $PSSN,HRP,001343.40,050424,189.904,,1.247,0.114,,0.270,38,2,8.839,W*16
09:13:43 : $GNRMC,001343.60,A,3737.8008385,N,12704.7237665,E,0.0,,050424,8.8,W,D*1C
09:13:43 : $PSSN,HRP,001343.60,050424,189.939,,1.073,0.114,,0.270,38,2,8.839,W*1F
09:13:43 : $GNRMC,001343.80,A,3737.8008388,N,12704.7237670,E,0.0,,050424,8.8,W,D*1B
09:13:43 : $PSSN,HRP,001343.80,050424,189.945,,1.294,0.114,,0.270,38,2,8.839,W*11
09:13:44 : $GNRMC,001344.00,A,3737.8008388,N,12704.7237673,E,0.0,,050424,8.8,W,D*17
09:13:44 : $PSSN,HRP,001344.00,050424,189.947,,1.174,0.113,,0.270,38,2,8.839,W*16
09:13:44 : $GNRMC,001344.20,A,3737.8008389,N,12704.7237676,E,0.0,,050424,8.8,W,D*11
09:13:44 : $PSSN,HRP,001344.20,050424,189.951,,1.201,0.113,,0.270,38,2,8.839,W*12
09:13:44 : $GNRMC,001344.40,A,3737.8008388,N,12704.7237680,E,0.0,,050424,8.8,W,D*1F
09:13:44 : $PSSN,HRP,001344.40,050424,189.951,,1.193,0.113,,0.270,38,2,8.839,W*1C
09:13:44 : $GNRMC,001344.60,A,3737.8008389,N,12704.7237680,E,0.0,,050424,8.8,W,D*1C
09:13:44 : $PSSN,HRP,001344.60,050424,189.939,,1.142,0.113,,0.270,38,2,8.839,W*1C
09:13:44 : $GNRMC,001344.80,A,3737.8008389,N,12704.7237681,E,0.0,,050424,8.8,W,D*13
09:13:44 : $PSSN,HRP,001344.80,050424,189.932,,1.254,0.113,,0.270,38,2,8.839,W*1D
09:13:45 : $GNRMC,001345.00,A,3737.8008391,N,12704.7237685,E,0.0,,050424,8.8,W,D*17
09:13:45 : $PSSN,HRP,001345.00,050424,189.915,,1.179,0.114,,0.270,38,2,8.839,W*1A
09:13:45 : $GNRMC,001345.20,A,3737.8008382,N,12704.7237681,E,0.0,,050424,8.8,W,D*13
09:13:45 : $PSSN,HRP,001345.20,050424,189.909,,1.278,0.114,,0.270,38,2,8.839,W*17
09:13:45 : $GNRMC,001345.40,A,3737.8008386,N,12704.7237680,E,0.0,,050424,8.8,W,D*10
09:13:45 : $PSSN,HRP,001345.40,050424,189.896,,0.982,0.114,,0.270,38,2,8.839,W*19
09:13:45 : $GNRMC,001345.60,A,3737.8008381,N,12704.7237674,E,0.0,,050424,8.8,W,D*1E
09:13:45 : $PSSN,HRP,001345.60,050424,189.905,,1.059,0.114,,0.270,38,2,8.839,W*1E
09:13:45 : $GNRMC,001345.80,A,3737.8008384,N,12704.7237676,E,0.0,,050424,8.8,W,D*17
09:13:45 : $PSSN,HRP,001345.80,050424,189.900,,0.956,0.113,,0.270,38,2,8.839,W*15
09:13:46 : $GNRMC,001346.00,A,3737.8008375,N,12704.7237673,E,0.0,,050424,8.8,W,D*17
09:13:46 : $PSSN,HRP,001346.00,050424,189.920,,1.185,0.114,,0.271,38,2,8.839,W*1D
09:13:46 : $GNRMC,001346.20,A,3737.8008374,N,12704.7237672,E,0.0,,050424,8.8,W,D*15
09:13:46 : $PSSN,HRP,001346.20,050424,189.930,,1.140,0.114,,0.271,38,2,8.839,W*17
09:13:46 : $GNRMC,001346.60,A,3737.8008367,N,12704.7237666,E,0.0,,050424,8.8,W,D*16
09:13:46 : $PSSN,HRP,001346.60,050424,189.925,,1.125,0.114,,0.271,38,2,8.839,W*14
09:13:46 : $GNRMC,001346.80,A,3737.8008365,N,12704.7237669,E,0.0,,050424,8.8,W,D*15
09:13:46 : $PSSN,HRP,001346.80,050424,189.963,,1.001,0.114,,0.271,38,2,8.839,W*1F
09:13:47 : $GNRMC,001347.00,A,3737.8008363,N,12704.7237660,E,0.0,,050424,8.8,W,D*13
09:13:47 : $PSSN,HRP,001347.00,050424,189.934,,0.965,0.114,,0.271,38,2,8.839,W*1E
09:13:47 : $GNRMC,001347.20,A,3737.8008360,N,12704.7237663,E,0.0,,050424,8.8,W,D*11
09:13:47 : $PSSN,HRP,001347.20,050424,189.942,,1.107,0.114,,0.270,38,2,8.839,W*11
09:13:47 : $GNRMC,001347.40,A,3737.8008363,N,12704.7237663,E,0.0,,050424,8.8,W,D*14
09:13:47 : $PSSN,HRP,001347.40,050424,189.926,,1.068,0.114,,0.270,38,2,8.839,W*1D
09:13:47 : $GNRMC,001347.60,A,3737.8008364,N,12704.7237664,E,0.0,,050424,8.8,W,D*16
09:13:47 : $PSSN,HRP,001347.60,050424,189.926,,1.009,0.113,,0.270,38,2,8.839,W*1F
09:13:47 : $GNRMC,001347.80,A,3737.8008364,N,12704.7237663,E,0.0,,050424,8.8,W,D*1F
09:13:47 : $PSSN,HRP,001347.80,050424,189.942,,1.129,0.113,,0.269,38,2,8.839,W*18
09:13:48 : $GNRMC,001348.00,A,3737.8008367,N,12704.7237663,E,0.0,,050424,8.8,W,D*1B
09:13:48 : $PSSN,HRP,001348.00,050424,189.899,,1.128,0.113,,0.268,38,2,8.839,W*18
09:13:48 : $GNRMC,001348.20,A,3737.8008369,N,12704.7237667,E,0.0,,050424,8.8,W,D*13
09:13:48 : $PSSN,HRP,001348.20,050424,189.947,,1.169,0.113,,0.269,38,2,8.839,W*1C
09:13:48 : $GNRMC,001348.40,A,3737.8008369,N,12704.7237666,E,0.0,,050424,8.8,W,D*14
09:13:48 : $PSSN,HRP,001348.40,050424,189.929,,1.267,0.113,,0.269,38,2,8.839,W*1F
09:13:49 : $GNRMC,001348.80,A,3737.8008376,N,12704.7237666,E,0.0,,050424,8.8,W,D*16
09:13:49 : $PSSN,HRP,001348.80,050424,189.953,,1.223,0.114,,0.270,38,2,8.839,W*11
09:13:49 : $GNRMC,001349.00,A,3737.8008376,N,12704.7237666,E,0.0,,050424,8.8,W,D*1F
09:13:49 : $PSSN,HRP,001349.00,050424,189.949,,1.277,0.114,,0.270,38,2,8.839,W*12
09:13:49 : $GNRMC,001349.20,A,3737.8008379,N,12704.7237664,E,0.0,,050424,8.8,W,D*10
09:13:49 : $PSSN,HRP,001349.20,050424,189.929,,1.334,0.114,,0.270,38,2,8.839,W*10
09:13:49 : $GNRMC,001349.40,A,3737.8008380,N,12704.7237670,E,0.0,,050424,8.8,W,D*15
09:13:49 : $PSSN,HRP,001349.40,050424,189.958,,1.298,0.114,,0.271,38,2,8.839,W*16
09:13:49 : $GNRMC,001349.60,A,3737.8008378,N,12704.7237672,E,0.0,,050424,8.8,W,D*12
09:13:49 : $PSSN,HRP,001349.60,050424,189.952,,1.270,0.114,,0.271,38,2,8.839,W*18
09:13:50 : $GNRMC,001349.80,A,3737.8008380,N,12704.7237670,E,0.0,,050424,8.8,W,D*19
09:13:50 : $PSSN,HRP,001349.80,050424,189.906,,1.253,0.113,,0.269,38,2,8.839,W*18
09:13:50 : $GNRMC,001350.00,A,3737.8008381,N,12704.7237676,E,0.0,,050424,8.8,W,D*1E
09:13:50 : $PSSN,HRP,001350.00,050424,189.924,,1.313,0.113,,0.269,38,2,8.839,W*1D
09:13:50 : $GNRMC,001350.20,A,3737.8008379,N,12704.7237675,E,0.0,,050424,8.8,W,D*18
09:13:50 : $PSSN,HRP,001350.20,050424,189.913,,1.269,0.113,,0.269,38,2,8.839,W*17
09:13:50 : $GNRMC,001350.40,A,3737.8008382,N,12704.7237677,E,0.0,,050424,8.8,W,D*18
09:13:50 : $PSSN,HRP,001350.40,050424,189.938,,1.249,0.113,,0.269,38,2,8.839,W*1A
09:13:50 : $GNRMC,001350.60,A,3737.8008383,N,12704.7237671,E,0.0,,050424,8.8,W,D*1D
09:13:50 : $PSSN,HRP,001350.60,050424,189.934,,1.122,0.113,,0.269,38,2,8.839,W*1A
09:13:51 : $GNRMC,001350.80,A,3737.8008383,N,12704.7237670,E,0.0,,050424,8.8,W,D*12
09:13:51 : $PSSN,HRP,001350.80,050424,189.924,,1.182,0.113,,0.269,38,2,8.839,W*1F
09:13:51 : $GNRMC,001351.00,A,3737.8008384,N,12704.7237668,E,0.0,,050424,8.8,W,D*15
09:13:51 : $PSSN,HRP,001351.00,050424,189.922,,1.052,0.113,,0.269,38,2,8.839,W*1C
09:13:51 : $GNRMC,001351.40,A,3737.8008383,N,12704.7237666,E,0.0,,050424,8.8,W,D*18
09:13:51 : $PSSN,HRP,001351.40,050424,189.929,,0.994,0.113,,0.269,38,2,8.839,W*11
09:13:51 : $GNRMC,001351.60,A,3737.8008383,N,12704.7237662,E,0.0,,050424,8.8,W,D*1E
09:13:51 : $PSSN,HRP,001351.60,050424,189.974,,1.296,0.114,,0.269,38,2,8.839,W*14
09:13:52 : $GNRMC,001351.80,A,3737.8008384,N,12704.7237656,E,0.0,,050424,8.8,W,D*10
09:13:52 : $PSSN,HRP,001351.80,050424,189.960,,1.199,0.113,,0.269,38,2,8.839,W*14
09:13:52 : $GNRMC,001352.00,A,3737.8008382,N,12704.7237656,E,0.0,,050424,8.8,W,D*1D
09:13:52 : $PSSN,HRP,001352.00,050424,189.978,,1.328,0.113,,0.269,38,2,8.839,W*1E
09:13:52 : $GNRMC,001352.20,A,3737.8008383,N,12704.7237654,E,0.0,,050424,8.8,W,D*1C
09:13:52 : $PSSN,HRP,001352.20,050424,189.967,,1.338,0.113,,0.269,38,2,8.839,W*13
09:13:52 : $GNRMC,001352.40,A,3737.8008388,N,12704.7237654,E,0.0,,050424,8.8,W,D*11
09:13:52 : $PSSN,HRP,001352.40,050424,189.930,,1.328,0.113,,0.269,38,2,8.839,W*16
09:13:52 : $GNRMC,001352.60,A,3737.8008387,N,12704.7237655,E,0.0,,050424,8.8,W,D*1D
09:13:52 : $PSSN,HRP,001352.60,050424,189.945,,1.335,0.113,,0.270,38,2,8.839,W*12
09:13:53 : $GNRMC,001352.80,A,3737.8008387,N,12704.7237659,E,0.0,,050424,8.8,W,D*1F
09:13:53 : $PSSN,HRP,001352.80,050424,189.948,,1.360,0.113,,0.270,38,2,8.839,W*11
09:13:53 : $GNRMC,001353.00,A,3737.8008388,N,12704.7237659,E,0.0,,050424,8.8,W,D*19
09:13:53 : $PSSN,HRP,001353.00,050424,189.873,,1.302,0.113,,0.270,38,2,8.839,W*15
09:13:53 : $GNRMC,001353.20,A,3737.8008392,N,12704.7237661,E,0.0,,050424,8.8,W,D*1B
09:13:53 : $PSSN,HRP,001353.20,050424,189.914,,1.235,0.113,,0.270,38,2,8.839,W*12
09:13:53 : $GNRMC,001353.60,A,3737.8008391,N,12704.7237660,E,0.0,,050424,8.8,W,D*1D
09:13:53 : $PSSN,HRP,001353.60,050424,189.899,,1.158,0.113,,0.270,38,2,8.839,W*1A
09:13:53 : $GNRMC,001353.80,A,3737.8008390,N,12704.7237656,E,0.0,,050424,8.8,W,D*17
09:13:53 : $PSSN,HRP,001353.80,050424,189.893,,1.090,0.114,,0.270,37,2,8.839,W*13
09:13:54 : $GNRMC,001354.00,A,3737.8008388,N,12704.7237653,E,0.0,,050424,8.8,W,D*14
09:13:54 : $PSSN,HRP,001354.00,050424,189.873,,1.017,0.114,,0.271,38,2,8.839,W*13
09:13:54 : $GNRMC,001354.20,A,3737.8008382,N,12704.7237665,E,0.0,,050424,8.8,W,D*19
09:13:54 : $PSSN,HRP,001354.20,050424,189.925,,1.120,0.114,,0.271,37,2,8.839,W*19
09:13:54 : $GNRMC,001354.40,A,3737.8008377,N,12704.7237661,E,0.0,,050424,8.8,W,D*11
09:13:54 : $PSSN,HRP,001354.40,050424,189.833,,1.111,0.115,,0.272,37,2,8.839,W*19
09:13:54 : $GNRMC,001354.60,A,3737.8008383,N,12704.7237657,E,0.0,,050424,8.8,W,D*1D
09:13:54 : $PSSN,HRP,001354.60,050424,189.809,,1.123,0.116,,0.273,36,2,8.839,W*10
09:13:55 : $GNRMC,001354.80,A,3737.8008395,N,12704.7237563,E,0.1,,050424,8.8,W,D*11
09:13:55 : $PSSN,HRP,001354.80,050424,189.441,,1.208,0.121,,0.275,36,2,8.839,W*16
09:13:55 : $GNRMC,001355.00,A,3737.8008449,N,12704.7237244,E,0.6,283.7,050424,8.8,W,D*3B
09:13:55 : $PSSN,HRP,001355.00,050424,188.168,,1.086,0.145,,0.279,35,2,8.839,W*19
09:13:55 : $GNRMC,001355.20,A,3737.8008468,N,12704.7236662,E,1.0,275.7,050424,8.8,W,D*35
09:13:55 : $PSSN,HRP,001355.20,050424,186.141,,1.196,0.161,,0.282,35,2,8.839,W*1C
09:13:55 : $GNRMC,001355.40,A,3737.8008465,N,12704.7235814,E,1.4,270.4,050424,8.8,W,D*30
09:13:55 : $PSSN,HRP,001355.40,050424,184.092,,1.117,0.158,,0.285,35,2,8.839,W*13
09:13:55 : $GNRMC,001355.80,A,3737.8008513,N,12704.7233544,E,1.9,271.2,050424,8.8,W,D*38
09:13:55 : $PSSN,HRP,001355.80,050424,176.319,,1.045,0.167,,0.326,34,2,8.839,W*11
09:13:56 : $GNRMC,001356.00,A,3737.8008585,N,12704.7232298,E,1.8,272.0,050424,8.8,W,D*3B
09:13:56 : $PSSN,HRP,001356.00,050424,171.405,,0.775,0.217,,0.350,33,2,8.839,W*10
09:13:56 : $GNRMC,001356.20,A,3737.8008525,N,12704.7231039,E,1.8,265.1,050424,8.8,W,D*3E
09:13:56 : $PSSN,HRP,001356.20,050424,166.120,,0.565,0.265,,0.361,33,2,8.839,W*12
09:13:56 : $GNRMC,001356.40,A,3737.8008434,N,12704.7229809,E,1.7,266.4,050424,8.8,W,D*32
09:13:56 : $PSSN,HRP,001356.40,050424,161.430,,0.717,0.258,,0.372,37,2,8.839,W*18
09:13:56 : $GNRMC,001356.60,A,3737.8008333,N,12704.7228648,E,1.6,265.6,050424,8.8,W,D*3A
09:13:56 : $PSSN,HRP,001356.60,050424,157.680,,0.714,0.267,,0.396,37,2,8.839,W*13
09:13:56 : $GNRMC,001356.80,A,3737.8008226,N,12704.7227574,E,1.5,264.4,050424,8.8,W,D*32
09:13:56 : $PSSN,HRP,001356.80,050424,155.645,,0.594,0.271,,0.415,37,2,8.839,W*17
09:13:57 : $GNRMC,001357.00,A,3737.8008101,N,12704.7226640,E,1.2,263.4,050424,8.8,W,D*38
09:13:57 : $PSSN,HRP,001357.00,050424,156.085,,0.597,0.266,,0.422,37,2,8.839,W*16
09:13:57 : $GNRMC,001357.20,A,3737.8007945,N,12704.7225891,E,1.0,261.7,050424,8.8,W,D*3F
09:13:57 : $PSSN,HRP,001357.20,050424,159.362,,0.699,0.252,,0.420,36,2,8.839,W*18
09:13:57 : $GNRMC,001357.40,A,3737.8007802,N,12704.7225217,E,0.9,260.3,050424,8.8,W,D*32
09:13:57 : $PSSN,HRP,001357.40,050424,164.150,,1.052,0.243,,0.432,35,2,8.839,W*13
09:13:57 : $GNRMC,001357.60,A,3737.8007668,N,12704.7224632,E,0.8,258.5,050424,8.8,W,D*3C
09:13:57 : $PSSN,HRP,001357.60,050424,169.870,,1.355,0.235,,0.434,36,2,8.839,W*17
09:13:58 : $GNRMC,001357.80,A,3737.8007521,N,12704.7223988,E,1.0,257.3,050424,8.8,W,D*35
09:13:58 : $PSSN,HRP,001357.80,050424,175.261,,1.560,0.248,,0.431,36,2,8.839,W*11
09:13:58 : $GNRMC,001358.20,A,3737.8007288,N,12704.7222443,E,1.2,258.9,050424,8.8,W,D*38
09:13:58 : $PSSN,HRP,001358.20,050424,185.497,,1.925,0.255,,0.430,36,2,8.839,W*14
09:13:58 : $GNRMC,001358.40,A,3737.8007206,N,12704.7221587,E,1.2,259.7,050424,8.8,W,D*3D
09:13:58 : $PSSN,HRP,001358.40,050424,190.486,,2.140,0.256,,0.431,35,2,8.839,W*1F
09:13:58 : $GNRMC,001358.60,A,3737.8007122,N,12704.7220758,E,1.2,260.6,050424,8.8,W,D*30
09:13:58 : $PSSN,HRP,001358.60,050424,195.526,,1.909,0.263,,0.434,35,2,8.839,W*16
09:13:58 : $GNRMC,001358.80,A,3737.8007107,N,12704.7219885,E,1.3,263.3,050424,8.8,W,D*3B
09:13:58 : $PSSN,HRP,001358.80,050424,199.934,,1.988,0.270,,0.430,35,2,8.839,W*14
09:13:59 : $GNRMC,001359.00,A,3737.8007157,N,12704.7218910,E,1.5,266.9,050424,8.8,W,D*32
09:13:59 : $PSSN,HRP,001359.00,050424,203.869,,1.785,0.277,,0.428,35,2,8.839,W*19
09:13:59 : $GNRMC,001359.20,A,3737.8007245,N,12704.7217881,E,1.6,270.6,050424,8.8,W,D*3D
09:13:59 : $PSSN,HRP,001359.20,050424,207.463,,1.764,0.286,,0.428,34,2,8.839,W*19
09:13:59 : $GNRMC,001359.40,A,3737.8007398,N,12704.7216870,E,1.5,274.3,050424,8.8,W,D*37
09:13:59 : $PSSN,HRP,001359.40,050424,210.876,,1.817,0.291,,0.433,34,2,8.839,W*16
09:13:59 : $GNRMC,001359.60,A,3737.8007603,N,12704.7215877,E,1.5,277.8,050424,8.8,W,D*3E
09:13:59 : $PSSN,HRP,001359.60,050424,213.817,,1.807,0.294,,0.437,34,2,8.839,W*10
09:14:00 : $GNRMC,001359.80,A,3737.8007861,N,12704.7214876,E,1.5,280.9,050424,8.8,W,D*33
09:14:00 : $PSSN,HRP,001359.80,050424,216.170,,1.890,0.297,,0.443,34,2,8.839,W*1D
09:14:00 : $GNRMC,001400.00,A,3737.8008104,N,12704.7213940,E,1.4,283.1,050424,8.8,W,D*3C
09:14:00 : $PSSN,HRP,001400.00,050424,218.320,,2.025,0.304,,0.445,34,2,8.839,W*1F
09:14:00 : $GNRMC,001400.40,A,3737.8008647,N,12704.7212262,E,1.2,287.5,050424,8.8,W,D*34
09:14:00 : $PSSN,HRP,001400.40,050424,220.786,,1.734,0.310,,0.447,34,2,8.839,W*1B
09:14:00 : $GNRMC,001400.60,A,3737.8008987,N,12704.7211480,E,1.3,290.5,050424,8.8,W,D*3B
09:14:00 : $PSSN,HRP,001400.60,050424,220.552,,1.655,0.215,,0.424,34,2,8.839,W*15
09:14:00 : $GNRMC,001400.80,A,3737.8009436,N,12704.7210540,E,1.7,302.4,050424,8.8,W,D*30
09:14:00 : $PSSN,HRP,001400.80,050424,218.486,,1.754,0.214,,0.403,34,2,8.839,W*1C
09:14:01 : $GNRMC,001401.00,A,3737.8010004,N,12704.7209482,E,2.0,305.3,050424,8.8,W,D*37
09:14:01 : $PSSN,HRP,001401.00,050424,216.024,,1.639,0.209,,0.403,34,2,8.839,W*11
09:14:01 : $GNRMC,001401.20,A,3737.8010596,N,12704.7208371,E,1.9,303.0,050424,8.8,W,D*3E
09:14:01 : $PSSN,HRP,001401.20,050424,214.023,,1.729,0.204,,0.403,36,2,8.839,W*19
09:14:01 : $GNRMC,001401.40,A,3737.8011159,N,12704.7207238,E,1.9,301.9,050424,8.8,W,D*36
09:14:01 : $PSSN,HRP,001401.40,050424,212.601,,1.656,0.198,,0.380,36,2,8.839,W*1C
09:14:02 : $GNRMC,001401.80,A,3737.8012206,N,12704.7205107,E,1.7,300.6,050424,8.8,W,D*3D
09:14:02 : $PSSN,HRP,001401.80,050424,210.666,,1.419,0.175,,0.303,36,2,8.839,W*12
09:14:02 : $GNRMC,001402.00,A,3737.8012645,N,12704.7204199,E,1.4,301.4,050424,8.8,W,D*33
09:14:02 : $PSSN,HRP,001402.00,050424,210.117,,1.369,0.172,,0.304,36,2,8.839,W*18
09:14:02 : $GNRMC,001402.20,A,3737.8013008,N,12704.7203456,E,1.1,301.2,050424,8.8,W,D*3D
09:14:02 : $PSSN,HRP,001402.20,050424,209.588,,1.417,0.171,,0.303,36,2,8.839,W*1A
09:14:02 : $GNRMC,001402.40,A,3737.8013243,N,12704.7202943,E,0.7,301.2,050424,8.8,W,D*39
09:14:02 : $PSSN,HRP,001402.40,050424,209.123,,1.684,0.156,,0.299,36,2,8.839,W*16
09:14:02 : $GNRMC,001402.60,A,3737.8013407,N,12704.7202642,E,0.4,301.6,050424,8.8,W,D*34
09:14:02 : $PSSN,HRP,001402.60,050424,208.318,,1.486,0.143,,0.294,36,2,8.839,W*16
09:14:03 : $GNRMC,001402.80,A,3737.8013487,N,12704.7202570,E,0.1,303.0,050424,8.8,W,D*31
09:14:03 : $PSSN,HRP,001402.80,050424,206.836,,1.611,0.128,,0.291,36,2,8.839,W*15
09:14:03 : $GNRMC,001403.00,A,3737.8013433,N,12704.7202775,E,0.6,306.5,050424,8.8,W,D*37
09:14:03 : $PSSN,HRP,001403.00,050424,204.677,,1.574,0.147,,0.294,36,2,8.839,W*19
09:14:03 : $GNRMC,001403.20,A,3737.8013316,N,12704.7203155,E,0.7,,050424,8.8,W,D*1F
09:14:03 : $PSSN,HRP,001403.20,050424,202.234,,1.782,0.149,,0.295,36,2,8.839,W*1A
09:14:03 : $GNRMC,001403.40,A,3737.8013195,N,12704.7203597,E,0.7,,050424,8.8,W,D*1A
09:14:03 : $PSSN,HRP,001403.40,050424,198.258,,1.612,0.147,,0.295,37,2,8.839,W*11
09:14:03 : $GNRMC,001403.60,A,3737.8013007,N,12704.7204004,E,0.7,109.6,050424,8.8,W,D*3A
09:14:03 : $PSSN,HRP,001403.60,050424,193.005,,1.478,0.144,,0.298,37,2,8.839,W*12
09:14:04 : $GNRMC,001403.80,A,3737.8012832,N,12704.7204458,E,0.8,113.8,050424,8.8,W,D*3C
09:14:04 : $PSSN,HRP,001403.80,050424,188.163,,1.143,0.143,,0.303,35,2,8.839,W*1C
09:14:04 : $GNRMC,001404.00,A,3737.8012674,N,12704.7205130,E,1.2,109.3,050424,8.8,W,D*3E
09:14:04 : $PSSN,HRP,001404.00,050424,184.430,,1.050,0.155,,0.305,36,2,8.839,W*1D
09:14:04 : $GNRMC,001404.40,A,3737.8012316,N,12704.7206926,E,1.6,105.6,050424,8.8,W,D*3A
09:14:04 : $PSSN,HRP,001404.40,050424,179.428,,1.050,0.154,,0.308,35,2,8.839,W*1D
09:14:04 : $GNRMC,001404.60,A,3737.8012123,N,12704.7208059,E,1.8,100.4,050424,8.8,W,D*3A
09:14:04 : $PSSN,HRP,001404.60,050424,178.754,,1.080,0.154,,0.310,35,2,8.839,W*12
09:14:05 : $GNRMC,001404.80,A,3737.8011915,N,12704.7209300,E,1.9,100.8,050424,8.8,W,D*39
09:14:05 : $PSSN,HRP,001404.80,050424,178.841,,1.204,0.153,,0.313,35,2,8.839,W*1D
09:14:05 : $GNRMC,001405.00,A,3737.8011736,N,12704.7210572,E,1.9,98.8,050424,8.8,W,D*04
09:14:05 : $PSSN,HRP,001405.00,050424,178.882,,1.089,0.154,,0.313,35,2,8.839,W*1B
09:14:05 : $GNRMC,001405.20,A,3737.8011581,N,12704.7211773,E,1.7,98.1,050424,8.8,W,D*0D
09:14:05 : $PSSN,HRP,001405.20,050424,178.610,,1.333,0.154,,0.313,35,2,8.839,W*1E
09:14:05 : $GNRMC,001405.40,A,3737.8011457,N,12704.7212983,E,1.7,97.8,050424,8.8,W,D*05
09:14:05 : $PSSN,HRP,001405.40,050424,178.637,,1.513,0.155,,0.313,35,2,8.839,W*18
09:14:05 : $GNRMC,001405.60,A,3737.8011289,N,12704.7214265,E,1.9,99.1,050424,8.8,W,D*0E
09:14:05 : $PSSN,HRP,001405.60,050424,179.705,,1.518,0.156,,0.314,35,2,8.839,W*14
09:14:06 : $GNRMC,001405.80,A,3737.8011149,N,12704.7215681,E,2.1,96.1,050424,8.8,W,D*04
09:14:06 : $PSSN,HRP,001405.80,050424,181.969,,1.647,0.155,,0.314,35,2,8.839,W*13
09:14:06 : $GNRMC,001406.00,A,3737.8010982,N,12704.7217146,E,2.2,98.6,050424,8.8,W,D*05
09:14:06 : $PSSN,HRP,001406.00,050424,184.637,,1.677,0.154,,0.315,35,2,8.839,W*1A
09:14:06 : $GNRMC,001406.40,A,3737.8010695,N,12704.7220204,E,2.3,97.9,050424,8.8,W,D*08
09:14:06 : $PSSN,HRP,001406.40,050424,189.837,,1.486,0.155,,0.314,35,2,8.839,W*11
09:14:06 : $GNRMC,001406.60,A,3737.8010534,N,12704.7221798,E,2.3,97.7,050424,8.8,W,D*0D
09:14:06 : $PSSN,HRP,001406.60,050424,192.629,,1.720,0.156,,0.313,35,2,8.839,W*13
09:14:06 : $GNRMC,001406.80,A,3737.8010337,N,12704.7223444,E,2.4,99.3,050424,8.8,W,D*0B
09:14:06 : $PSSN,HRP,001406.80,050424,195.615,,1.639,0.156,,0.312,35,2,8.839,W*1D
09:14:07 : $GNRMC,001407.00,A,3737.8010146,N,12704.7225023,E,2.2,98.0,050424,8.8,W,D*01
09:14:07 : $PSSN,HRP,001407.00,050424,197.671,,1.462,0.203,,0.322,35,2,8.839,W*18
09:14:07 : $GNRMC,001407.20,A,3737.8010019,N,12704.7226585,E,2.2,95.9,050424,8.8,W,D*06
09:14:07 : $PSSN,HRP,001407.20,050424,198.894,,1.752,0.239,,0.330,36,2,8.839,W*19
09:14:07 : $GNRMC,001407.40,A,3737.8009868,N,12704.7228086,E,2.1,97.8,050424,8.8,W,D*0E
09:14:07 : $PSSN,HRP,001407.40,050424,199.805,,1.653,0.243,,0.342,36,2,8.839,W*1E
09:14:07 : $GNRMC,001407.60,A,3737.8009700,N,12704.7229574,E,2.1,98.0,050424,8.8,W,D*03
09:14:07 : $PSSN,HRP,001407.60,050424,200.835,,1.770,0.249,,0.374,36,2,8.839,W*13
09:14:08 : $GNRMC,001407.80,A,3737.8009483,N,12704.7230982,E,2.0,102.2,050424,8.8,W,D*39
09:14:08 : $PSSN,HRP,001407.80,050424,201.841,,1.601,0.265,,0.425,36,2,8.839,W*15
09:14:08 : $GNRMC,001408.00,A,3737.8009335,N,12704.7232300,E,1.8,97.2,050424,8.8,W,D*00
09:14:08 : $PSSN,HRP,001408.00,050424,202.529,,1.568,0.266,,0.426,36,2,8.839,W*1E
09:14:08 : $GNRMC,001408.20,A,3737.8009178,N,12704.7233474,E,1.6,99.3,050424,8.8,W,D*0D
09:14:08 : $PSSN,HRP,001408.20,050424,202.451,,1.573,0.266,,0.426,36,2,8.839,W*18
09:14:08 : $GNRMC,001408.60,A,3737.8008873,N,12704.7235606,E,1.4,100.2,050424,8.8,W,D*39
09:14:08 : $PSSN,HRP,001408.60,050424,203.687,,1.488,0.280,,0.463,37,2,8.839,W*19
09:14:08 : $GNRMC,001408.80,A,3737.8008757,N,12704.7236419,E,1.0,100.6,050424,8.8,W,D*31
09:14:08 : $PSSN,HRP,001408.80,050424,203.802,,1.377,0.269,,0.437,37,2,8.839,W*15
09:14:09 : $GNRMC,001409.00,A,3737.8008715,N,12704.7236940,E,0.5,99.4,050424,8.8,W,D*08
09:14:09 : $PSSN,HRP,001409.00,050424,202.358,,1.249,0.217,,0.400,37,2,8.839,W*18
09:14:09 : $GNRMC,001409.20,A,3737.8008725,N,12704.7237213,E,0.3,97.1,050424,8.8,W,D*08
09:14:09 : $PSSN,HRP,001409.20,050424,199.930,,1.409,0.188,,0.394,37,2,8.839,W*12
09:14:09 : $GNRMC,001409.40,A,3737.8008721,N,12704.7237415,E,0.2,96.5,050424,8.8,W,D*0E
09:14:09 : $PSSN,HRP,001409.40,050424,198.369,,1.506,0.183,,0.392,37,2,8.839,W*10
09:14:09 : $GNRMC,001409.60,A,3737.8008735,N,12704.7237508,E,0.1,95.3,050424,8.8,W,D*02
09:14:09 : $PSSN,HRP,001409.60,050424,196.958,,1.452,0.166,,0.392,36,2,8.839,W*1E
09:14:09 : $GNRMC,001409.80,A,3737.8008725,N,12704.7237584,E,0.1,95.5,050424,8.8,W,D*0F
09:14:09 : $PSSN,HRP,001409.80,050424,196.180,,1.338,0.167,,0.397,36,2,8.839,W*12
09:14:10 : $GNRMC,001410.00,A,3737.8008729,N,12704.7237642,E,0.1,95.0,050424,8.8,W,D*0F
09:14:10 : $PSSN,HRP,001410.00,050424,195.703,,1.411,0.164,,0.397,36,2,8.839,W*13
09:14:10 : $GNRMC,001410.20,A,3737.8008729,N,12704.7237685,E,0.1,94.4,050424,8.8,W,D*03
09:14:10 : $PSSN,HRP,001410.20,050424,195.079,,1.343,0.165,,0.397,36,2,8.839,W*1A
09:14:10 : $GNRMC,001410.40,A,3737.8008731,N,12704.7237699,E,0.0,93.5,050424,8.8,W,D*06
09:14:10 : $PSSN,HRP,001410.40,050424,194.433,,1.333,0.158,,0.398,36,2,8.839,W*11
09:14:10 : $GNRMC,001410.60,A,3737.8008721,N,12704.7237735,E,0.1,,050424,8.8,W,D*12
09:14:10 : $PSSN,HRP,001410.60,050424,194.402,,1.142,0.160,,0.399,36,2,8.839,W*1F
09:14:11 : $GNRMC,001410.80,A,3737.8008703,N,12704.7237798,E,0.1,,050424,8.8,W,D*1B
09:14:11 : $PSSN,HRP,001410.80,050424,193.918,,1.194,0.155,,0.394,36,2,8.839,W*10
09:14:11 : $GNRMC,001411.00,A,3737.8008674,N,12704.7237871,E,0.1,,050424,8.8,W,D*1B
09:14:11 : $PSSN,HRP,001411.00,050424,193.303,,1.093,0.155,,0.395,36,2,8.839,W*1E
09:14:11 : $GNRMC,001411.40,A,3737.8008546,N,12704.7238003,E,0.2,126.6,050424,8.8,W,D*31
09:14:11 : $PSSN,HRP,001411.40,050424,192.507,,1.038,0.154,,0.382,36,2,8.839,W*1F
09:14:11 : $GNRMC,001411.60,A,3737.8008511,N,12704.7237886,E,0.3,,050424,8.8,W,D*17
09:14:11 : $PSSN,HRP,001411.60,050424,190.568,,1.021,0.146,,0.350,36,2,8.839,W*12
09:14:11 : $GNRMC,001411.80,A,3737.8008473,N,12704.7237758,E,0.2,,050424,8.8,W,D*11
09:14:11 : $PSSN,HRP,001411.80,050424,189.573,,0.998,0.125,,0.293,36,2,8.839,W*1F
09:14:12 : $GNRMC,001412.00,A,3737.8008480,N,12704.7237677,E,0.1,,050424,8.8,W,D*19
09:14:12 : $PSSN,HRP,001412.00,050424,189.062,,1.056,0.121,,0.293,35,2,8.839,W*1C
09:14:12 : $GNRMC,001412.20,A,3737.8008505,N,12704.7237640,E,0.1,,050424,8.8,W,D*13
09:14:12 : $PSSN,HRP,001412.20,050424,189.438,,1.087,0.119,,0.292,35,2,8.839,W*13
09:14:12 : $GNRMC,001412.40,A,3737.8008509,N,12704.7237610,E,0.0,,050424,8.8,W,D*1D
09:14:12 : $PSSN,HRP,001412.40,050424,189.901,,1.060,0.119,,0.293,35,2,8.839,W*1A
09:14:12 : $GNRMC,001412.60,A,3737.8008489,N,12704.7237661,E,0.1,,050424,8.8,W,D*11
09:14:12 : $PSSN,HRP,001412.60,050424,190.149,,1.037,0.123,,0.299,35,2,8.839,W*15
09:14:12 : $GNRMC,001412.80,A,3737.8008495,N,12704.7237670,E,0.0,,050424,8.8,W,D*13
09:14:12 : $PSSN,HRP,001412.80,050424,190.221,,1.034,0.120,,0.307,35,2,8.839,W*10
09:14:13 : $GNRMC,001413.00,A,3737.8008502,N,12704.7237650,E,0.1,,050424,8.8,W,D*16
09:14:13 : $PSSN,HRP,001413.00,050424,189.988,,1.113,0.120,,0.306,35,2,8.839,W*1C
09:14:13 : $GNRMC,001413.20,A,3737.8008480,N,12704.7237656,E,0.1,,050424,8.8,W,D*19
09:14:13 : $PSSN,HRP,001413.20,050424,190.090,,0.948,0.120,,0.307,36,2,8.839,W*13
09:14:13 : $GNRMC,001413.40,A,3737.8008495,N,12704.7237661,E,0.0,,050424,8.8,W,D*1E
09:14:13 : $PSSN,HRP,001413.40,050424,190.060,,1.088,0.121,,0.312,36,2,8.839,W*1B
09:14:13 : $GNRMC,001413.60,A,3737.8008487,N,12704.7237674,E,0.0,,050424,8.8,W,D*1B
09:14:13 : $PSSN,HRP,001413.60,050424,189.952,,0.920,0.122,,0.313,36,2,8.839,W*11
09:14:13 : $GNRMC,001413.80,A,3737.8008486,N,12704.7237659,E,0.0,,050424,8.8,W,D*1B
09:14:13 : $PSSN,HRP,001413.80,050424,189.936,,0.777,0.120,,0.306,36,2,8.839,W*17
09:14:14 : $GNRMC,001414.00,A,3737.8008495,N,12704.7237659,E,0.0,,050424,8.8,W,D*16
09:14:14 : $PSSN,HRP,001414.00,050424,189.901,,0.798,0.120,,0.306,36,2,8.839,W*1D
09:14:14 : $GNRMC,001414.20,A,3737.8008498,N,12704.7237657,E,0.0,,050424,8.8,W,D*17
09:14:14 : $PSSN,HRP,001414.20,050424,189.879,,0.875,0.119,,0.306,35,2,8.839,W*14
09:14:14 : $GNRMC,001414.60,A,3737.8008495,N,12704.7237666,E,0.0,,050424,8.8,W,D*1C
09:14:14 : $PSSN,HRP,001414.60,050424,189.961,,0.892,0.118,,0.296,35,2,8.839,W*18
09:14:15 : $GNRMC,001414.80,A,3737.8008489,N,12704.7237672,E,0.0,,050424,8.8,W,D*1A
09:14:15 : $PSSN,HRP,001414.80,050424,190.070,,0.946,0.118,,0.291,35,2,8.839,W*18
09:14:15 : $GNRMC,001415.00,A,3737.8008481,N,12704.7237680,E,0.0,,050424,8.8,W,D*16
09:14:15 : $PSSN,HRP,001415.00,050424,190.095,,1.054,0.119,,0.291,35,2,8.839,W*10
09:14:15 : $GNRMC,001415.20,A,3737.8008484,N,12704.7237680,E,0.0,,050424,8.8,W,D*11
09:14:15 : $PSSN,HRP,001415.20,050424,190.071,,1.055,0.118,,0.291,37,2,8.839,W*1A
09:14:15 : $GNRMC,001415.40,A,3737.8008488,N,12704.7237685,E,0.0,,050424,8.8,W,D*1E
09:14:15 : $PSSN,HRP,001415.40,050424,190.117,,1.078,0.120,,0.290,37,2,8.839,W*18
09:14:15 : $GNRMC,001415.60,A,3737.8008494,N,12704.7237687,E,0.0,,050424,8.8,W,D*13
09:14:15 : $PSSN,HRP,001415.60,050424,190.111,,1.324,0.119,,0.288,37,2,8.839,W*15
09:14:16 : $GNRMC,001415.80,A,3737.8008490,N,12704.7237690,E,0.0,,050424,8.8,W,D*1F
09:14:16 : $PSSN,HRP,001415.80,050424,190.150,,1.203,0.117,,0.288,37,2,8.839,W*14
09:14:16 : $GNRMC,001416.00,A,3737.8008492,N,12704.7237690,E,0.0,,050424,8.8,W,D*16
09:14:16 : $PSSN,HRP,001416.00,050424,190.164,,1.206,0.117,,0.287,37,2,8.839,W*12
09:14:16 : $GNRMC,001416.20,A,3737.8008499,N,12704.7237689,E,0.0,,050424,8.8,W,D*17
09:14:16 : $PSSN,HRP,001416.20,050424,190.159,,1.207,0.117,,0.288,37,2,8.839,W*10
09:14:16 : $GNRMC,001416.40,A,3737.8008495,N,12704.7237692,E,0.0,,050424,8.8,W,D*17
09:14:16 : $PSSN,HRP,001416.40,050424,190.154,,1.209,0.117,,0.287,37,2,8.839,W*1A
09:14:16 : $GNRMC,001416.60,A,3737.8008495,N,12704.7237690,E,0.0,,050424,8.8,W,D*17
09:14:16 : $PSSN,HRP,001416.60,050424,190.132,,1.155,0.114,,0.285,37,2,8.839,W*13
09:14:17 : $GNRMC,001416.80,A,3737.8008493,N,12704.7237693,E,0.0,,050424,8.8,W,D*1C
09:14:17 : $PSSN,HRP,001416.80,050424,190.185,,1.036,0.112,,0.282,37,2,8.839,W*14
09:14:17 : $GNRMC,001417.00,A,3737.8008492,N,12704.7237689,E,0.0,,050424,8.8,W,D*1F
09:14:17 : $PSSN,HRP,001417.00,050424,190.168,,1.121,0.111,,0.280,37,2,8.839,W*18
09:14:17 : $GNRMC,001417.40,A,3737.8008493,N,12704.7237690,E,0.0,,050424,8.8,W,D*12
09:14:17 : $PSSN,HRP,001417.40,050424,190.183,,0.916,0.111,,0.281,38,2,8.839,W*1A
09:14:17 : $GNRMC,001417.60,A,3737.8008489,N,12704.7237691,E,0.0,,050424,8.8,W,D*1A
09:14:17 : $PSSN,HRP,001417.60,050424,190.205,,0.958,0.111,,0.281,38,2,8.839,W*1F
09:14:18 : $GNRMC,001417.80,A,3737.8008486,N,12704.7237685,E,0.0,,050424,8.8,W,D*1E
09:14:18 : $PSSN,HRP,001417.80,050424,190.182,,0.976,0.112,,0.283,38,2,8.839,W*10
09:14:18 : $GNRMC,001418.00,A,3737.8008489,N,12704.7237687,E,0.0,,050424,8.8,W,D*14
09:14:18 : $PSSN,HRP,001418.00,050424,190.215,,0.957,0.112,,0.283,38,2,8.839,W*19
09:14:18 : $GNRMC,001418.20,A,3737.8008486,N,12704.7237680,E,0.0,,050424,8.8,W,D*1E
09:14:18 : $PSSN,HRP,001418.20,050424,190.214,,0.879,0.112,,0.283,38,2,8.839,W*17
09:14:18 : $GNRMC,001418.40,A,3737.8008487,N,12704.7237683,E,0.0,,050424,8.8,W,D*1A
09:14:18 : $PSSN,HRP,001418.40,050424,190.237,,0.882,0.112,,0.284,38,2,8.839,W*13
09:14:18 : $GNRMC,001418.60,A,3737.8008490,N,12704.7237681,E,0.0,,050424,8.8,W,D*1C
09:14:18 : $PSSN,HRP,001418.60,050424,190.232,,0.924,0.112,,0.283,38,2,8.839,W*1E
09:14:19 : $GNRMC,001418.80,A,3737.8008491,N,12704.7237675,E,0.0,,050424,8.8,W,D*18
09:14:19 : $PSSN,HRP,001418.80,050424,190.227,,0.974,0.111,,0.281,38,2,8.839,W*10
09:14:19 : $GNRMC,001419.00,A,3737.8008490,N,12704.7237671,E,0.0,,050424,8.8,W,D*14
09:14:19 : $PSSN,HRP,001419.00,050424,190.221,,0.933,0.111,,0.281,38,2,8.839,W*1C
09:14:19 : $GNRMC,001419.20,A,3737.8008488,N,12704.7237669,E,0.0,,050424,8.8,W,D*16
09:14:19 : $PSSN,HRP,001419.20,050424,190.206,,1.140,0.111,,0.281,38,2,8.839,W*16
09:14:19 : $GNRMC,001419.60,A,3737.8008498,N,12704.7237671,E,0.0,,050424,8.8,W,D*1A
09:14:19 : $PSSN,HRP,001419.60,050424,190.195,,1.182,0.111,,0.280,38,2,8.839,W*14
09:14:20 : $GNRMC,001419.80,A,3737.8008498,N,12704.7237673,E,0.0,,050424,8.8,W,D*16
09:14:20 : $PSSN,HRP,001419.80,050424,190.224,,1.165,0.111,,0.280,38,2,8.839,W*1A
09:14:20 : $GNRMC,001420.00,A,3737.8008499,N,12704.7237676,E,0.0,,050424,8.8,W,D*10
09:14:20 : $PSSN,HRP,001420.00,050424,190.229,,1.229,0.111,,0.280,38,2,8.839,W*1E
09:14:20 : $GNRMC,001420.20,A,3737.8008499,N,12704.7237678,E,0.0,,050424,8.8,W,D*1C
09:14:20 : $PSSN,HRP,001420.20,050424,190.222,,1.246,0.111,,0.280,38,2,8.839,W*1E
09:14:20 : $GNRMC,001420.40,A,3737.8008498,N,12704.7237675,E,0.0,,050424,8.8,W,D*16
09:14:20 : $PSSN,HRP,001420.40,050424,190.200,,1.216,0.111,,0.280,38,2,8.839,W*1D
09:14:20 : $GNRMC,001420.60,A,3737.8008496,N,12704.7237676,E,0.0,,050424,8.8,W,D*19
09:14:20 : $PSSN,HRP,001420.60,050424,190.199,,1.204,0.111,,0.280,38,2,8.839,W*1F
09:14:21 : $GNRMC,001420.80,A,3737.8008491,N,12704.7237678,E,0.0,,050424,8.8,W,D*1E
09:14:21 : $PSSN,HRP,001420.80,050424,190.159,,1.313,0.111,,0.281,38,2,8.839,W*1B
09:14:21 : $GNRMC,001421.00,A,3737.8008489,N,12704.7237681,E,0.0,,050424,8.8,W,D*18
09:14:21 : $PSSN,HRP,001421.00,050424,190.170,,1.271,0.111,,0.281,38,2,8.839,W*1C
09:14:21 : $GNRMC,001421.40,A,3737.8008494,N,12704.7237693,E,0.0,,050424,8.8,W,D*13
09:14:21 : $PSSN,HRP,001421.40,050424,190.253,,1.258,0.111,,0.281,38,2,8.839,W*11
09:14:21 : $GNRMC,001421.60,A,3737.8008491,N,12704.7237696,E,0.0,,050424,8.8,W,D*11
09:14:21 : $PSSN,HRP,001421.60,050424,190.199,,1.272,0.111,,0.280,38,2,8.839,W*1F
09:14:21 : $GNRMC,001421.80,A,3737.8008496,N,12704.7237701,E,0.0,,050424,8.8,W,D*17
09:14:21 : $PSSN,HRP,001421.80,050424,190.223,,1.104,0.111,,0.280,38,2,8.839,W*11
09:14:22 : $GNRMC,001422.00,A,3737.8008495,N,12704.7237703,E,0.0,,050424,8.8,W,D*1D
09:14:22 : $PSSN,HRP,001422.00,050424,190.178,,1.260,0.112,,0.280,38,2,8.839,W*15
09:14:22 : $GNRMC,001422.20,A,3737.8008493,N,12704.7237694,E,0.0,,050424,8.8,W,D*16
09:14:22 : $PSSN,HRP,001422.20,050424,190.190,,1.067,0.112,,0.280,37,2,8.839,W*1B
09:14:22 : $GNRMC,001422.40,A,3737.8008489,N,12704.7237705,E,0.0,,050424,8.8,W,D*12
09:14:22 : $PSSN,HRP,001422.40,050424,190.068,,1.123,0.113,,0.281,37,2,8.839,W*1A
09:14:22 : $GNRMC,001422.60,A,3737.8008504,N,12704.7237683,E,0.0,,050424,8.8,W,D*1B
09:14:22 : $PSSN,HRP,001422.60,050424,190.067,,1.014,0.115,,0.283,36,2,8.839,W*17
09:14:23 : $GNRMC,001422.80,A,3737.8008559,N,12704.7237462,E,0.5,,050424,8.8,W,D*15
09:14:23 : $PSSN,HRP,001422.80,050424,189.249,,0.956,0.132,,0.290,37,2,8.839,W*17
09:14:23 : $GNRMC,001423.00,A,3737.8008648,N,12704.7236899,E,1.1,282.7,050424,8.8,W,D*32
09:14:23 : $PSSN,HRP,001423.00,050424,187.012,,1.100,0.153,,0.294,37,2,8.839,W*15
09:14:23 : $GNRMC,001423.20,A,3737.8008738,N,12704.7235999,E,1.5,277.6,050424,8.8,W,D*3B
09:14:23 : $PSSN,HRP,001423.20,050424,184.307,,1.472,0.155,,0.294,36,2,8.839,W*14
09:14:23 : $GNRMC,001423.40,A,3737.8008787,N,12704.7234960,E,1.6,275.2,050424,8.8,W,D*3B
09:14:23 : $PSSN,HRP,001423.40,050424,183.000,,1.361,0.156,,0.300,35,2,8.839,W*18
09:14:23 : $GNRMC,001423.60,A,3737.8008835,N,12704.7233783,E,1.8,273.5,050424,8.8,W,D*34
09:14:23 : $PSSN,HRP,001423.60,050424,181.527,,1.131,0.155,,0.305,35,2,8.839,W*19
09:14:24 : $GNRMC,001424.00,A,3737.8008934,N,12704.7231112,E,2.0,270.4,050424,8.8,W,D*30
09:14:24 : $PSSN,HRP,001424.00,050424,180.230,,1.372,0.154,,0.307,35,2,8.839,W*1E
09:14:24 : $GNRMC,001424.20,A,3737.8008916,N,12704.7229726,E,2.0,268.0,050424,8.8,W,D*37
09:14:24 : $PSSN,HRP,001424.20,050424,180.801,,1.184,0.156,,0.308,33,2,8.839,W*14
09:14:24 : $GNRMC,001424.40,A,3737.8008905,N,12704.7228267,E,2.1,271.5,050424,8.8,W,D*3E
09:14:24 : $PSSN,HRP,001424.40,050424,181.135,,1.308,0.160,,0.312,32,2,8.839,W*14
09:14:24 : $GNRMC,001424.60,A,3737.8008919,N,12704.7226802,E,2.1,271.7,050424,8.8,W,D*34
09:14:24 : $PSSN,HRP,001424.60,050424,181.659,,1.198,0.161,,0.314,32,2,8.839,W*17
09:14:25 : $GNRMC,001424.80,A,3737.8008918,N,12704.7225341,E,2.1,270.8,050424,8.8,W,D*3A
09:14:25 : $PSSN,HRP,001424.80,050424,181.841,,1.288,0.210,,0.326,32,2,8.839,W*18
09:14:25 : $GNRMC,001425.00,A,3737.8008947,N,12704.7223921,E,2.0,271.3,050424,8.8,W,D*38
09:14:25 : $PSSN,HRP,001425.00,050424,181.827,,1.137,0.248,,0.337,32,2,8.839,W*1B
09:14:25 : $GNRMC,001425.20,A,3737.8008940,N,12704.7222455,E,2.1,269.9,050424,8.8,W,D*30
09:14:25 : $PSSN,HRP,001425.20,050424,182.254,,1.287,0.230,,0.335,36,2,8.839,W*15
09:14:25 : $GNRMC,001425.60,A,3737.8008918,N,12704.7219454,E,2.2,270.8,050424,8.8,W,D*3A
09:14:25 : $PSSN,HRP,001425.60,050424,184.516,,1.345,0.242,,0.388,35,2,8.839,W*19
09:14:25 : $GNRMC,001425.80,A,3737.8008933,N,12704.7217941,E,2.1,270.4,050424,8.8,W,D*35
09:14:25 : $PSSN,HRP,001425.80,050424,185.889,,1.256,0.252,,0.445,35,2,8.839,W*19
09:14:26 : $GNRMC,001426.00,A,3737.8008989,N,12704.7216425,E,2.2,273.2,050424,8.8,W,D*37
09:14:26 : $PSSN,HRP,001426.00,050424,187.066,,1.343,0.255,,0.444,35,2,8.839,W*1A
09:14:26 : $GNRMC,001426.20,A,3737.8009051,N,12704.7214873,E,2.2,274.5,050424,8.8,W,D*35
09:14:26 : $PSSN,HRP,001426.20,050424,188.306,,1.302,0.257,,0.445,35,2,8.839,W*14
09:14:26 : $GNRMC,001426.40,A,3737.8009157,N,12704.7213364,E,2.2,275.3,050424,8.8,W,D*39
09:14:26 : $PSSN,HRP,001426.40,050424,189.553,,1.424,0.263,,0.469,35,2,8.839,W*1F
09:14:26 : $GNRMC,001426.60,A,3737.8009271,N,12704.7211845,E,2.2,276.0,050424,8.8,W,D*36
09:14:26 : $PSSN,HRP,001426.60,050424,190.731,,1.455,0.266,,0.483,35,2,8.839,W*14
09:14:27 : $GNRMC,001426.80,A,3737.8009418,N,12704.7210364,E,2.1,278.7,050424,8.8,W,D*32
09:14:27 : $PSSN,HRP,001426.80,050424,191.732,,1.686,0.259,,0.455,34,2,8.839,W*12
09:14:27 : $GNRMC,001427.00,A,3737.8009588,N,12704.7208926,E,2.1,277.5,050424,8.8,W,D*3B
09:14:27 : $PSSN,HRP,001427.00,050424,192.594,,1.680,0.253,,0.421,34,2,8.839,W*19
09:14:27 : $GNRMC,001427.20,A,3737.8009766,N,12704.7207567,E,1.9,281.1,050424,8.8,W,D*3B
09:14:27 : $PSSN,HRP,001427.20,050424,193.538,,1.843,0.219,,0.413,36,2,8.839,W*10
09:14:27 : $GNRMC,001427.40,A,3737.8009941,N,12704.7206277,E,1.8,279.5,050424,8.8,W,D*33
09:14:27 : $PSSN,HRP,001427.40,050424,194.484,,1.661,0.179,,0.406,36,2,8.839,W*18
09:14:27 : $GNRMC,001427.80,A,3737.8010304,N,12704.7203991,E,1.6,281.7,050424,8.8,W,D*31
09:14:27 : $PSSN,HRP,001427.80,050424,195.936,,1.747,0.179,,0.409,36,2,8.839,W*1B
09:14:28 : $GNRMC,001428.00,A,3737.8010488,N,12704.7202960,E,1.5,282.0,050424,8.8,W,D*3D
09:14:28 : $PSSN,HRP,001428.00,050424,196.131,,1.507,0.179,,0.409,36,2,8.839,W*16
09:14:28 : $GNRMC,001428.20,A,3737.8010676,N,12704.7202042,E,1.3,282.6,050424,8.8,W,D*35
09:14:28 : $PSSN,HRP,001428.20,050424,195.788,,1.577,0.178,,0.409,36,2,8.839,W*15
09:14:28 : $GNRMC,001428.40,A,3737.8010858,N,12704.7201240,E,1.1,283.6,050424,8.8,W,D*31
09:14:28 : $PSSN,HRP,001428.40,050424,194.560,,1.785,0.176,,0.407,36,2,8.839,W*19
09:14:28 : $GNRMC,001428.60,A,3737.8010988,N,12704.7200607,E,0.8,284.1,050424,8.8,W,D*31
09:14:28 : $PSSN,HRP,001428.60,050424,193.038,,1.610,0.161,,0.385,36,2,8.839,W*12
09:14:28 : $GNRMC,001428.80,A,3737.8011071,N,12704.7200304,E,0.2,284.3,050424,8.8,W,D*3F
09:14:28 : $PSSN,HRP,001428.80,050424,190.578,,1.688,0.134,,0.335,36,2,8.839,W*14
09:14:29 : $GNRMC,001429.00,A,3737.8011142,N,12704.7200263,E,0.2,287.4,050424,8.8,W,D*33
09:14:29 : $PSSN,HRP,001429.00,050424,187.579,,1.668,0.121,,0.297,36,2,8.839,W*19
09:14:29 : $GNRMC,001429.20,A,3737.8011183,N,12704.7200315,E,0.1,290.2,050424,8.8,W,D*3F
09:14:29 : $PSSN,HRP,001429.20,050424,184.007,,1.756,0.119,,0.297,36,2,8.839,W*13
09:14:29 : $GNRMC,001429.40,A,3737.8011263,N,12704.7200368,E,0.2,297.6,050424,8.8,W,D*3E
09:14:29 : $PSSN,HRP,001429.40,050424,178.617,,1.652,0.122,,0.296,36,2,8.839,W*1D
09:14:29 : $GNRMC,001429.60,A,3737.8011309,N,12704.7200492,E,0.3,309.7,050424,8.8,W,D*35
09:14:29 : $PSSN,HRP,001429.60,050424,172.823,,1.568,0.122,,0.296,36,2,8.839,W*16
09:14:29 : $GNRMC,001429.80,A,3737.8011312,N,12704.7200734,E,0.4,,050424,8.8,W,D*1A
09:14:29 : $PSSN,HRP,001429.80,050424,168.596,,1.592,0.126,,0.297,36,2,8.839,W*10
09:14:30 : $GNRMC,001430.00,A,3737.8011314,N,12704.7201154,E,0.7,68.5,050424,8.8,W,D*0B
09:14:30 : $PSSN,HRP,001430.00,050424,166.522,,1.558,0.136,,0.299,36,2,8.839,W*18
09:14:30 : $GNRMC,001430.20,A,3737.8011333,N,12704.7201841,E,1.2,82.4,050424,8.8,W,D*00
09:14:30 : $PSSN,HRP,001430.20,050424,167.174,,1.447,0.148,,0.302,36,2,8.839,W*19
09:14:30 : $GNRMC,001430.60,A,3737.8011460,N,12704.7203725,E,1.6,84.1,050424,8.8,W,D*0D
09:14:30 : $PSSN,HRP,001430.60,050424,172.075,,1.468,0.148,,0.302,36,2,8.839,W*14
09:14:31 : $GNRMC,001430.80,A,3737.8011505,N,12704.7204917,E,1.8,85.5,050424,8.8,W,D*02
09:14:31 : $PSSN,HRP,001430.80,050424,175.196,,1.634,0.148,,0.302,36,2,8.839,W*1A
09:14:31 : $GNRMC,001431.00,A,3737.8011564,N,12704.7206288,E,2.1,86.9,050424,8.8,W,D*06
09:14:31 : $PSSN,HRP,001431.00,050424,178.502,,1.460,0.148,,0.301,36,2,8.839,W*17
09:14:31 : $GNRMC,001431.20,A,3737.8011615,N,12704.7207699,E,2.1,87.7,050424,8.8,W,D*0B
09:14:31 : $PSSN,HRP,001431.20,050424,181.962,,1.285,0.149,,0.301,37,2,8.839,W*14
09:14:31 : $GNRMC,001431.40,A,3737.8011612,N,12704.7209160,E,2.2,91.1,050424,8.8,W,D*07
09:14:31 : $PSSN,HRP,001431.40,050424,185.894,,1.504,0.150,,0.301,37,2,8.839,W*18
09:14:31 : $GNRMC,001431.60,A,3737.8011571,N,12704.7210701,E,2.3,93.5,050424,8.8,W,D*0D
09:14:31 : $PSSN,HRP,001431.60,050424,190.119,,1.367,0.152,,0.300,37,2,8.839,W*12
09:14:32 : $GNRMC,001431.80,A,3737.8011512,N,12704.7212270,E,2.3,92.8,050424,8.8,W,D*0B
09:14:32 : $PSSN,HRP,001431.80,050424,193.852,,1.591,0.152,,0.299,37,2,8.839,W*17
09:14:32 : $GNRMC,001432.00,A,3737.8011446,N,12704.7213859,E,2.3,93.6,050424,8.8,W,D*0F
09:14:32 : $PSSN,HRP,001432.00,050424,196.265,,1.600,0.153,,0.299,37,2,8.839,W*1D
09:14:32 : $GNRMC,001432.20,A,3737.8011381,N,12704.7215461,E,2.3,92.9,050424,8.8,W,D*0E
09:14:32 : $PSSN,HRP,001432.20,050424,198.094,,1.578,0.152,,0.299,37,2,8.839,W*10
09:14:32 : $GNRMC,001432.40,A,3737.8011284,N,12704.7217045,E,2.3,95.5,050424,8.8,W,D*07
09:14:32 : $PSSN,HRP,001432.40,050424,199.911,,1.513,0.153,,0.298,38,2,8.839,W*11
09:14:32 : $GNRMC,001432.60,A,3737.8011122,N,12704.7218655,E,2.3,97.8,050424,8.8,W,D*0D
09:14:32 : $PSSN,HRP,001432.60,050424,202.598,,1.760,0.157,,0.297,38,2,8.839,W*12
09:14:33 : $GNRMC,001432.80,A,3737.8010889,N,12704.7220351,E,2.5,100.9,050424,8.8,W,D*38
09:14:33 : $PSSN,HRP,001432.80,050424,206.076,,1.611,0.162,,0.295,38,2,8.839,W*1E
09:14:33 : $GNRMC,001433.20,A,3737.8010389,N,12704.7223763,E,2.5,101.4,050424,8.8,W,D*32
09:14:33 : $PSSN,HRP,001433.20,050424,211.457,,1.550,0.172,,0.293,37,2,8.839,W*1A
09:14:33 : $GNRMC,001433.40,A,3737.8010128,N,12704.7225425,E,2.4,101.0,050424,8.8,W,D*3F
09:14:33 : $PSSN,HRP,001433.40,050424,212.838,,1.579,0.173,,0.295,37,2,8.839,W*16
09:14:33 : $GNRMC,001433.60,A,3737.8009943,N,12704.7226937,E,2.1,98.5,050424,8.8,W,D*0C
09:14:33 : $PSSN,HRP,001433.60,050424,213.202,,1.585,0.230,,0.310,37,2,8.839,W*1D
09:14:34 : $GNRMC,001433.80,A,3737.8009770,N,12704.7228435,E,2.1,98.3,050424,8.8,W,D*0B
09:14:34 : $PSSN,HRP,001433.80,050424,212.723,,1.521,0.279,,0.327,37,2,8.839,W*13
09:14:34 : $GNRMC,001434.00,A,3737.8009642,N,12704.7229774,E,1.8,95.9,050424,8.8,W,D*0E
09:14:34 : $PSSN,HRP,001434.00,050424,211.760,,1.435,0.275,,0.327,37,2,8.839,W*10
09:14:34 : $GNRMC,001434.20,A,3737.8009510,N,12704.7230997,E,1.7,97.4,050424,8.8,W,D*03
09:14:34 : $PSSN,HRP,001434.20,050424,210.916,,1.455,0.270,,0.326,37,2,8.839,W*1E
09:14:34 : $GNRMC,001434.40,A,3737.8009397,N,12704.7232141,E,1.6,96.7,050424,8.8,W,D*0E
09:14:34 : $PSSN,HRP,001434.40,050424,209.750,,1.330,0.272,,0.333,37,2,8.839,W*1E
09:14:34 : $GNRMC,001434.60,A,3737.8009318,N,12704.7233134,E,1.3,96.4,050424,8.8,W,D*0E
09:14:34 : $PSSN,HRP,001434.60,050424,208.327,,1.211,0.276,,0.356,36,2,8.839,W*1D
09:14:35 : $GNRMC,001434.80,A,3737.8009293,N,12704.7233980,E,1.1,96.0,050424,8.8,W,D*03
09:14:35 : $PSSN,HRP,001434.80,050424,206.181,,1.494,0.283,,0.387,37,2,8.839,W*1F
09:14:35 : $GNRMC,001435.00,A,3737.8009286,N,12704.7234790,E,1.1,94.6,050424,8.8,W,D*02
09:14:35 : $PSSN,HRP,001435.00,050424,204.449,,1.471,0.282,,0.405,37,2,8.839,W*12
09:14:35 : $GNRMC,001435.20,A,3737.8009251,N,12704.7235558,E,1.1,94.1,050424,8.8,W,D*0A
09:14:35 : $PSSN,HRP,001435.20,050424,203.782,,1.252,0.274,,0.404,37,2,8.839,W*1C
09:14:35 : $GNRMC,001435.40,A,3737.8009172,N,12704.7236294,E,1.0,95.6,050424,8.8,W,D*0D
09:14:35 : $PSSN,HRP,001435.40,050424,204.476,,1.291,0.278,,0.431,37,2,8.839,W*10
09:14:35 : $GNRMC,001435.80,A,3737.8009052,N,12704.7237519,E,0.8,95.4,050424,8.8,W,D*0A
09:14:35 : $PSSN,HRP,001435.80,050424,205.590,,1.469,0.184,,0.402,37,2,8.839,W*15
09:14:36 : $GNRMC,001436.00,A,3737.8008986,N,12704.7237953,E,0.5,96.7,050424,8.8,W,D*0F
09:14:36 : $PSSN,HRP,001436.00,050424,206.358,,1.295,0.179,,0.402,37,2,8.839,W*18
09:14:36 : $GNRMC,001436.20,A,3737.8008910,N,12704.7238241,E,0.3,98.1,050424,8.8,W,D*0B
09:14:36 : $PSSN,HRP,001436.20,050424,207.756,,1.291,0.174,,0.400,36,2,8.839,W*1B
09:14:36 : $GNRMC,001436.40,A,3737.8008799,N,12704.7238436,E,0.3,102.8,050424,8.8,W,D*3F
09:14:36 : $PSSN,HRP,001436.40,050424,209.534,,1.305,0.164,,0.375,36,2,8.839,W*1D
09:14:36 : $GNRMC,001436.60,A,3737.8008651,N,12704.7238618,E,0.4,109.5,050424,8.8,W,D*37
09:14:36 : $PSSN,HRP,001436.60,050424,210.658,,1.174,0.155,,0.343,36,2,8.839,W*1D
09:14:37 : $GNRMC,001436.80,A,3737.8008447,N,12704.7238799,E,0.5,118.7,050424,8.8,W,D*37
09:14:37 : $PSSN,HRP,001436.80,050424,209.944,,1.138,0.149,,0.302,36,2,8.839,W*19
09:14:37 : $GNRMC,001437.00,A,3737.8008252,N,12704.7238857,E,0.3,129.7,050424,8.8,W,D*35
09:14:37 : $PSSN,HRP,001437.00,050424,208.108,,1.218,0.141,,0.301,36,2,8.839,W*1B
09:14:37 : $GNRMC,001437.20,A,3737.8008281,N,12704.7238611,E,0.6,148.2,050424,8.8,W,D*32
09:14:37 : $PSSN,HRP,001437.20,050424,203.509,,1.241,0.151,,0.302,35,2,8.839,W*1A
09:14:37 : $GNRMC,001437.40,A,3737.8008397,N,12704.7238252,E,0.7,,050424,8.8,W,D*11
09:14:37 : $PSSN,HRP,001437.40,050424,198.348,,1.090,0.149,,0.303,34,2,8.839,W*19
09:14:37 : $GNRMC,001437.60,A,3737.8008392,N,12704.7238003,E,0.3,252.0,050424,8.8,W,D*3F
09:14:37 : $PSSN,HRP,001437.60,050424,194.619,,1.085,0.135,,0.307,34,2,8.839,W*1D
09:14:38 : $GNRMC,001437.80,A,3737.8008362,N,12704.7237838,E,0.2,246.2,050424,8.8,W,D*37
09:14:38 : $PSSN,HRP,001437.80,050424,191.799,,1.035,0.132,,0.313,34,2,8.839,W*16
09:14:38 : $GNRMC,001438.00,A,3737.8008346,N,12704.7237703,E,0.2,252.3,050424,8.8,W,D*35
09:14:38 : $PSSN,HRP,001438.00,050424,189.794,,1.131,0.130,,0.313,35,2,8.839,W*13
09:14:38 : $GNRMC,001438.20,A,3737.8008366,N,12704.7237744,E,0.2,,050424,8.8,W,D*1E
09:14:38 : $PSSN,HRP,001438.20,050424,190.374,,1.079,0.130,,0.313,35,2,8.839,W*1E
09:14:38 : $GNRMC,001438.60,A,3737.8008499,N,12704.7237830,E,0.1,,050424,8.8,W,D*12
09:14:38 : $PSSN,HRP,001438.60,050424,191.973,,1.109,0.130,,0.320,35,2,8.839,W*10
09:14:38 : $GNRMC,001438.80,A,3737.8008500,N,12704.7237755,E,0.1,,050424,8.8,W,D*11
09:14:38 : $PSSN,HRP,001438.80,050424,191.264,,1.074,0.129,,0.318,35,2,8.839,W*1B
09:14:39 : $GNRMC,001439.00,A,3737.8008490,N,12704.7237642,E,0.2,,050424,8.8,W,D*14
09:14:39 : $PSSN,HRP,001439.00,050424,189.952,,0.967,0.129,,0.315,35,2,8.839,W*12
09:14:39 : $GNRMC,001439.20,A,3737.8008493,N,12704.7237583,E,0.0,,050424,8.8,W,D*19
09:14:39 : $PSSN,HRP,001439.20,050424,188.960,,0.972,0.122,,0.314,36,2,8.839,W*1D
09:14:39 : $GNRMC,001439.40,A,3737.8008483,N,12704.7237611,E,0.1,,050424,8.8,W,D*17
09:14:39 : $PSSN,HRP,001439.40,050424,189.511,,0.858,0.124,,0.317,36,2,8.839,W*1C
09:14:39 : $GNRMC,001439.60,A,3737.8008495,N,12704.7237647,E,0.1,,050424,8.8,W,D*11
09:14:39 : $PSSN,HRP,001439.60,050424,190.141,,0.866,0.124,,0.322,36,2,8.839,W*1C
09:14:40 : $GNRMC,001439.80,A,3737.8008494,N,12704.7237651,E,0.0,,050424,8.8,W,D*18
09:14:40 : $PSSN,HRP,001439.80,050424,190.056,,0.887,0.124,,0.330,36,2,8.839,W*19
09:14:40 : $GNRMC,001440.00,A,3737.8008493,N,12704.7237629,E,0.0,,050424,8.8,W,D*16
09:14:40 : $PSSN,HRP,001440.00,050424,189.851,,0.715,0.125,,0.330,36,2,8.839,W*1D
09:14:40 : $GNRMC,001440.20,A,3737.8008496,N,12704.7237626,E,0.0,,050424,8.8,W,D*1E
09:14:40 : $PSSN,HRP,001440.20,050424,189.755,,0.909,0.124,,0.331,36,2,8.839,W*17
09:14:40 : $GNRMC,001440.40,A,3737.8008499,N,12704.7237621,E,0.0,,050424,8.8,W,D*10
09:14:40 : $PSSN,HRP,001440.40,050424,189.767,,0.685,0.125,,0.334,36,2,8.839,W*1F
09:14:40 : $GNRMC,001440.60,A,3737.8008494,N,12704.7237637,E,0.0,,050424,8.8,W,D*18
09:14:40 : $PSSN,HRP,001440.60,050424,189.858,,0.914,0.126,,0.331,36,2,8.839,W*1F
09:14:41 : $GNRMC,001440.80,A,3737.8008489,N,12704.7237635,E,0.0,,050424,8.8,W,D*18
09:14:41 : $PSSN,HRP,001440.80,050424,189.812,,1.021,0.122,,0.316,36,2,8.839,W*10
09:14:41 : $GNRMC,001441.00,A,3737.8008479,N,12704.7237639,E,0.0,,050424,8.8,W,D*12
09:14:41 : $PSSN,HRP,001441.00,050424,189.793,,0.976,0.118,,0.303,36,2,8.839,W*18
09:14:41 : $GNRMC,001441.20,A,3737.8008484,N,12704.7237642,E,0.0,,050424,8.8,W,D*1E
09:14:41 : $PSSN,HRP,001441.20,050424,189.811,,1.037,0.118,,0.303,35,2,8.839,W*11
09:14:41 : $GNRMC,001441.40,A,3737.8008476,N,12704.7237638,E,0.0,,050424,8.8,W,D*18
09:14:41 : $PSSN,HRP,001441.40,050424,189.850,,0.921,0.120,,0.305,35,2,8.839,W*10
09:14:41 : $GNRMC,001441.60,A,3737.8008476,N,12704.7237631,E,0.0,,050424,8.8,W,D*13
09:14:41 : $PSSN,HRP,001441.60,050424,189.737,,0.647,0.121,,0.312,35,2,8.839,W*14
09:14:42 : $GNRMC,001442.00,A,3737.8008473,N,12704.7237621,E,0.0,,050424,8.8,W,D*12
09:14:42 : $PSSN,HRP,001442.00,050424,189.706,,0.612,0.121,,0.324,35,2,8.839,W*16
09:14:42 : $GNRMC,001442.20,A,3737.8008469,N,12704.7237620,E,0.0,,050424,8.8,W,D*1A
09:14:42 : $PSSN,HRP,001442.20,050424,189.715,,0.448,0.121,,0.324,35,2,8.839,W*1B
09:14:42 : $GNRMC,001442.40,A,3737.8008466,N,12704.7237624,E,0.0,,050424,8.8,W,D*17
09:14:42 : $PSSN,HRP,001442.40,050424,189.741,,0.564,0.123,,0.329,36,2,8.839,W*1F
09:14:42 : $GNRMC,001442.60,A,3737.8008459,N,12704.7237622,E,0.0,,050424,8.8,W,D*1F
09:14:42 : $PSSN,HRP,001442.60,050424,189.759,,0.562,0.124,,0.334,36,2,8.839,W*19
09:14:42 : $GNRMC,001442.80,A,3737.8008455,N,12704.7237613,E,0.0,,050424,8.8,W,D*1F
09:14:42 : $PSSN,HRP,001442.80,050424,189.724,,0.565,0.123,,0.331,36,2,8.839,W*18
09:14:43 : $GNRMC,001443.00,A,3737.8008443,N,12704.7237565,E,0.1,,050424,8.8,W,D*12
09:14:43 : $PSSN,HRP,001443.00,050424,189.667,,0.484,0.124,,0.328,36,2,8.839,W*16
09:14:43 : $GNRMC,001443.20,A,3737.8008424,N,12704.7237368,E,0.4,,050424,8.8,W,D*1F
09:14:43 : $PSSN,HRP,001443.20,050424,189.598,,0.437,0.135,,0.330,36,2,8.839,W*16
09:14:43 : $GNRMC,001443.40,A,3737.8008401,N,12704.7236784,E,1.1,266.5,050424,8.8,W,D*34
09:14:43 : $PSSN,HRP,001443.40,050424,188.088,,0.503,0.160,,0.332,36,2,8.839,W*11
09:14:43 : $GNRMC,001443.60,A,3737.8008445,N,12704.7235896,E,1.5,269.6,050424,8.8,W,D*31
09:14:43 : $PSSN,HRP,001443.60,050424,186.225,,0.649,0.204,,0.336,36,2,8.839,W*10
09:14:44 : $GNRMC,001444.00,A,3737.8008462,N,12704.7233763,E,1.7,270.9,050424,8.8,W,D*33
09:14:44 : $PSSN,HRP,001444.00,050424,186.646,,0.445,0.240,,0.345,36,2,8.839,W*1A
09:14:44 : $GNRMC,001444.20,A,3737.8008542,N,12704.7232565,E,1.8,276.0,050424,8.8,W,D*37
09:14:44 : $PSSN,HRP,001444.20,050424,187.844,,0.604,0.238,,0.343,36,2,8.839,W*1B
09:14:44 : $GNRMC,001444.40,A,3737.8008658,N,12704.7231283,E,1.9,275.3,050424,8.8,W,D*34
09:14:44 : $PSSN,HRP,001444.40,050424,188.957,,0.817,0.236,,0.344,35,2,8.839,W*17
09:14:44 : $GNRMC,001444.60,A,3737.8008761,N,12704.7229906,E,2.0,275.6,050424,8.8,W,D*3D
09:14:44 : $PSSN,HRP,001444.60,050424,190.005,,0.661,0.241,,0.365,36,2,8.839,W*1D
09:14:45 : $GNRMC,001444.80,A,3737.8008905,N,12704.7228467,E,2.1,277.3,050424,8.8,W,D*32
09:14:45 : $PSSN,HRP,001444.80,050424,191.175,,0.959,0.251,,0.401,36,2,8.839,W*14
09:14:45 : $GNRMC,001445.00,A,3737.8009055,N,12704.7227038,E,2.1,278.8,050424,8.8,W,D*33
09:14:45 : $PSSN,HRP,001445.00,050424,192.458,,1.053,0.256,,0.425,36,2,8.839,W*17
09:14:45 : $GNRMC,001445.20,A,3737.8009217,N,12704.7225604,E,2.1,278.9,050424,8.8,W,D*3F
09:14:45 : $PSSN,HRP,001445.20,050424,193.280,,0.906,0.257,,0.425,36,2,8.839,W*1E
09:14:45 : $GNRMC,001445.60,A,3737.8009658,N,12704.7222757,E,2.1,281.3,050424,8.8,W,D*38
09:14:45 : $PSSN,HRP,001445.60,050424,195.070,,0.922,0.266,,0.455,35,2,8.839,W*11
09:14:45 : $GNRMC,001445.80,A,3737.8009877,N,12704.7221257,E,2.2,281.6,050424,8.8,W,D*35
09:14:45 : $PSSN,HRP,001445.80,050424,195.265,,0.769,0.259,,0.420,35,2,8.839,W*16
09:14:46 : $GNRMC,001446.00,A,3737.8010138,N,12704.7219783,E,2.1,283.3,050424,8.8,W,D*37
09:14:46 : $PSSN,HRP,001446.00,050424,195.752,,0.835,0.260,,0.420,35,2,8.839,W*10
09:14:46 : $GNRMC,001446.20,A,3737.8010391,N,12704.7218288,E,2.2,281.8,050424,8.8,W,D*31
09:14:46 : $PSSN,HRP,001446.20,050424,196.376,,0.915,0.262,,0.420,34,2,8.839,W*13
09:14:46 : $GNRMC,001446.40,A,3737.8010647,N,12704.7216871,E,2.0,282.9,050424,8.8,W,D*3B
09:14:46 : $PSSN,HRP,001446.40,050424,197.429,,0.993,0.266,,0.421,34,2,8.839,W*12
09:14:46 : $GNRMC,001446.60,A,3737.8010932,N,12704.7215395,E,2.2,284.4,050424,8.8,W,D*3F
09:14:46 : $PSSN,HRP,001446.60,050424,198.083,,0.925,0.268,,0.424,34,2,8.839,W*1D
09:14:46 : $GNRMC,001446.80,A,3737.8011243,N,12704.7213889,E,2.3,284.5,050424,8.8,W,D*3D
09:14:46 : $PSSN,HRP,001446.80,050424,198.518,,1.008,0.268,,0.428,34,2,8.839,W*1F
09:14:47 : $GNRMC,001447.00,A,3737.8011554,N,12704.7212406,E,2.2,284.9,050424,8.8,W,D*32
09:14:47 : $PSSN,HRP,001447.00,050424,198.993,,1.055,0.267,,0.428,34,2,8.839,W*1E
09:14:47 : $GNRMC,001447.20,A,3737.8011851,N,12704.7210991,E,2.1,285.5,050424,8.8,W,D*37
09:14:47 : $PSSN,HRP,001447.20,050424,199.456,,1.119,0.266,,0.427,35,2,8.839,W*1F
09:14:47 : $GNRMC,001447.40,A,3737.8012156,N,12704.7209623,E,2.0,285.7,050424,8.8,W,D*31
09:14:47 : $PSSN,HRP,001447.40,050424,199.976,,1.081,0.269,,0.431,35,2,8.839,W*1E
09:14:47 : $GNRMC,001447.80,A,3737.8012722,N,12704.7207148,E,1.7,285.3,050424,8.8,W,D*3C
09:14:47 : $PSSN,HRP,001447.80,050424,201.208,,1.147,0.270,,0.429,35,2,8.839,W*18
09:14:48 : $GNRMC,001448.00,A,3737.8012969,N,12704.7206086,E,1.5,286.9,050424,8.8,W,D*33
09:14:48 : $PSSN,HRP,001448.00,050424,201.883,,1.141,0.272,,0.429,35,2,8.839,W*12
09:14:48 : $GNRMC,001448.20,A,3737.8013186,N,12704.7205191,E,1.2,287.0,050424,8.8,W,D*32
09:14:48 : $PSSN,HRP,001448.20,050424,202.579,,1.135,0.271,,0.429,35,2,8.839,W*1B
09:14:48 : $GNRMC,001448.40,A,3737.8013425,N,12704.7204439,E,1.0,287.8,050424,8.8,W,D*34
09:14:48 : $PSSN,HRP,001448.40,050424,203.188,,1.110,0.262,,0.426,35,2,8.839,W*1C
09:14:48 : $GNRMC,001448.60,A,3737.8013583,N,12704.7203795,E,0.9,287.7,050424,8.8,W,D*3E
