11:54:56 : {'dest_latitude': [37.633203, 37.633255, 37.633385, 37.633396, 37.633347, 37.633261, 37.633203], 'dest_longitude': [127.077801, 127.078011, 127.077983, 127.077886, 127.077789, 127.077724, 127.077801], 'mode_pc_command': 'AUTO', 'com_status_send': False, 'com_status_recv': False, 'coeff_kf': 2.5, 'coeff_kd': 30, 'voxel_size': 0.035, 'intensity': 5, 'dbscan_eps': 0.301, 'dbscan_minpoints': 5, 'coeff_vff_repulsive_force': 0.77, 'mode_chk': 1000, 'pwml_chk': 1500, 'pwmr_chk': 1500, 'pwml_auto': 1500, 'pwmr_auto': 1500, 'pwml_sim': None, 'pwmr_sim': None, 'cnt_destination': 0, 'distance': None, 'waypoint_latitude': None, 'waypoint_longitude': None, 'velocity': 0.1, 'heading': 104.7, 'roll': None, 'pitch': 2.9, 'validity': 'A', 'time': '025456.60', 'IP': None, 'date': '090424', 'longitude': 127.07766039, 'latitude': 37.63322468, 'arrived': False, 'flag_autodrive': False}
11:54:57 : {'dest_latitude': [37.633203, 37.633255, 37.633385, 37.633396, 37.633347, 37.633261, 37.633203], 'dest_longitude': [127.077801, 127.078011, 127.077983, 127.077886, 127.077789, 127.077724, 127.077801], 'mode_pc_command': 'AUTO', 'com_status_send': False, 'com_status_recv': False, 'coeff_kf': 2.5, 'coeff_kd': 30, 'voxel_size': 0.035, 'intensity': 5, 'dbscan_eps': 0.301, 'dbscan_minpoints': 5, 'coeff_vff_repulsive_force': 0.77, 'mode_chk': 1000, 'pwml_chk': 1500, 'pwmr_chk': 1500, 'pwml_auto': 1535, 'pwmr_auto': 1614, 'pwml_sim': None, 'pwmr_sim': None, 'cnt_destination': 0, 'distance': 12.614520398870244, 'waypoint_latitude': 37.633221725797284, 'waypoint_longitude': 127.07779196006686, 'velocity': 0.1, 'heading': 104.9, 'roll': None, 'pitch': 2.8, 'validity': 'A', 'time': '025456.80', 'IP': None, 'date': '090424', 'longitude': 127.07766046, 'latitude': 37.63322473, 'arrived': False, 'flag_autodrive': True}
11:54:57 : {'dest_latitude': [37.633203, 37.633255, 37.633385, 37.633396, 37.633347, 37.633261, 37.633203], 'dest_longitude': [127.077801, 127.078011, 127.077983, 127.077886, 127.077789, 127.077724, 127.077801], 'mode_pc_command': 'AUTO', 'com_status_send': False, 'com_status_recv': False, 'coeff_kf': 2.5, 'coeff_kd': 30, 'voxel_size': 0.035, 'intensity': 5, 'dbscan_eps': 0.301, 'dbscan_minpoints': 5, 'coeff_vff_repulsive_force': 0.77, 'mode_chk': 1000, 'pwml_chk': 1500, 'pwmr_chk': 1500, 'pwml_auto': 1534, 'pwmr_auto': 1615, 'pwml_sim': None, 'pwmr_sim': None, 'cnt_destination': 0, 'distance': 12.609534096805863, 'waypoint_latitude': 37.63322191840207, 'waypoint_longitude': 127.07779123720029, 'velocity': 0.0, 'heading': 105.0, 'roll': None, 'pitch': 3.0, 'validity': 'A', 'time': '025457.00', 'IP': None, 'date': '090424', 'longitude': 127.0776605, 'latitude': 37.63322478, 'arrived': False, 'flag_autodrive': True}
11:54:57 : {'dest_latitude': [37.633203, 37.633255, 37.633385, 37.633396, 37.633347, 37.633261, 37.633203], 'dest_longitude': [127.077801, 127.078011, 127.077983, 127.077886, 127.077789, 127.077724, 127.077801], 'mode_pc_command': 'AUTO', 'com_status_send': False, 'com_status_recv': False, 'coeff_kf': 2.5, 'coeff_kd': 30, 'voxel_size': 0.035, 'intensity': 5, 'dbscan_eps': 0.301, 'dbscan_minpoints': 5, 'coeff_vff_repulsive_force': 0.77, 'mode_chk': 1000, 'pwml_chk': 1500, 'pwmr_chk': 1500, 'pwml_auto': 1534, 'pwmr_auto': 1615, 'pwml_sim': None, 'pwmr_sim': None, 'cnt_destination': 0, 'distance': 12.60714385625843, 'waypoint_latitude': 37.633221166001775, 'waypoint_longitude': 127.07779123979232, 'velocity': 0.1, 'heading': 105.6, 'roll': None, 'pitch': 3.2, 'validity': 'A', 'time': '025457.40', 'IP': None, 'date': '090424', 'longitude': 127.07766059, 'latitude': 37.63322488, 'arrived': False, 'flag_autodrive': True}
11:54:57 : {'dest_latitude': [37.633203, 37.633255, 37.633385, 37.633396, 37.633347, 37.633261, 37.633203], 'dest_longitude': [127.077801, 127.078011, 127.077983, 127.077886, 127.077789, 127.077724, 127.077801], 'mode_pc_command': 'AUTO', 'com_status_send': False, 'com_status_recv': False, 'coeff_kf': 2.5, 'coeff_kd': 30, 'voxel_size': 0.035, 'intensity': 5, 'dbscan_eps': 0.301, 'dbscan_minpoints': 5, 'coeff_vff_repulsive_force': 0.77, 'mode_chk': 1000, 'pwml_chk': 1500, 'pwmr_chk': 1500, 'pwml_auto': 1530, 'pwmr_auto': 1619, 'pwml_sim': None, 'pwmr_sim': None, 'cnt_destination': 0, 'distance': 12.601508302892316, 'waypoint_latitude': 37.633221103055014, 'waypoint_longitude': 127.07779137759005, 'velocity': 0.2, 'heading': 104.5, 'roll': None, 'pitch': 2.1, 'validity': 'A', 'time': '025457.60', 'IP': None, 'date': '090424', 'longitude': 127.07766058, 'latitude': 37.63322479, 'arrived': False, 'flag_autodrive': True}
11:54:57 : {'dest_latitude': [37.633203, 37.633255, 37.633385, 37.633396, 37.633347, 37.633261, 37.633203], 'dest_longitude': [127.077801, 127.078011, 127.077983, 127.077886, 127.077789, 127.077724, 127.077801], 'mode_pc_command': 'AUTO', 'com_status_send': False, 'com_status_recv': False, 'coeff_kf': 2.5, 'coeff_kd': 30, 'voxel_size': 0.035, 'intensity': 5, 'dbscan_eps': 0.301, 'dbscan_minpoints': 5, 'coeff_vff_repulsive_force': 0.77, 'mode_chk': 1000, 'pwml_chk': 1500, 'pwmr_chk': 1500, 'pwml_auto': 1537, 'pwmr_auto': 1612, 'pwml_sim': None, 'pwmr_sim': None, 'cnt_destination': 0, 'distance': 12.600444155751514, 'waypoint_latitude': 37.63322142370108, 'waypoint_longitude': 127.07779155948582, 'velocity': 0.3, 'heading': 102.3, 'roll': None, 'pitch': 1.0, 'validity': 'A', 'time': '025457.80', 'IP': None, 'date': '090424', 'longitude': 127.07766043, 'latitude': 37.63322458, 'arrived': False, 'flag_autodrive': True}
11:54:58 : {'dest_latitude': [37.633203, 37.633255, 37.633385, 37.633396, 37.633347, 37.633261, 37.633203], 'dest_longitude': [127.077801, 127.078011, 127.077983, 127.077886, 127.077789, 127.077724, 127.077801], 'mode_pc_command': 'AUTO', 'com_status_send': False, 'com_status_recv': False, 'coeff_kf': 2.5, 'coeff_kd': 30, 'voxel_size': 0.035, 'intensity': 5, 'dbscan_eps': 0.301, 'dbscan_minpoints': 5, 'coeff_vff_repulsive_force': 0.77, 'mode_chk': 1000, 'pwml_chk': 1500, 'pwmr_chk': 1500, 'pwml_auto': 1551, 'pwmr_auto': 1598, 'pwml_sim': None, 'pwmr_sim': None, 'cnt_destination': 0, 'distance': 12.60894210923933, 'waypoint_latitude': 37.633221980472435, 'waypoint_longitude': 127.07779395410488, 'velocity': 0.3, 'heading': 102.3, 'roll': None, 'pitch': 1.0, 'validity': 'A', 'time': '025457.80', 'IP': None, 'date': '090424', 'longitude': 127.07766043, 'latitude': 37.63322458, 'arrived': False, 'flag_autodrive': True}
11:54:58 : {'dest_latitude': [37.633203, 37.633255, 37.633385, 37.633396, 37.633347, 37.633261, 37.633203], 'dest_longitude': [127.077801, 127.078011, 127.077983, 127.077886, 127.077789, 127.077724, 127.077801], 'mode_pc_command': 'AUTO', 'com_status_send': False, 'com_status_recv': False, 'coeff_kf': 2.5, 'coeff_kd': 30, 'voxel_size': 0.035, 'intensity': 5, 'dbscan_eps': 0.301, 'dbscan_minpoints': 5, 'coeff_vff_repulsive_force': 0.77, 'mode_chk': 1000, 'pwml_chk': 1500, 'pwmr_chk': 1500, 'pwml_auto': 1551, 'pwmr_auto': 1598, 'pwml_sim': None, 'pwmr_sim': None, 'cnt_destination': 0, 'distance': 12.60894210923933, 'waypoint_latitude': 37.63322312449168, 'waypoint_longitude': 127.07779482916791, 'velocity': 0.3, 'heading': 98.0, 'roll': None, 'pitch': 3.3, 'validity': 'A', 'time': '025458.20', 'IP': None, 'date': '090424', 'longitude': 127.07765993, 'latitude': 37.63322416, 'arrived': False, 'flag_autodrive': True}
11:54:58 : {'dest_latitude': [37.633203, 37.633255, 37.633385, 37.633396, 37.633347, 37.633261, 37.633203], 'dest_longitude': [127.077801, 127.078011, 127.077983, 127.077886, 127.077789, 127.077724, 127.077801], 'mode_pc_command': 'AUTO', 'com_status_send': False, 'com_status_recv': False, 'coeff_kf': 2.5, 'coeff_kd': 30, 'voxel_size': 0.035, 'intensity': 5, 'dbscan_eps': 0.301, 'dbscan_minpoints': 5, 'coeff_vff_repulsive_force': 0.77, 'mode_chk': 1000, 'pwml_chk': 1500, 'pwmr_chk': 1500, 'pwml_auto': 1578, 'pwmr_auto': 1571, 'pwml_sim': None, 'pwmr_sim': None, 'cnt_destination': 0, 'distance': 12.643395667225757, 'waypoint_latitude': 37.63322341418611, 'waypoint_longitude': 127.07779766497201, 'velocity': 0.6, 'heading': 94.9, 'roll': None, 'pitch': 1.1, 'validity': 'A', 'time': '025458.40', 'IP': None, 'date': '090424', 'longitude': 127.07765957, 'latitude': 37.6332238, 'arrived': False, 'flag_autodrive': True}
11:54:58 : {'dest_latitude': [37.633203, 37.633255, 37.633385, 37.633396, 37.633347, 37.633261, 37.633203], 'dest_longitude': [127.077801, 127.078011, 127.077983, 127.077886, 127.077789, 127.077724, 127.077801], 'mode_pc_command': 'AUTO', 'com_status_send': False, 'com_status_recv': False, 'coeff_kf': 2.5, 'coeff_kd': 30, 'voxel_size': 0.035, 'intensity': 5, 'dbscan_eps': 0.301, 'dbscan_minpoints': 5, 'coeff_vff_repulsive_force': 0.77, 'mode_chk': 1000, 'pwml_chk': 1500, 'pwmr_chk': 1500, 'pwml_auto': 1597, 'pwmr_auto': 1552, 'pwml_sim': None, 'pwmr_sim': None, 'cnt_destination': 0, 'distance': 12.667174574205527, 'waypoint_latitude': 37.63322267171152, 'waypoint_longitude': 127.0777994115793, 'velocity': 0.5, 'heading': 91.9, 'roll': None, 'pitch': 0.4, 'validity': 'A', 'time': '025458.60', 'IP': None, 'date': '090424', 'longitude': 127.07765922, 'latitude': 37.63322342, 'arrived': False, 'flag_autodrive': True}
11:54:59 : {'dest_latitude': [37.633203, 37.633255, 37.633385, 37.633396, 37.633347, 37.633261, 37.633203], 'dest_longitude': [127.077801, 127.078011, 127.077983, 127.077886, 127.077789, 127.077724, 127.077801], 'mode_pc_command': 'AUTO', 'com_status_send': False, 'com_status_recv': False, 'coeff_kf': 2.5, 'coeff_kd': 30, 'voxel_size': 0.035, 'intensity': 5, 'dbscan_eps': 0.301, 'dbscan_minpoints': 5, 'coeff_vff_repulsive_force': 0.77, 'mode_chk': 1000, 'pwml_chk': 1500, 'pwmr_chk': 1500, 'pwml_auto': 1616, 'pwmr_auto': 1533, 'pwml_sim': None, 'pwmr_sim': None, 'cnt_destination': 0, 'distance': 12.689849910021136, 'waypoint_latitude': 37.633224645260455, 'waypoint_longitude': 127.07780144528682, 'velocity': 0.4, 'heading': 89.6, 'roll': None, 'pitch': 0.5, 'validity': 'A', 'time': '025458.80', 'IP': None, 'date': '090424', 'longitude': 127.0776589, 'latitude': 37.63322311, 'arrived': False, 'flag_autodrive': True}
11:54:59 : {'dest_latitude': [37.633203, 37.633255, 37.633385, 37.633396, 37.633347, 37.633261, 37.633203], 'dest_longitude': [127.077801, 127.078011, 127.077983, 127.077886, 127.077789, 127.077724, 127.077801], 'mode_pc_command': 'AUTO', 'com_status_send': False, 'com_status_recv': False, 'coeff_kf': 2.5, 'coeff_kd': 30, 'voxel_size': 0.035, 'intensity': 5, 'dbscan_eps': 0.301, 'dbscan_minpoints': 5, 'coeff_vff_repulsive_force': 0.77, 'mode_chk': 1000, 'pwml_chk': 1500, 'pwmr_chk': 1500, 'pwml_auto': 1631, 'pwmr_auto': 1518, 'pwml_sim': None, 'pwmr_sim': None, 'cnt_destination': 0, 'distance': 12.711466038333716, 'waypoint_latitude': 37.63322156962488, 'waypoint_longitude': 127.07780393945566, 'velocity': 0.1, 'heading': 88.9, 'roll': None, 'pitch': 1.2, 'validity': 'A', 'time': '025459.00', 'IP': None, 'date': '090424', 'longitude': 127.07765876, 'latitude': 37.63322296, 'arrived': False, 'flag_autodrive': True}
11:54:59 : {'dest_latitude': [37.633203, 37.633255, 37.633385, 37.633396, 37.633347, 37.633261, 37.633203], 'dest_longitude': [127.077801, 127.078011, 127.077983, 127.077886, 127.077789, 127.077724, 127.077801], 'mode_pc_command': 'AUTO', 'com_status_send': False, 'com_status_recv': False, 'coeff_kf': 2.5, 'coeff_kd': 30, 'voxel_size': 0.035, 'intensity': 5, 'dbscan_eps': 0.301, 'dbscan_minpoints': 5, 'coeff_vff_repulsive_force': 0.77, 'mode_chk': 1000, 'pwml_chk': 1500, 'pwmr_chk': 1500, 'pwml_auto': 1635, 'pwmr_auto': 1514, 'pwml_sim': None, 'pwmr_sim': None, 'cnt_destination': 0, 'distance': 12.720681561665364, 'waypoint_latitude': 37.63322181384731, 'waypoint_longitude': 127.07780389714617, 'velocity': 0.5, 'heading': 89.6, 'roll': None, 'pitch': 1.9, 'validity': 'A', 'time': '025459.20', 'IP': None, 'date': '090424', 'longitude': 127.07765909, 'latitude': 37.63322294, 'arrived': False, 'flag_autodrive': True}
11:54:59 : {'dest_latitude': [37.633203, 37.633255, 37.633385, 37.633396, 37.633347, 37.633261, 37.633203], 'dest_longitude': [127.077801, 127.078011, 127.077983, 127.077886, 127.077789, 127.077724, 127.077801], 'mode_pc_command': 'AUTO', 'com_status_send': False, 'com_status_recv': False, 'coeff_kf': 2.5, 'coeff_kd': 30, 'voxel_size': 0.035, 'intensity': 5, 'dbscan_eps': 0.301, 'dbscan_minpoints': 5, 'coeff_vff_repulsive_force': 0.77, 'mode_chk': 1000, 'pwml_chk': 1500, 'pwmr_chk': 1500, 'pwml_auto': 1630, 'pwmr_auto': 1519, 'pwml_sim': None, 'pwmr_sim': None, 'cnt_destination': 0, 'distance': 12.691680016184643, 'waypoint_latitude': 37.633203034955166, 'waypoint_longitude': 127.07780075122929, 'velocity': 0.5, 'heading': 89.6, 'roll': None, 'pitch': 1.9, 'validity': 'A', 'time': '025459.20', 'IP': None, 'date': '090424', 'longitude': 127.07765909, 'latitude': 37.63322294, 'arrived': False, 'flag_autodrive': True}
11:54:59 : {'dest_latitude': [37.633203, 37.633255, 37.633385, 37.633396, 37.633347, 37.633261, 37.633203], 'dest_longitude': [127.077801, 127.078011, 127.077983, 127.077886, 127.077789, 127.077724, 127.077801], 'mode_pc_command': 'AUTO', 'com_status_send': False, 'com_status_recv': False, 'coeff_kf': 2.5, 'coeff_kd': 30, 'voxel_size': 0.035, 'intensity': 5, 'dbscan_eps': 0.301, 'dbscan_minpoints': 5, 'coeff_vff_repulsive_force': 0.77, 'mode_chk': 1000, 'pwml_chk': 1500, 'pwmr_chk': 1500, 'pwml_auto': 1630, 'pwmr_auto': 1519, 'pwml_sim': None, 'pwmr_sim': None, 'cnt_destination': 0, 'distance': 12.691680016184643, 'waypoint_latitude': 37.633203034955166, 'waypoint_longitude': 127.07780075122929, 'velocity': 0.6, 'heading': 90.5, 'roll': None, 'pitch': 1.5, 'validity': 'A', 'time': '025459.40', 'IP': None, 'date': '090424', 'longitude': 127.07765953, 'latitude': 37.63322301, 'arrived': False, 'flag_autodrive': True}
11:55:00 : {'dest_latitude': [37.633203, 37.633255, 37.633385, 37.633396, 37.633347, 37.633261, 37.633203], 'dest_longitude': [127.077801, 127.078011, 127.077983, 127.077886, 127.077789, 127.077724, 127.077801], 'mode_pc_command': 'AUTO', 'com_status_send': False, 'com_status_recv': False, 'coeff_kf': 2.5, 'coeff_kd': 30, 'voxel_size': 0.035, 'intensity': 5, 'dbscan_eps': 0.301, 'dbscan_minpoints': 5, 'coeff_vff_repulsive_force': 0.77, 'mode_chk': 1000, 'pwml_chk': 1500, 'pwmr_chk': 1500, 'pwml_auto': 1624, 'pwmr_auto': 1525, 'pwml_sim': None, 'pwmr_sim': None, 'cnt_destination': 0, 'distance': 12.654897763394972, 'waypoint_latitude': 37.633203035077884, 'waypoint_longitude': 127.07780075200061, 'velocity': 0.3, 'heading': 93.0, 'roll': None, 'pitch': -0.4, 'validity': 'A', 'time': '025459.80', 'IP': None, 'date': '090424', 'longitude': 127.07765996, 'latitude': 37.63322314, 'arrived': False, 'flag_autodrive': True}
11:55:00 : {'dest_latitude': [37.633203, 37.633255, 37.633385, 37.633396, 37.633347, 37.633261, 37.633203], 'dest_longitude': [127.077801, 127.078011, 127.077983, 127.077886, 127.077789, 127.077724, 127.077801], 'mode_pc_command': 'AUTO', 'com_status_send': False, 'com_status_recv': False, 'coeff_kf': 2.5, 'coeff_kd': 30, 'voxel_size': 0.035, 'intensity': 5, 'dbscan_eps': 0.301, 'dbscan_minpoints': 5, 'coeff_vff_repulsive_force': 0.77, 'mode_chk': 1000, 'pwml_chk': 1500, 'pwmr_chk': 1500, 'pwml_auto': 1608, 'pwmr_auto': 1541, 'pwml_sim': None, 'pwmr_sim': None, 'cnt_destination': 0, 'distance': 12.620180957751407, 'waypoint_latitude': 37.633203035305776, 'waypoint_longitude': 127.07780075275441, 'velocity': 0.2, 'heading': 94.4, 'roll': None, 'pitch': -0.0, 'validity': 'A', 'time': '025500.00', 'IP': None, 'date': '090424', 'longitude': 127.0776598, 'latitude': 37.63322315, 'arrived': False, 'flag_autodrive': True}
11:55:00 : {'dest_latitude': [37.633203, 37.633255, 37.633385, 37.633396, 37.633347, 37.633261, 37.633203], 'dest_longitude': [127.077801, 127.078011, 127.077983, 127.077886, 127.077789, 127.077724, 127.077801], 'mode_pc_command': 'AUTO', 'com_status_send': False, 'com_status_recv': False, 'coeff_kf': 2.5, 'coeff_kd': 30, 'voxel_size': 0.035, 'intensity': 5, 'dbscan_eps': 0.301, 'dbscan_minpoints': 5, 'coeff_vff_repulsive_force': 0.77, 'mode_chk': 1000, 'pwml_chk': 1500, 'pwmr_chk': 1500, 'pwml_auto': 1599, 'pwmr_auto': 1550, 'pwml_sim': None, 'pwmr_sim': None, 'cnt_destination': 0, 'distance': 12.634244246151402, 'waypoint_latitude': 37.6332226472107, 'waypoint_longitude': 127.07780000238145, 'velocity': 0.1, 'heading': 95.1, 'roll': None, 'pitch': 1.4, 'validity': 'A', 'time': '025500.20', 'IP': None, 'date': '090424', 'longitude': 127.07765978, 'latitude': 37.633223, 'arrived': False, 'flag_autodrive': True}
11:55:00 : {'dest_latitude': [37.633203, 37.633255, 37.633385, 37.633396, 37.633347, 37.633261, 37.633203], 'dest_longitude': [127.077801, 127.078011, 127.077983, 127.077886, 127.077789, 127.077724, 127.077801], 'mode_pc_command': 'AUTO', 'com_status_send': False, 'com_status_recv': False, 'coeff_kf': 2.5, 'coeff_kd': 30, 'voxel_size': 0.035, 'intensity': 5, 'dbscan_eps': 0.301, 'dbscan_minpoints': 5, 'coeff_vff_repulsive_force': 0.77, 'mode_chk': 1000, 'pwml_chk': 1500, 'pwmr_chk': 1500, 'pwml_auto': 1594, 'pwmr_auto': 1555, 'pwml_sim': None, 'pwmr_sim': None, 'cnt_destination': 0, 'distance': 12.633030671087436, 'waypoint_latitude': 37.63322193002567, 'waypoint_longitude': 127.07780065897883, 'velocity': 0.1, 'heading': 95.3, 'roll': None, 'pitch': 3.3, 'validity': 'A', 'time': '025500.40', 'IP': None, 'date': '090424', 'longitude': 127.07765971, 'latitude': 37.63322289, 'arrived': False, 'flag_autodrive': True}
11:55:00 : {'dest_latitude': [37.633203, 37.633255, 37.633385, 37.633396, 37.633347, 37.633261, 37.633203], 'dest_longitude': [127.077801, 127.078011, 127.077983, 127.077886, 127.077789, 127.077724, 127.077801], 'mode_pc_command': 'AUTO', 'com_status_send': False, 'com_status_recv': False, 'coeff_kf': 2.5, 'coeff_kd': 30, 'voxel_size': 0.035, 'intensity': 5, 'dbscan_eps': 0.301, 'dbscan_minpoints': 5, 'coeff_vff_repulsive_force': 0.77, 'mode_chk': 1000, 'pwml_chk': 1500, 'pwmr_chk': 1500, 'pwml_auto': 1592, 'pwmr_auto': 1557, 'pwml_sim': None, 'pwmr_sim': None, 'cnt_destination': 0, 'distance': 12.636952177824028, 'waypoint_latitude': 37.63322361170758, 'waypoint_longitude': 127.07780017902552, 'velocity': 0.1, 'heading': 95.2, 'roll': None, 'pitch': 4.1, 'validity': 'A', 'time': '025500.60', 'IP': None, 'date': '090424', 'longitude': 127.07765963, 'latitude': 37.63322276, 'arrived': False, 'flag_autodrive': True}
11:55:01 : {'dest_latitude': [37.633203, 37.633255, 37.633385, 37.633396, 37.633347, 37.633261, 37.633203], 'dest_longitude': [127.077801, 127.078011, 127.077983, 127.077886, 127.077789, 127.077724, 127.077801], 'mode_pc_command': 'AUTO', 'com_status_send': False, 'com_status_recv': False, 'coeff_kf': 2.5, 'coeff_kd': 30, 'voxel_size': 0.035, 'intensity': 5, 'dbscan_eps': 0.301, 'dbscan_minpoints': 5, 'coeff_vff_repulsive_force': 0.77, 'mode_chk': 1000, 'pwml_chk': 1500, 'pwmr_chk': 1500, 'pwml_auto': 1593, 'pwmr_auto': 1556, 'pwml_sim': None, 'pwmr_sim': None, 'cnt_destination': 0, 'distance': 12.641367746131728, 'waypoint_latitude': 37.6332233820441, 'waypoint_longitude': 127.07780071943841, 'velocity': 0.1, 'heading': 95.6, 'roll': None, 'pitch': 3.4, 'validity': 'A', 'time': '025500.80', 'IP': None, 'date': '090424', 'longitude': 127.07765961, 'latitude': 37.63322269, 'arrived': False, 'flag_autodrive': True}
11:55:01 : {'dest_latitude': [37.633203, 37.633255, 37.633385, 37.633396, 37.633347, 37.633261, 37.633203], 'dest_longitude': [127.077801, 127.078011, 127.077983, 127.077886, 127.077789, 127.077724, 127.077801], 'mode_pc_command': 'AUTO', 'com_status_send': False, 'com_status_recv': False, 'coeff_kf': 2.5, 'coeff_kd': 30, 'voxel_size': 0.035, 'intensity': 5, 'dbscan_eps': 0.301, 'dbscan_minpoints': 5, 'coeff_vff_repulsive_force': 0.77, 'mode_chk': 1000, 'pwml_chk': 1500, 'pwmr_chk': 1500, 'pwml_auto': 1590, 'pwmr_auto': 1559, 'pwml_sim': None, 'pwmr_sim': None, 'cnt_destination': 0, 'distance': 12.641751757765546, 'waypoint_latitude': 37.63322308206169, 'waypoint_longitude': 127.07779942220738, 'velocity': 0.1, 'heading': 96.0, 'roll': None, 'pitch': 3.1, 'validity': 'A', 'time': '025501.00', 'IP': None, 'date': '090424', 'longitude': 127.0776596, 'latitude': 37.63322263, 'arrived': False, 'flag_autodrive': True}
11:55:01 : {'dest_latitude': [37.633203, 37.633255, 37.633385, 37.633396, 37.633347, 37.633261, 37.633203], 'dest_longitude': [127.077801, 127.078011, 127.077983, 127.077886, 127.077789, 127.077724, 127.077801], 'mode_pc_command': 'AUTO', 'com_status_send': False, 'com_status_recv': False, 'coeff_kf': 2.5, 'coeff_kd': 30, 'voxel_size': 0.035, 'intensity': 5, 'dbscan_eps': 0.301, 'dbscan_minpoints': 5, 'coeff_vff_repulsive_force': 0.77, 'mode_chk': 1000, 'pwml_chk': 1500, 'pwmr_chk': 1500, 'pwml_auto': 1587, 'pwmr_auto': 1562, 'pwml_sim': None, 'pwmr_sim': None, 'cnt_destination': 0, 'distance': 12.641465360958195, 'waypoint_latitude': 37.63322294322096, 'waypoint_longitude': 127.07779934464747, 'velocity': 0.1, 'heading': 96.0, 'roll': None, 'pitch': 3.1, 'validity': 'A', 'time': '025501.00', 'IP': None, 'date': '090424', 'longitude': 127.0776596, 'latitude': 37.63322263, 'arrived': False, 'flag_autodrive': True}
11:55:01 : {'dest_latitude': [37.633203, 37.633255, 37.633385, 37.633396, 37.633347, 37.633261, 37.633203], 'dest_longitude': [127.077801, 127.078011, 127.077983, 127.077886, 127.077789, 127.077724, 127.077801], 'mode_pc_command': 'AUTO', 'com_status_send': False, 'com_status_recv': False, 'coeff_kf': 2.5, 'coeff_kd': 30, 'voxel_size': 0.035, 'intensity': 5, 'dbscan_eps': 0.301, 'dbscan_minpoints': 5, 'coeff_vff_repulsive_force': 0.77, 'mode_chk': 1000, 'pwml_chk': 1500, 'pwmr_chk': 1500, 'pwml_auto': 1587, 'pwmr_auto': 1562, 'pwml_sim': None, 'pwmr_sim': None, 'cnt_destination': 0, 'distance': 12.641465360958195, 'waypoint_latitude': 37.63322306090105, 'waypoint_longitude': 127.07779927854112, 'velocity': 0.0, 'heading': 96.8, 'roll': None, 'pitch': 3.1, 'validity': 'A', 'time': '025501.40', 'IP': None, 'date': '090424', 'longitude': 127.07765966, 'latitude': 37.63322259, 'arrived': False, 'flag_autodrive': True}
11:55:01 : {'dest_latitude': [37.633203, 37.633255, 37.633385, 37.633396, 37.633347, 37.633261, 37.633203], 'dest_longitude': [127.077801, 127.078011, 127.077983, 127.077886, 127.077789, 127.077724, 127.077801], 'mode_pc_command': 'AUTO', 'com_status_send': False, 'com_status_recv': False, 'coeff_kf': 2.5, 'coeff_kd': 30, 'voxel_size': 0.035, 'intensity': 5, 'dbscan_eps': 0.301, 'dbscan_minpoints': 5, 'coeff_vff_repulsive_force': 0.77, 'mode_chk': 1000, 'pwml_chk': 1500, 'pwmr_chk': 1500, 'pwml_auto': 1582, 'pwmr_auto': 1567, 'pwml_sim': None, 'pwmr_sim': None, 'cnt_destination': 0, 'distance': 12.635493649060077, 'waypoint_latitude': 37.633222926368084, 'waypoint_longitude': 127.077798950834, 'velocity': 0.1, 'heading': 97.0, 'roll': None, 'pitch': 3.0, 'validity': 'A', 'time': '025501.60', 'IP': None, 'date': '090424', 'longitude': 127.07765967, 'latitude': 37.63322253, 'arrived': False, 'flag_autodrive': True}
11:55:02 : {'dest_latitude': [37.633203, 37.633255, 37.633385, 37.633396, 37.633347, 37.633261, 37.633203], 'dest_longitude': [127.077801, 127.078011, 127.077983, 127.077886, 127.077789, 127.077724, 127.077801], 'mode_pc_command': 'AUTO', 'com_status_send': False, 'com_status_recv': False, 'coeff_kf': 2.5, 'coeff_kd': 30, 'voxel_size': 0.035, 'intensity': 5, 'dbscan_eps': 0.301, 'dbscan_minpoints': 5, 'coeff_vff_repulsive_force': 0.77, 'mode_chk': 1000, 'pwml_chk': 1500, 'pwmr_chk': 1500, 'pwml_auto': 1580, 'pwmr_auto': 1569, 'pwml_sim': None, 'pwmr_sim': None, 'cnt_destination': 0, 'distance': 12.633477697392735, 'waypoint_latitude': 37.63322299151448, 'waypoint_longitude': 127.07779898875705, 'velocity': 0.1, 'heading': 96.9, 'roll': None, 'pitch': 3.1, 'validity': 'A', 'time': '025501.80', 'IP': None, 'date': '090424', 'longitude': 127.07765968, 'latitude': 37.63322247, 'arrived': False, 'flag_autodrive': True}
11:55:02 : {'dest_latitude': [37.633203, 37.633255, 37.633385, 37.633396, 37.633347, 37.633261, 37.633203], 'dest_longitude': [127.077801, 127.078011, 127.077983, 127.077886, 127.077789, 127.077724, 127.077801], 'mode_pc_command': 'AUTO', 'com_status_send': False, 'com_status_recv': False, 'coeff_kf': 2.5, 'coeff_kd': 30, 'voxel_size': 0.035, 'intensity': 5, 'dbscan_eps': 0.301, 'dbscan_minpoints': 5, 'coeff_vff_repulsive_force': 0.77, 'mode_chk': 1000, 'pwml_chk': 1500, 'pwmr_chk': 1500, 'pwml_auto': 1581, 'pwmr_auto': 1568, 'pwml_sim': None, 'pwmr_sim': None, 'cnt_destination': 0, 'distance': 12.631465011573358, 'waypoint_latitude': 37.63322282413379, 'waypoint_longitude': 127.07779920179092, 'velocity': 0.1, 'heading': 96.7, 'roll': None, 'pitch': 2.9, 'validity': 'A', 'time': '025502.00', 'IP': None, 'date': '090424', 'longitude': 127.07765975, 'latitude': 37.63322239, 'arrived': False, 'flag_autodrive': True}
11:55:02 : {'dest_latitude': [37.633203, 37.633255, 37.633385, 37.633396, 37.633347, 37.633261, 37.633203], 'dest_longitude': [127.077801, 127.078011, 127.077983, 127.077886, 127.077789, 127.077724, 127.077801], 'mode_pc_command': 'AUTO', 'com_status_send': False, 'com_status_recv': False, 'coeff_kf': 2.5, 'coeff_kd': 30, 'voxel_size': 0.035, 'intensity': 5, 'dbscan_eps': 0.301, 'dbscan_minpoints': 5, 'coeff_vff_repulsive_force': 0.77, 'mode_chk': 1000, 'pwml_chk': 1500, 'pwmr_chk': 1500, 'pwml_auto': 1582, 'pwmr_auto': 1567, 'pwml_sim': None, 'pwmr_sim': None, 'cnt_destination': 0, 'distance': 12.623869769777938, 'waypoint_latitude': 37.63322199643509, 'waypoint_longitude': 127.07779992265367, 'velocity': 0.1, 'heading': 96.7, 'roll': None, 'pitch': 2.7, 'validity': 'A', 'time': '025502.20', 'IP': None, 'date': '090424', 'longitude': 127.07765984, 'latitude': 37.63322233, 'arrived': False, 'flag_autodrive': True}
11:55:02 : {'dest_latitude': [37.633203, 37.633255, 37.633385, 37.633396, 37.633347, 37.633261, 37.633203], 'dest_longitude': [127.077801, 127.078011, 127.077983, 127.077886, 127.077789, 127.077724, 127.077801], 'mode_pc_command': 'AUTO', 'com_status_send': False, 'com_status_recv': False, 'coeff_kf': 2.5, 'coeff_kd': 30, 'voxel_size': 0.035, 'intensity': 5, 'dbscan_eps': 0.301, 'dbscan_minpoints': 5, 'coeff_vff_repulsive_force': 0.77, 'mode_chk': 1000, 'pwml_chk': 1500, 'pwmr_chk': 1500, 'pwml_auto': 1582, 'pwmr_auto': 1567, 'pwml_sim': None, 'pwmr_sim': None, 'cnt_destination': 0, 'distance': 12.614922476822413, 'waypoint_latitude': 37.63322188232471, 'waypoint_longitude': 127.07779977920433, 'velocity': 0.1, 'heading': 96.7, 'roll': None, 'pitch': 2.7, 'validity': 'A', 'time': '025502.20', 'IP': None, 'date': '090424', 'longitude': 127.07765984, 'latitude': 37.63322233, 'arrived': False, 'flag_autodrive': True}
11:55:02 : {'dest_latitude': [37.633203, 37.633255, 37.633385, 37.633396, 37.633347, 37.633261, 37.633203], 'dest_longitude': [127.077801, 127.078011, 127.077983, 127.077886, 127.077789, 127.077724, 127.077801], 'mode_pc_command': 'AUTO', 'com_status_send': False, 'com_status_recv': False, 'coeff_kf': 2.5, 'coeff_kd': 30, 'voxel_size': 0.035, 'intensity': 5, 'dbscan_eps': 0.301, 'dbscan_minpoints': 5, 'coeff_vff_repulsive_force': 0.77, 'mode_chk': 1000, 'pwml_chk': 1500, 'pwmr_chk': 1500, 'pwml_auto': 1582, 'pwmr_auto': 1567, 'pwml_sim': None, 'pwmr_sim': None, 'cnt_destination': 0, 'distance': 12.614922476822413, 'waypoint_latitude': 37.63322188752949, 'waypoint_longitude': 127.07780001238812, 'velocity': 0.1, 'heading': 96.7, 'roll': None, 'pitch': 2.6, 'validity': 'A', 'time': '025502.40', 'IP': None, 'date': '090424', 'longitude': 127.07765991, 'latitude': 37.6332223, 'arrived': False, 'flag_autodrive': True}
11:55:03 : {'dest_latitude': [37.633203, 37.633255, 37.633385, 37.633396, 37.633347, 37.633261, 37.633203], 'dest_longitude': [127.077801, 127.078011, 127.077983, 127.077886, 127.077789, 127.077724, 127.077801], 'mode_pc_command': 'AUTO', 'com_status_send': False, 'com_status_recv': False, 'coeff_kf': 2.5, 'coeff_kd': 30, 'voxel_size': 0.035, 'intensity': 5, 'dbscan_eps': 0.301, 'dbscan_minpoints': 5, 'coeff_vff_repulsive_force': 0.77, 'mode_chk': 1000, 'pwml_chk': 1500, 'pwmr_chk': 1500, 'pwml_auto': 1582, 'pwmr_auto': 1567, 'pwml_sim': None, 'pwmr_sim': None, 'cnt_destination': 0, 'distance': 12.614922476822413, 'waypoint_latitude': 37.63322188752949, 'waypoint_longitude': 127.07780001238812, 'velocity': 0.1, 'heading': 96.9, 'roll': None, 'pitch': 2.5, 'validity': 'A', 'time': '025502.60', 'IP': None, 'date': '090424', 'longitude': 127.07765989, 'latitude': 37.63322222, 'arrived': False, 'flag_autodrive': True}
11:55:03 : {'dest_latitude': [37.633203, 37.633255, 37.633385, 37.633396, 37.633347, 37.633261, 37.633203], 'dest_longitude': [127.077801, 127.078011, 127.077983, 127.077886, 127.077789, 127.077724, 127.077801], 'mode_pc_command': 'AUTO', 'com_status_send': False, 'com_status_recv': False, 'coeff_kf': 2.5, 'coeff_kd': 30, 'voxel_size': 0.035, 'intensity': 5, 'dbscan_eps': 0.301, 'dbscan_minpoints': 5, 'coeff_vff_repulsive_force': 0.77, 'mode_chk': 1000, 'pwml_chk': 1500, 'pwmr_chk': 1500, 'pwml_auto': 1581, 'pwmr_auto': 1568, 'pwml_sim': None, 'pwmr_sim': None, 'cnt_destination': 0, 'distance': 12.60850490173108, 'waypoint_latitude': 37.63322275136343, 'waypoint_longitude': 127.07779917168601, 'velocity': 0.1, 'heading': 96.8, 'roll': None, 'pitch': 2.7, 'validity': 'A', 'time': '025503.00', 'IP': None, 'date': '090424', 'longitude': 127.07765989, 'latitude': 37.63322222, 'arrived': False, 'flag_autodrive': True}
11:55:03 : {'dest_latitude': [37.633203, 37.633255, 37.633385, 37.633396, 37.633347, 37.633261, 37.633203], 'dest_longitude': [127.077801, 127.078011, 127.077983, 127.077886, 127.077789, 127.077724, 127.077801], 'mode_pc_command': 'AUTO', 'com_status_send': False, 'com_status_recv': False, 'coeff_kf': 2.5, 'coeff_kd': 30, 'voxel_size': 0.035, 'intensity': 5, 'dbscan_eps': 0.301, 'dbscan_minpoints': 5, 'coeff_vff_repulsive_force': 0.77, 'mode_chk': 1000, 'pwml_chk': 1500, 'pwmr_chk': 1500, 'pwml_auto': 1581, 'pwmr_auto': 1568, 'pwml_sim': None, 'pwmr_sim': None, 'cnt_destination': 0, 'distance': 12.604656642334787, 'waypoint_latitude': 37.633221895731666, 'waypoint_longitude': 127.07779999074926, 'velocity': 0.0, 'heading': 96.8, 'roll': None, 'pitch': 2.3, 'validity': 'A', 'time': '025503.20', 'IP': None, 'date': '090424', 'longitude': 127.07765993, 'latitude': 37.6332222, 'arrived': False, 'flag_autodrive': True}
11:55:03 : {'dest_latitude': [37.633203, 37.633255, 37.633385, 37.633396, 37.633347, 37.633261, 37.633203], 'dest_longitude': [127.077801, 127.078011, 127.077983, 127.077886, 127.077789, 127.077724, 127.077801], 'mode_pc_command': 'AUTO', 'com_status_send': False, 'com_status_recv': False, 'coeff_kf': 2.5, 'coeff_kd': 30, 'voxel_size': 0.035, 'intensity': 5, 'dbscan_eps': 0.301, 'dbscan_minpoints': 5, 'coeff_vff_repulsive_force': 0.77, 'mode_chk': 1000, 'pwml_chk': 1500, 'pwmr_chk': 1500, 'pwml_auto': 1581, 'pwmr_auto': 1568, 'pwml_sim': None, 'pwmr_sim': None, 'cnt_destination': 0, 'distance': 12.604656642334787, 'waypoint_latitude': 37.633221895731666, 'waypoint_longitude': 127.07779999074926, 'velocity': 0.0, 'heading': 96.9, 'roll': None, 'pitch': 2.3, 'validity': 'A', 'time': '025503.40', 'IP': None, 'date': '090424', 'longitude': 127.07765991, 'latitude': 37.63322222, 'arrived': False, 'flag_autodrive': True}
11:55:03 : {'dest_latitude': [37.633203, 37.633255, 37.633385, 37.633396, 37.633347, 37.633261, 37.633203], 'dest_longitude': [127.077801, 127.078011, 127.077983, 127.077886, 127.077789, 127.077724, 127.077801], 'mode_pc_command': 'AUTO', 'com_status_send': False, 'com_status_recv': False, 'coeff_kf': 2.5, 'coeff_kd': 30, 'voxel_size': 0.035, 'intensity': 5, 'dbscan_eps': 0.301, 'dbscan_minpoints': 5, 'coeff_vff_repulsive_force': 0.77, 'mode_chk': 1000, 'pwml_chk': 1500, 'pwmr_chk': 1500, 'pwml_auto': 1580, 'pwmr_auto': 1569, 'pwml_sim': None, 'pwmr_sim': None, 'cnt_destination': 0, 'distance': 12.606769203548572, 'waypoint_latitude': 37.63322276952989, 'waypoint_longitude': 127.07780000728727, 'velocity': 0.1, 'heading': 96.9, 'roll': None, 'pitch': 2.9, 'validity': 'A', 'time': '025503.60', 'IP': None, 'date': '090424', 'longitude': 127.07765993, 'latitude': 37.63322219, 'arrived': False, 'flag_autodrive': True}
11:55:04 : {'dest_latitude': [37.633203, 37.633255, 37.633385, 37.633396, 37.633347, 37.633261, 37.633203], 'dest_longitude': [127.077801, 127.078011, 127.077983, 127.077886, 127.077789, 127.077724, 127.077801], 'mode_pc_command': 'AUTO', 'com_status_send': False, 'com_status_recv': False, 'coeff_kf': 2.5, 'coeff_kd': 30, 'voxel_size': 0.035, 'intensity': 5, 'dbscan_eps': 0.301, 'dbscan_minpoints': 5, 'coeff_vff_repulsive_force': 0.77, 'mode_chk': 1000, 'pwml_chk': 1500, 'pwmr_chk': 1500, 'pwml_auto': 1580, 'pwmr_auto': 1569, 'pwml_sim': None, 'pwmr_sim': None, 'cnt_destination': 0, 'distance': 12.604468351304646, 'waypoint_latitude': 37.633203033640406, 'waypoint_longitude': 127.07780075270182, 'velocity': 0.1, 'heading': 96.9, 'roll': None, 'pitch': 3.4, 'validity': 'A', 'time': '025503.80', 'IP': None, 'date': '090424', 'longitude': 127.07765997, 'latitude': 37.63322217, 'arrived': False, 'flag_autodrive': True}
11:55:04 : {'dest_latitude': [37.633203, 37.633255, 37.633385, 37.633396, 37.633347, 37.633261, 37.633203], 'dest_longitude': [127.077801, 127.078011, 127.077983, 127.077886, 127.077789, 127.077724, 127.077801], 'mode_pc_command': 'AUTO', 'com_status_send': False, 'com_status_recv': False, 'coeff_kf': 2.5, 'coeff_kd': 30, 'voxel_size': 0.035, 'intensity': 5, 'dbscan_eps': 0.301, 'dbscan_minpoints': 5, 'coeff_vff_repulsive_force': 0.77, 'mode_chk': 1000, 'pwml_chk': 1500, 'pwmr_chk': 1500, 'pwml_auto': 1580, 'pwmr_auto': 1569, 'pwml_sim': None, 'pwmr_sim': None, 'cnt_destination': 0, 'distance': 12.600620432647176, 'waypoint_latitude': 37.63320303360535, 'waypoint_longitude': 127.07780075277195, 'velocity': 0.1, 'heading': 97.0, 'roll': None, 'pitch': 2.7, 'validity': 'A', 'time': '025504.00', 'IP': None, 'date': '090424', 'longitude': 127.07765998, 'latitude': 37.63322216, 'arrived': False, 'flag_autodrive': True}
11:55:04 : {'dest_latitude': [37.633203, 37.633255, 37.633385, 37.633396, 37.633347, 37.633261, 37.633203], 'dest_longitude': [127.077801, 127.078011, 127.077983, 127.077886, 127.077789, 127.077724, 127.077801], 'mode_pc_command': 'AUTO', 'com_status_send': False, 'com_status_recv': False, 'coeff_kf': 2.5, 'coeff_kd': 30, 'voxel_size': 0.035, 'intensity': 5, 'dbscan_eps': 0.301, 'dbscan_minpoints': 5, 'coeff_vff_repulsive_force': 0.77, 'mode_chk': 1000, 'pwml_chk': 1500, 'pwmr_chk': 1500, 'pwml_auto': 1579, 'pwmr_auto': 1570, 'pwml_sim': None, 'pwmr_sim': None, 'cnt_destination': 0, 'distance': 12.59956446203858, 'waypoint_latitude': 37.63320303358782, 'waypoint_longitude': 127.07780075278947, 'velocity': 0.1, 'heading': 97.0, 'roll': None, 'pitch': 2.7, 'validity': 'A', 'time': '025504.00', 'IP': None, 'date': '090424', 'longitude': 127.07765998, 'latitude': 37.63322216, 'arrived': False, 'flag_autodrive': True}
11:55:04 : {'dest_latitude': [37.633203, 37.633255, 37.633385, 37.633396, 37.633347, 37.633261, 37.633203], 'dest_longitude': [127.077801, 127.078011, 127.077983, 127.077886, 127.077789, 127.077724, 127.077801], 'mode_pc_command': 'AUTO', 'com_status_send': False, 'com_status_recv': False, 'coeff_kf': 2.5, 'coeff_kd': 30, 'voxel_size': 0.035, 'intensity': 5, 'dbscan_eps': 0.301, 'dbscan_minpoints': 5, 'coeff_vff_repulsive_force': 0.77, 'mode_chk': 1000, 'pwml_chk': 1500, 'pwmr_chk': 1500, 'pwml_auto': 1579, 'pwmr_auto': 1570, 'pwml_sim': None, 'pwmr_sim': None, 'cnt_destination': 0, 'distance': 12.59956446203858, 'waypoint_latitude': 37.63320303358782, 'waypoint_longitude': 127.07780075278947, 'velocity': 0.0, 'heading': 97.1, 'roll': None, 'pitch': 2.4, 'validity': 'A', 'time': '025504.20', 'IP': None, 'date': '090424', 'longitude': 127.07765999, 'latitude': 37.63322219, 'arrived': False, 'flag_autodrive': True}
11:55:04 : {'dest_latitude': [37.633203, 37.633255, 37.633385, 37.633396, 37.633347, 37.633261, 37.633203], 'dest_longitude': [127.077801, 127.078011, 127.077983, 127.077886, 127.077789, 127.077724, 127.077801], 'mode_pc_command': 'AUTO', 'com_status_send': False, 'com_status_recv': False, 'coeff_kf': 2.5, 'coeff_kd': 30, 'voxel_size': 0.035, 'intensity': 5, 'dbscan_eps': 0.301, 'dbscan_minpoints': 5, 'coeff_vff_repulsive_force': 0.77, 'mode_chk': 1000, 'pwml_chk': 1500, 'pwmr_chk': 1500, 'pwml_auto': 1579, 'pwmr_auto': 1570, 'pwml_sim': None, 'pwmr_sim': None, 'cnt_destination': 0, 'distance': 12.59926108464523, 'waypoint_latitude': 37.633203033640406, 'waypoint_longitude': 127.07780075280701, 'velocity': 0.0, 'heading': 97.1, 'roll': None, 'pitch': 2.9, 'validity': 'A', 'time': '025504.40', 'IP': None, 'date': '090424', 'longitude': 127.07765994, 'latitude': 37.63322219, 'arrived': False, 'flag_autodrive': True}
11:55:05 : {'dest_latitude': [37.633203, 37.633255, 37.633385, 37.633396, 37.633347, 37.633261, 37.633203], 'dest_longitude': [127.077801, 127.078011, 127.077983, 127.077886, 127.077789, 127.077724, 127.077801], 'mode_pc_command': 'AUTO', 'com_status_send': False, 'com_status_recv': False, 'coeff_kf': 2.5, 'coeff_kd': 30, 'voxel_size': 0.035, 'intensity': 5, 'dbscan_eps': 0.301, 'dbscan_minpoints': 5, 'coeff_vff_repulsive_force': 0.77, 'mode_chk': 1000, 'pwml_chk': 1500, 'pwmr_chk': 1500, 'pwml_auto': 1579, 'pwmr_auto': 1570, 'pwml_sim': None, 'pwmr_sim': None, 'cnt_destination': 0, 'distance': 12.603600469486027, 'waypoint_latitude': 37.633203033640406, 'waypoint_longitude': 127.07780075271936, 'velocity': 0.1, 'heading': 97.2, 'roll': None, 'pitch': 3.2, 'validity': 'A', 'time': '025504.60', 'IP': None, 'date': '090424', 'longitude': 127.07765986, 'latitude': 37.63322223, 'arrived': False, 'flag_autodrive': True}
11:55:05 : {'dest_latitude': [37.633203, 37.633255, 37.633385, 37.633396, 37.633347, 37.633261, 37.633203], 'dest_longitude': [127.077801, 127.078011, 127.077983, 127.077886, 127.077789, 127.077724, 127.077801], 'mode_pc_command': 'AUTO', 'com_status_send': False, 'com_status_recv': False, 'coeff_kf': 2.5, 'coeff_kd': 30, 'voxel_size': 0.035, 'intensity': 5, 'dbscan_eps': 0.301, 'dbscan_minpoints': 5, 'coeff_vff_repulsive_force': 0.77, 'mode_chk': 1000, 'pwml_chk': 1500, 'pwmr_chk': 1500, 'pwml_auto': 1578, 'pwmr_auto': 1571, 'pwml_sim': None, 'pwmr_sim': None, 'cnt_destination': 0, 'distance': 12.611296950480359, 'waypoint_latitude': 37.63320303371053, 'waypoint_longitude': 127.07780075257911, 'velocity': 0.1, 'heading': 97.2, 'roll': None, 'pitch': 2.6, 'validity': 'A', 'time': '025505.00', 'IP': None, 'date': '090424', 'longitude': 127.07765985, 'latitude': 37.63322218, 'arrived': False, 'flag_autodrive': True}
11:55:05 : {'dest_latitude': [37.633203, 37.633255, 37.633385, 37.633396, 37.633347, 37.633261, 37.633203], 'dest_longitude': [127.077801, 127.078011, 127.077983, 127.077886, 127.077789, 127.077724, 127.077801], 'mode_pc_command': 'AUTO', 'com_status_send': False, 'com_status_recv': False, 'coeff_kf': 2.5, 'coeff_kd': 30, 'voxel_size': 0.035, 'intensity': 5, 'dbscan_eps': 0.301, 'dbscan_minpoints': 5, 'coeff_vff_repulsive_force': 0.77, 'mode_chk': 1000, 'pwml_chk': 1500, 'pwmr_chk': 1500, 'pwml_auto': 1578, 'pwmr_auto': 1571, 'pwml_sim': None, 'pwmr_sim': None, 'cnt_destination': 0, 'distance': 12.611223381580118, 'waypoint_latitude': 37.63320303362288, 'waypoint_longitude': 127.07780075256159, 'velocity': 0.1, 'heading': 97.3, 'roll': None, 'pitch': 2.8, 'validity': 'A', 'time': '025505.20', 'IP': None, 'date': '090424', 'longitude': 127.07765982, 'latitude': 37.63322219, 'arrived': False, 'flag_autodrive': True}
11:55:05 : {'dest_latitude': [37.633203, 37.633255, 37.633385, 37.633396, 37.633347, 37.633261, 37.633203], 'dest_longitude': [127.077801, 127.078011, 127.077983, 127.077886, 127.077789, 127.077724, 127.077801], 'mode_pc_command': 'AUTO', 'com_status_send': False, 'com_status_recv': False, 'coeff_kf': 2.5, 'coeff_kd': 30, 'voxel_size': 0.035, 'intensity': 5, 'dbscan_eps': 0.301, 'dbscan_minpoints': 5, 'coeff_vff_repulsive_force': 0.77, 'mode_chk': 1000, 'pwml_chk': 1500, 'pwmr_chk': 1500, 'pwml_auto': 1577, 'pwmr_auto': 1572, 'pwml_sim': None, 'pwmr_sim': None, 'cnt_destination': 0, 'distance': 12.614015174224653, 'waypoint_latitude': 37.633203033640406, 'waypoint_longitude': 127.07780075250899, 'velocity': 0.0, 'heading': 97.4, 'roll': None, 'pitch': 3.0, 'validity': 'A', 'time': '025505.40', 'IP': None, 'date': '090424', 'longitude': 127.07765986, 'latitude': 37.6332222, 'arrived': False, 'flag_autodrive': True}
11:55:05 : {'dest_latitude': [37.633203, 37.633255, 37.633385, 37.633396, 37.633347, 37.633261, 37.633203], 'dest_longitude': [127.077801, 127.078011, 127.077983, 127.077886, 127.077789, 127.077724, 127.077801], 'mode_pc_command': 'AUTO', 'com_status_send': False, 'com_status_recv': False, 'coeff_kf': 2.5, 'coeff_kd': 30, 'voxel_size': 0.035, 'intensity': 5, 'dbscan_eps': 0.301, 'dbscan_minpoints': 5, 'coeff_vff_repulsive_force': 0.77, 'mode_chk': 1000, 'pwml_chk': 1500, 'pwmr_chk': 1500, 'pwml_auto': 1577, 'pwmr_auto': 1572, 'pwml_sim': None, 'pwmr_sim': None, 'cnt_destination': 0, 'distance': 12.610731778120442, 'waypoint_latitude': 37.633203033657935, 'waypoint_longitude': 127.07780075257911, 'velocity': 0.1, 'heading': 97.5, 'roll': None, 'pitch': 2.8, 'validity': 'A', 'time': '025505.60', 'IP': None, 'date': '090424', 'longitude': 127.07765989, 'latitude': 37.63322217, 'arrived': False, 'flag_autodrive': True}
11:55:06 : {'dest_latitude': [37.633203, 37.633255, 37.633385, 37.633396, 37.633347, 37.633261, 37.633203], 'dest_longitude': [127.077801, 127.078011, 127.077983, 127.077886, 127.077789, 127.077724, 127.077801], 'mode_pc_command': 'AUTO', 'com_status_send': False, 'com_status_recv': False, 'coeff_kf': 2.5, 'coeff_kd': 30, 'voxel_size': 0.035, 'intensity': 5, 'dbscan_eps': 0.301, 'dbscan_minpoints': 5, 'coeff_vff_repulsive_force': 0.77, 'mode_chk': 1000, 'pwml_chk': 1500, 'pwmr_chk': 1500, 'pwml_auto': 1576, 'pwmr_auto': 1573, 'pwml_sim': None, 'pwmr_sim': None, 'cnt_destination': 0, 'distance': 12.607563705945765, 'waypoint_latitude': 37.63320303360535, 'waypoint_longitude': 127.0778007526317, 'velocity': 0.0, 'heading': 97.6, 'roll': None, 'pitch': 2.8, 'validity': 'A', 'time': '025505.80', 'IP': None, 'date': '090424', 'longitude': 127.07765989, 'latitude': 37.63322213, 'arrived': False, 'flag_autodrive': True}
11:55:06 : {'dest_latitude': [37.633203, 37.633255, 37.633385, 37.633396, 37.633347, 37.633261, 37.633203], 'dest_longitude': [127.077801, 127.078011, 127.077983, 127.077886, 127.077789, 127.077724, 127.077801], 'mode_pc_command': 'AUTO', 'com_status_send': False, 'com_status_recv': False, 'coeff_kf': 2.5, 'coeff_kd': 30, 'voxel_size': 0.035, 'intensity': 5, 'dbscan_eps': 0.301, 'dbscan_minpoints': 5, 'coeff_vff_repulsive_force': 0.77, 'mode_chk': 1000, 'pwml_chk': 1500, 'pwmr_chk': 1500, 'pwml_auto': 1575, 'pwmr_auto': 1574, 'pwml_sim': None, 'pwmr_sim': None, 'cnt_destination': 0, 'distance': 12.606812464010092, 'waypoint_latitude': 37.633203033535224, 'waypoint_longitude': 127.0778007526317, 'velocity': 0.1, 'heading': 97.7, 'roll': None, 'pitch': 2.8, 'validity': 'A', 'time': '025506.00', 'IP': None, 'date': '090424', 'longitude': 127.07765989, 'latitude': 37.63322213, 'arrived': False, 'flag_autodrive': True}
11:55:06 : {'dest_latitude': [37.633203, 37.633255, 37.633385, 37.633396, 37.633347, 37.633261, 37.633203], 'dest_longitude': [127.077801, 127.078011, 127.077983, 127.077886, 127.077789, 127.077724, 127.077801], 'mode_pc_command': 'AUTO', 'com_status_send': False, 'com_status_recv': False, 'coeff_kf': 2.5, 'coeff_kd': 30, 'voxel_size': 0.035, 'intensity': 5, 'dbscan_eps': 0.301, 'dbscan_minpoints': 5, 'coeff_vff_repulsive_force': 0.77, 'mode_chk': 1000, 'pwml_chk': 1500, 'pwmr_chk': 1500, 'pwml_auto': 1575, 'pwmr_auto': 1574, 'pwml_sim': None, 'pwmr_sim': None, 'cnt_destination': 0, 'distance': 12.606812464010092, 'waypoint_latitude': 37.633203033535224, 'waypoint_longitude': 127.0778007526317, 'velocity': 0.0, 'heading': 97.9, 'roll': None, 'pitch': 2.9, 'validity': 'A', 'time': '025506.20', 'IP': None, 'date': '090424', 'longitude': 127.07765991, 'latitude': 37.63322213, 'arrived': False, 'flag_autodrive': True}
11:55:06 : {'dest_latitude': [37.633203, 37.633255, 37.633385, 37.633396, 37.633347, 37.633261, 37.633203], 'dest_longitude': [127.077801, 127.078011, 127.077983, 127.077886, 127.077789, 127.077724, 127.077801], 'mode_pc_command': 'AUTO', 'com_status_send': False, 'com_status_recv': False, 'coeff_kf': 2.5, 'coeff_kd': 30, 'voxel_size': 0.035, 'intensity': 5, 'dbscan_eps': 0.301, 'dbscan_minpoints': 5, 'coeff_vff_repulsive_force': 0.77, 'mode_chk': 1000, 'pwml_chk': 1500, 'pwmr_chk': 1500, 'pwml_auto': 1573, 'pwmr_auto': 1576, 'pwml_sim': None, 'pwmr_sim': None, 'cnt_destination': 0, 'distance': 12.605076532779611, 'waypoint_latitude': 37.633203033535224, 'waypoint_longitude': 127.07780075266676, 'velocity': 0.0, 'heading': 98.0, 'roll': None, 'pitch': 2.8, 'validity': 'A', 'time': '025506.40', 'IP': None, 'date': '090424', 'longitude': 127.07765995, 'latitude': 37.63322211, 'arrived': False, 'flag_autodrive': True}
11:55:07 : {'dest_latitude': [37.633203, 37.633255, 37.633385, 37.633396, 37.633347, 37.633261, 37.633203], 'dest_longitude': [127.077801, 127.078011, 127.077983, 127.077886, 127.077789, 127.077724, 127.077801], 'mode_pc_command': 'AUTO', 'com_status_send': False, 'com_status_recv': False, 'coeff_kf': 2.5, 'coeff_kd': 30, 'voxel_size': 0.035, 'intensity': 5, 'dbscan_eps': 0.301, 'dbscan_minpoints': 5, 'coeff_vff_repulsive_force': 0.77, 'mode_chk': 1000, 'pwml_chk': 1500, 'pwmr_chk': 1500, 'pwml_auto': 1573, 'pwmr_auto': 1576, 'pwml_sim': None, 'pwmr_sim': None, 'cnt_destination': 0, 'distance': 12.601229484858253, 'waypoint_latitude': 37.633203033500166, 'waypoint_longitude': 127.07780075273689, 'velocity': 0.0, 'heading': 98.0, 'roll': None, 'pitch': 2.8, 'validity': 'A', 'time': '025506.40', 'IP': None, 'date': '090424', 'longitude': 127.07765995, 'latitude': 37.63322211, 'arrived': False, 'flag_autodrive': True}
11:55:07 : {'dest_latitude': [37.633203, 37.633255, 37.633385, 37.633396, 37.633347, 37.633261, 37.633203], 'dest_longitude': [127.077801, 127.078011, 127.077983, 127.077886, 127.077789, 127.077724, 127.077801], 'mode_pc_command': 'AUTO', 'com_status_send': False, 'com_status_recv': False, 'coeff_kf': 2.5, 'coeff_kd': 30, 'voxel_size': 0.035, 'intensity': 5, 'dbscan_eps': 0.301, 'dbscan_minpoints': 5, 'coeff_vff_repulsive_force': 0.77, 'mode_chk': 1000, 'pwml_chk': 1500, 'pwmr_chk': 1500, 'pwml_auto': 1573, 'pwmr_auto': 1576, 'pwml_sim': None, 'pwmr_sim': None, 'cnt_destination': 0, 'distance': 12.601229484858253, 'waypoint_latitude': 37.633203033500166, 'waypoint_longitude': 127.07780075273689, 'velocity': 0.0, 'heading': 98.3, 'roll': None, 'pitch': 2.9, 'validity': 'A', 'time': '025506.80', 'IP': None, 'date': '090424', 'longitude': 127.07765993, 'latitude': 37.63322211, 'arrived': False, 'flag_autodrive': True}
11:55:07 : {'dest_latitude': [37.633203, 37.633255, 37.633385, 37.633396, 37.633347, 37.633261, 37.633203], 'dest_longitude': [127.077801, 127.078011, 127.077983, 127.077886, 127.077789, 127.077724, 127.077801], 'mode_pc_command': 'AUTO', 'com_status_send': False, 'com_status_recv': False, 'coeff_kf': 2.5, 'coeff_kd': 30, 'voxel_size': 0.035, 'intensity': 5, 'dbscan_eps': 0.301, 'dbscan_minpoints': 5, 'coeff_vff_repulsive_force': 0.77, 'mode_chk': 1000, 'pwml_chk': 1500, 'pwmr_chk': 1500, 'pwml_auto': 1571, 'pwmr_auto': 1578, 'pwml_sim': None, 'pwmr_sim': None, 'cnt_destination': 0, 'distance': 12.602965453751091, 'waypoint_latitude': 37.633203033500166, 'waypoint_longitude': 127.07780075270182, 'velocity': 0.0, 'heading': 98.3, 'roll': None, 'pitch': 2.8, 'validity': 'A', 'time': '025507.00', 'IP': None, 'date': '090424', 'longitude': 127.0776599, 'latitude': 37.6332221, 'arrived': False, 'flag_autodrive': True}
11:55:07 : {'dest_latitude': [37.633203, 37.633255, 37.633385, 37.633396, 37.633347, 37.633261, 37.633203], 'dest_longitude': [127.077801, 127.078011, 127.077983, 127.077886, 127.077789, 127.077724, 127.077801], 'mode_pc_command': 'AUTO', 'com_status_send': False, 'com_status_recv': False, 'coeff_kf': 2.5, 'coeff_kd': 30, 'voxel_size': 0.035, 'intensity': 5, 'dbscan_eps': 0.301, 'dbscan_minpoints': 5, 'coeff_vff_repulsive_force': 0.77, 'mode_chk': 1000, 'pwml_chk': 1500, 'pwmr_chk': 1500, 'pwml_auto': 1571, 'pwmr_auto': 1578, 'pwml_sim': None, 'pwmr_sim': None, 'cnt_destination': 0, 'distance': 12.60538202781192, 'waypoint_latitude': 37.63320303348264, 'waypoint_longitude': 127.07780075264924, 'velocity': 0.0, 'heading': 98.5, 'roll': None, 'pitch': 2.7, 'validity': 'A', 'time': '025507.20', 'IP': None, 'date': '090424', 'longitude': 127.07765992, 'latitude': 37.63322211, 'arrived': False, 'flag_autodrive': True}
11:55:07 : {'dest_latitude': [37.633203, 37.633255, 37.633385, 37.633396, 37.633347, 37.633261, 37.633203], 'dest_longitude': [127.077801, 127.078011, 127.077983, 127.077886, 127.077789, 127.077724, 127.077801], 'mode_pc_command': 'AUTO', 'com_status_send': False, 'com_status_recv': False, 'coeff_kf': 2.5, 'coeff_kd': 30, 'voxel_size': 0.035, 'intensity': 5, 'dbscan_eps': 0.301, 'dbscan_minpoints': 5, 'coeff_vff_repulsive_force': 0.77, 'mode_chk': 1000, 'pwml_chk': 1500, 'pwmr_chk': 1500, 'pwml_auto': 1569, 'pwmr_auto': 1580, 'pwml_sim': None, 'pwmr_sim': None, 'cnt_destination': 0, 'distance': 12.603833440821399, 'waypoint_latitude': 37.633203033500166, 'waypoint_longitude': 127.0778007526843, 'velocity': 0.0, 'heading': 98.6, 'roll': None, 'pitch': 2.8, 'validity': 'A', 'time': '025507.40', 'IP': None, 'date': '090424', 'longitude': 127.07765988, 'latitude': 37.63322208, 'arrived': False, 'flag_autodrive': True}
11:55:08 : {'dest_latitude': [37.633203, 37.633255, 37.633385, 37.633396, 37.633347, 37.633261, 37.633203], 'dest_longitude': [127.077801, 127.078011, 127.077983, 127.077886, 127.077789, 127.077724, 127.077801], 'mode_pc_command': 'AUTO', 'com_status_send': False, 'com_status_recv': False, 'coeff_kf': 2.5, 'coeff_kd': 30, 'voxel_size': 0.035, 'intensity': 5, 'dbscan_eps': 0.301, 'dbscan_minpoints': 5, 'coeff_vff_repulsive_force': 0.77, 'mode_chk': 1000, 'pwml_chk': 1500, 'pwmr_chk': 1500, 'pwml_auto': 1569, 'pwmr_auto': 1580, 'pwml_sim': None, 'pwmr_sim': None, 'cnt_destination': 0, 'distance': 12.60674358839075, 'waypoint_latitude': 37.63320303344757, 'waypoint_longitude': 127.07780075261418, 'velocity': 0.0, 'heading': 98.6, 'roll': None, 'pitch': 2.7, 'validity': 'A', 'time': '025507.60', 'IP': None, 'date': '090424', 'longitude': 127.07765988, 'latitude': 37.63322205, 'arrived': False, 'flag_autodrive': True}
11:55:08 : {'dest_latitude': [37.633203, 37.633255, 37.633385, 37.633396, 37.633347, 37.633261, 37.633203], 'dest_longitude': [127.077801, 127.078011, 127.077983, 127.077886, 127.077789, 127.077724, 127.077801], 'mode_pc_command': 'AUTO', 'com_status_send': False, 'com_status_recv': False, 'coeff_kf': 2.5, 'coeff_kd': 30, 'voxel_size': 0.035, 'intensity': 5, 'dbscan_eps': 0.301, 'dbscan_minpoints': 5, 'coeff_vff_repulsive_force': 0.77, 'mode_chk': 1000, 'pwml_chk': 1500, 'pwmr_chk': 1500, 'pwml_auto': 1568, 'pwmr_auto': 1581, 'pwml_sim': None, 'pwmr_sim': None, 'cnt_destination': 0, 'distance': 12.60618262568168, 'waypoint_latitude': 37.633203033394985, 'waypoint_longitude': 127.07780075261418, 'velocity': 0.0, 'heading': 98.6, 'roll': None, 'pitch': 2.8, 'validity': 'A', 'time': '025507.80', 'IP': None, 'date': '090424', 'longitude': 127.0776599, 'latitude': 37.63322202, 'arrived': False, 'flag_autodrive': True}
11:55:08 : {'dest_latitude': [37.633203, 37.633255, 37.633385, 37.633396, 37.633347, 37.633261, 37.633203], 'dest_longitude': [127.077801, 127.078011, 127.077983, 127.077886, 127.077789, 127.077724, 127.077801], 'mode_pc_command': 'AUTO', 'com_status_send': False, 'com_status_recv': False, 'coeff_kf': 2.5, 'coeff_kd': 30, 'voxel_size': 0.035, 'intensity': 5, 'dbscan_eps': 0.301, 'dbscan_minpoints': 5, 'coeff_vff_repulsive_force': 0.77, 'mode_chk': 1000, 'pwml_chk': 1500, 'pwmr_chk': 1500, 'pwml_auto': 1568, 'pwmr_auto': 1581, 'pwml_sim': None, 'pwmr_sim': None, 'cnt_destination': 0, 'distance': 12.603886302491812, 'waypoint_latitude': 37.63320303334239, 'waypoint_longitude': 127.07780075264924, 'velocity': 0.0, 'heading': 98.7, 'roll': None, 'pitch': 2.6, 'validity': 'A', 'time': '025508.00', 'IP': None, 'date': '090424', 'longitude': 127.07765991, 'latitude': 37.633222, 'arrived': False, 'flag_autodrive': True}
11:55:08 : {'dest_latitude': [37.633203, 37.633255, 37.633385, 37.633396, 37.633347, 37.633261, 37.633203], 'dest_longitude': [127.077801, 127.078011, 127.077983, 127.077886, 127.077789, 127.077724, 127.077801], 'mode_pc_command': 'AUTO', 'com_status_send': False, 'com_status_recv': False, 'coeff_kf': 2.5, 'coeff_kd': 30, 'voxel_size': 0.035, 'intensity': 5, 'dbscan_eps': 0.301, 'dbscan_minpoints': 5, 'coeff_vff_repulsive_force': 0.77, 'mode_chk': 1000, 'pwml_chk': 1500, 'pwmr_chk': 1500, 'pwml_auto': 1568, 'pwmr_auto': 1581, 'pwml_sim': None, 'pwmr_sim': None, 'cnt_destination': 0, 'distance': 12.602645192329666, 'waypoint_latitude': 37.63320303330733, 'waypoint_longitude': 127.07780075266676, 'velocity': 0.0, 'heading': 98.8, 'roll': None, 'pitch': 2.9, 'validity': 'A', 'time': '025508.40', 'IP': None, 'date': '090424', 'longitude': 127.07765994, 'latitude': 37.63322196, 'arrived': False, 'flag_autodrive': True}
11:55:08 : {'dest_latitude': [37.633203, 37.633255, 37.633385, 37.633396, 37.633347, 37.633261, 37.633203], 'dest_longitude': [127.077801, 127.078011, 127.077983, 127.077886, 127.077789, 127.077724, 127.077801], 'mode_pc_command': 'AUTO', 'com_status_send': False, 'com_status_recv': False, 'coeff_kf': 2.5, 'coeff_kd': 30, 'voxel_size': 0.035, 'intensity': 5, 'dbscan_eps': 0.301, 'dbscan_minpoints': 5, 'coeff_vff_repulsive_force': 0.77, 'mode_chk': 1000, 'pwml_chk': 1500, 'pwmr_chk': 1500, 'pwml_auto': 1567, 'pwmr_auto': 1582, 'pwml_sim': None, 'pwmr_sim': None, 'cnt_destination': 0, 'distance': 12.599295786658248, 'waypoint_latitude': 37.633203033237216, 'waypoint_longitude': 127.07780075271936, 'velocity': 0.0, 'heading': 98.9, 'roll': None, 'pitch': 2.9, 'validity': 'A', 'time': '025508.60', 'IP': None, 'date': '090424', 'longitude': 127.07765992, 'latitude': 37.63322194, 'arrived': False, 'flag_autodrive': True}
11:55:09 : {'dest_latitude': [37.633203, 37.633255, 37.633385, 37.633396, 37.633347, 37.633261, 37.633203], 'dest_longitude': [127.077801, 127.078011, 127.077983, 127.077886, 127.077789, 127.077724, 127.077801], 'mode_pc_command': 'AUTO', 'com_status_send': False, 'com_status_recv': False, 'coeff_kf': 2.5, 'coeff_kd': 30, 'voxel_size': 0.035, 'intensity': 5, 'dbscan_eps': 0.301, 'dbscan_minpoints': 5, 'coeff_vff_repulsive_force': 0.77, 'mode_chk': 1000, 'pwml_chk': 1500, 'pwmr_chk': 1500, 'pwml_auto': 1566, 'pwmr_auto': 1583, 'pwml_sim': None, 'pwmr_sim': None, 'cnt_destination': 0, 'distance': 12.600660259936102, 'waypoint_latitude': 37.63320303320215, 'waypoint_longitude': 127.0778007526843, 'velocity': 0.0, 'heading': 98.9, 'roll': None, 'pitch': 2.9, 'validity': 'A', 'time': '025508.60', 'IP': None, 'date': '090424', 'longitude': 127.07765992, 'latitude': 37.63322194, 'arrived': False, 'flag_autodrive': True}
11:55:09 : {'dest_latitude': [37.633203, 37.633255, 37.633385, 37.633396, 37.633347, 37.633261, 37.633203], 'dest_longitude': [127.077801, 127.078011, 127.077983, 127.077886, 127.077789, 127.077724, 127.077801], 'mode_pc_command': 'AUTO', 'com_status_send': False, 'com_status_recv': False, 'coeff_kf': 2.5, 'coeff_kd': 30, 'voxel_size': 0.035, 'intensity': 5, 'dbscan_eps': 0.301, 'dbscan_minpoints': 5, 'coeff_vff_repulsive_force': 0.77, 'mode_chk': 1000, 'pwml_chk': 1500, 'pwmr_chk': 1500, 'pwml_auto': 1566, 'pwmr_auto': 1583, 'pwml_sim': None, 'pwmr_sim': None, 'cnt_destination': 0, 'distance': 12.600660259936102, 'waypoint_latitude': 37.63320303320215, 'waypoint_longitude': 127.0778007526843, 'velocity': 0.0, 'heading': 99.0, 'roll': None, 'pitch': 3.0, 'validity': 'A', 'time': '025508.80', 'IP': None, 'date': '090424', 'longitude': 127.07765994, 'latitude': 37.63322192, 'arrived': False, 'flag_autodrive': True}
11:55:09 : {'dest_latitude': [37.633203, 37.633255, 37.633385, 37.633396, 37.633347, 37.633261, 37.633203], 'dest_longitude': [127.077801, 127.078011, 127.077983, 127.077886, 127.077789, 127.077724, 127.077801], 'mode_pc_command': 'AUTO', 'com_status_send': False, 'com_status_recv': False, 'coeff_kf': 2.5, 'coeff_kd': 30, 'voxel_size': 0.035, 'intensity': 5, 'dbscan_eps': 0.301, 'dbscan_minpoints': 5, 'coeff_vff_repulsive_force': 0.77, 'mode_chk': 1000, 'pwml_chk': 1500, 'pwmr_chk': 1500, 'pwml_auto': 1566, 'pwmr_auto': 1583, 'pwml_sim': None, 'pwmr_sim': None, 'cnt_destination': 0, 'distance': 12.598552295558418, 'waypoint_latitude': 37.63320303316709, 'waypoint_longitude': 127.07780075271936, 'velocity': 0.0, 'heading': 99.0, 'roll': None, 'pitch': 3.0, 'validity': 'A', 'time': '025509.00', 'IP': None, 'date': '090424', 'longitude': 127.07765994, 'latitude': 37.63322189, 'arrived': False, 'flag_autodrive': True}
11:55:09 : {'dest_latitude': [37.633203, 37.633255, 37.633385, 37.633396, 37.633347, 37.633261, 37.633203], 'dest_longitude': [127.077801, 127.078011, 127.077983, 127.077886, 127.077789, 127.077724, 127.077801], 'mode_pc_command': 'AUTO', 'com_status_send': False, 'com_status_recv': False, 'coeff_kf': 2.5, 'coeff_kd': 30, 'voxel_size': 0.035, 'intensity': 5, 'dbscan_eps': 0.301, 'dbscan_minpoints': 5, 'coeff_vff_repulsive_force': 0.77, 'mode_chk': 1000, 'pwml_chk': 1500, 'pwmr_chk': 1500, 'pwml_auto': 1565, 'pwmr_auto': 1584, 'pwml_sim': None, 'pwmr_sim': None, 'cnt_destination': 0, 'distance': 12.597995679082668, 'waypoint_latitude': 37.6332030331145, 'waypoint_longitude': 127.07780075271936, 'velocity': 0.0, 'heading': 99.0, 'roll': None, 'pitch': 2.9, 'validity': 'A', 'time': '025509.20', 'IP': None, 'date': '090424', 'longitude': 127.07765994, 'latitude': 37.63322186, 'arrived': False, 'flag_autodrive': True}
11:55:09 : {'dest_latitude': [37.633203, 37.633255, 37.633385, 37.633396, 37.633347, 37.633261, 37.633203], 'dest_longitude': [127.077801, 127.078011, 127.077983, 127.077886, 127.077789, 127.077724, 127.077801], 'mode_pc_command': 'AUTO', 'com_status_send': False, 'com_status_recv': False, 'coeff_kf': 2.5, 'coeff_kd': 30, 'voxel_size': 0.035, 'intensity': 5, 'dbscan_eps': 0.301, 'dbscan_minpoints': 5, 'coeff_vff_repulsive_force': 0.77, 'mode_chk': 1000, 'pwml_chk': 1500, 'pwmr_chk': 1500, 'pwml_auto': 1565, 'pwmr_auto': 1584, 'pwml_sim': None, 'pwmr_sim': None, 'cnt_destination': 0, 'distance': 12.597439921242016, 'waypoint_latitude': 37.63320303306191, 'waypoint_longitude': 127.07780075271936, 'velocity': 0.0, 'heading': 99.1, 'roll': None, 'pitch': 3.1, 'validity': 'A', 'time': '025509.40', 'IP': None, 'date': '090424', 'longitude': 127.07765994, 'latitude': 37.63322183, 'arrived': False, 'flag_autodrive': True}
