$GNRMC,075241.00,A,3737.7555973,N,12704.7384776,E,0.0,,180324,8.8,W,D*1A
$PSSN,HRP,075241.00,180324,191.280,,0.369,1.064,,1.016,17,2,8.837,W*1C
$GNRMC,075241.50,A,3737.7555992,N,12704.7384736,E,0.0,,180324,8.8,W,D*14
$PSSN,HRP,075241.50,180324,191.319,,0.308,1.061,,1.012,17,2,8.837,W*1E
$GNRMC,075242.00,A,3737.7555994,N,12704.7384674,E,0.0,,180324,8.8,W,D*13
$PSSN,HRP,075242.00,180324,191.319,,0.290,1.060,,1.010,17,2,8.837,W*1B
$GNRMC,075242.50,A,3737.7555989,N,12704.7384735,E,0.0,,180324,8.8,W,D*1E
$PSSN,HRP,075242.50,180324,191.361,,0.316,1.058,,1.007,17,2,8.837,W*13
$GNRMC,075243.00,A,3737.7555976,N,12704.7384814,E,0.0,,180324,8.8,W,D*16
$PSSN,HRP,075243.00,180324,191.309,,0.388,1.058,,1.008,17,2,8.837,W*11
$GNRMC,075243.50,A,3737.7555983,N,12704.7384755,E,0.0,,180324,8.8,W,D*13
$PSSN,HRP,075243.50,180324,191.395,,0.366,1.057,,1.008,17,2,8.837,W*1E
$GNRMC,075244.00,A,3737.7555983,N,12704.7384743,E,0.0,,180324,8.8,W,D*16
$PSSN,HRP,075244.00,180324,191.489,,0.471,1.057,,1.008,17,2,8.837,W*17
$GNRMC,075244.50,A,3737.7555988,N,12704.7384721,E,0.0,,180324,8.8,W,D*1C
$PSSN,HRP,075244.50,180324,191.469,,0.403,1.061,,1.009,17,2,8.837,W*1D
$GNRMC,075245.00,A,3737.7555993,N,12704.7384714,E,0.0,,180324,8.8,W,D*14
$PSSN,HRP,075245.00,180324,191.356,,0.359,1.067,,1.012,17,2,8.837,W*16
$GNRMC,075245.50,A,3737.7555965,N,12704.7384732,E,0.0,,180324,8.8,W,D*1C
$PSSN,HRP,075245.50,180324,191.309,,0.383,1.072,,1.016,18,2,8.837,W*11
$GNRMC,075246.00,A,3737.7555943,N,12704.7384788,E,0.0,,180324,8.8,W,D*1F
$PSSN,HRP,075246.00,180324,191.485,,0.484,1.069,,1.015,18,2,8.837,W*1D
$GNRMC,075246.50,A,3737.7555954,N,12704.7384824,E,0.0,,180324,8.8,W,D*15
$PSSN,HRP,075246.50,180324,191.596,,0.605,1.065,,1.014,17,2,8.837,W*12
$GNRMC,075247.00,A,3737.7555974,N,12704.7384844,E,0.0,,180324,8.8,W,D*15
$PSSN,HRP,075247.00,180324,191.631,,0.681,1.064,,1.011,17,2,8.837,W*10
$GNRMC,075247.50,A,3737.7555980,N,12704.7384788,E,0.0,,180324,8.8,W,D*14
$PSSN,HRP,075247.50,180324,191.686,,0.591,1.064,,1.012,18,2,8.837,W*17
$GNRMC,075248.00,A,3737.7555984,N,12704.7384654,E,0.0,,180324,8.8,W,D*1A
$PSSN,HRP,075248.00,180324,191.447,,0.445,1.062,,1.011,18,2,8.837,W*1F
$GNRMC,075248.50,A,3737.7556003,N,12704.7384681,E,0.0,,180324,8.8,W,D*12
$PSSN,HRP,075248.50,180324,191.379,,0.492,1.049,,1.009,18,2,8.837,W*1A
$GNRMC,075249.00,A,3737.7556024,N,12704.7384733,E,0.0,,180324,8.8,W,D*1B
$PSSN,HRP,075249.00,180324,191.355,,0.381,1.013,,1.006,18,2,8.837,W*15
$GNRMC,075249.50,A,3737.7556034,N,12704.7384707,E,0.0,,180324,8.8,W,D*18
$PSSN,HRP,075249.50,180324,191.033,,0.278,1.010,,1.004,18,2,8.837,W*15
$GNRMC,075250.00,A,3737.7556028,N,12704.7384671,E,0.0,,180324,8.8,W,D*18
$PSSN,HRP,075250.00,180324,191.115,,0.348,1.008,,1.003,18,2,8.837,W*11
$GNRMC,075250.50,A,3737.7556028,N,12704.7384689,E,0.0,,180324,8.8,W,D*1A
$PSSN,HRP,075250.50,180324,191.017,,0.084,1.036,,1.010,17,2,8.837,W*14
$GNRMC,075251.00,A,3737.7556026,N,12704.7384693,E,0.0,,180324,8.8,W,D*1B
$PSSN,HRP,075251.00,180324,190.960,,0.057,1.073,,1.023,17,2,8.837,W*17
$GNRMC,075251.50,A,3737.7556022,N,12704.7384661,E,0.0,,180324,8.8,W,D*17
$PSSN,HRP,075251.50,180324,191.070,,0.129,1.098,,1.029,17,2,8.837,W*1C
$GNRMC,075252.00,A,3737.7556023,N,12704.7384631,E,0.0,,180324,8.8,W,D*15
$PSSN,HRP,075252.00,180324,191.037,,0.198,1.066,,1.015,17,2,8.837,W*1D
$GNRMC,075252.50,A,3737.7556004,N,12704.7384712,E,0.0,,180324,8.8,W,D*15
$PSSN,HRP,075252.50,180324,191.136,,0.253,1.027,,1.011,18,2,8.837,W*12
$GNRMC,075253.00,A,3737.7555989,N,12704.7384797,E,0.0,,180324,8.8,W,D*13
$PSSN,HRP,075253.00,180324,191.237,,0.270,1.006,,1.007,18,2,8.837,W*11
$GNRMC,075253.50,A,3737.7556008,N,12704.7384745,E,0.0,,180324,8.8,W,D*1A
$PSSN,HRP,075253.50,180324,191.035,,0.338,1.003,,1.001,18,2,8.837,W*1A
$GNRMC,075254.00,A,3737.7556024,N,12704.7384727,E,0.0,,180324,8.8,W,D*12
$PSSN,HRP,075254.00,180324,191.032,,0.226,1.002,,0.998,18,2,8.837,W*18
$GNRMC,075254.50,A,3737.7556017,N,12704.7384650,E,0.0,,180324,8.8,W,D*16
$PSSN,HRP,075254.50,180324,191.065,,0.339,1.003,,1.001,18,2,8.837,W*19
$GNRMC,075255.00,A,3737.7556016,N,12704.7384644,E,0.0,,180324,8.8,W,D*16
$PSSN,HRP,075255.00,180324,191.237,,0.521,1.007,,1.007,18,2,8.837,W*15
$GNRMC,075255.50,A,3737.7556017,N,12704.7384652,E,0.0,,180324,8.8,W,D*15
$PSSN,HRP,075255.50,180324,191.195,,0.365,1.012,,1.011,19,2,8.837,W*1F
$GNRMC,075256.00,A,3737.7556009,N,12704.7384690,E,0.0,,180324,8.8,W,D*12
$PSSN,HRP,075256.00,180324,191.201,,0.372,1.013,,1.009,19,2,8.837,W*19
$GNRMC,075256.50,A,3737.7556004,N,12704.7384739,E,0.0,,180324,8.8,W,D*18
$PSSN,HRP,075256.50,180324,191.035,,0.156,1.017,,1.011,18,2,8.837,W*11
$GNRMC,075257.00,A,3737.7556006,N,12704.7384780,E,0.0,,180324,8.8,W,D*1C
$PSSN,HRP,075257.00,180324,191.017,,0.119,1.013,,1.014,18,2,8.837,W*1F
$GNRMC,075257.50,A,3737.7555996,N,12704.7384709,E,0.0,,180324,8.8,W,D*1B
$PSSN,HRP,075257.50,180324,190.904,,0.318,1.038,,1.020,17,2,8.837,W*12
$GNRMC,075258.00,A,3737.7555985,N,12704.7384708,E,0.0,,180324,8.8,W,D*12
$PSSN,HRP,075258.00,180324,191.579,,0.259,1.073,,1.030,17,2,8.837,W*15
$GNRMC,075258.50,A,3737.7555996,N,12704.7384667,E,0.0,,180324,8.8,W,D*1D
$PSSN,HRP,075258.50,180324,190.997,,0.342,1.091,,1.030,17,2,8.837,W*1A
$GNRMC,075259.00,A,3737.7556005,N,12704.7384625,E,0.0,,180324,8.8,W,D*1F
$PSSN,HRP,075259.00,180324,190.690,,-0.031,1.062,,1.021,17,2,8.837,W*30
$GNRMC,075259.50,A,3737.7556014,N,12704.7384603,E,0.0,,180324,8.8,W,D*1E
$PSSN,HRP,075259.50,180324,190.959,,0.207,1.062,,1.024,18,2,8.837,W*1F
$GNRMC,075300.00,A,3737.7556026,N,12704.7384595,E,0.0,,180324,8.8,W,D*1B
$PSSN,HRP,075300.00,180324,191.015,,0.458,1.066,,1.030,18,2,8.837,W*1A
$GNRMC,075300.50,A,3737.7556039,N,12704.7384594,E,0.0,,180324,8.8,W,D*11
$PSSN,HRP,075300.50,180324,190.996,,0.334,1.069,,1.031,16,2,8.837,W*11
$GNRMC,075301.00,A,3737.7556007,N,12704.7384468,E,0.1,,180324,8.8,W,D*1B
$PSSN,HRP,075301.00,180324,191.156,,-0.435,1.079,,1.027,14,2,8.837,W*3F
$GNRMC,075301.50,A,3737.7556023,N,12704.7384816,E,0.1,,180324,8.8,W,D*1D
$PSSN,HRP,075301.50,180324,190.661,,0.322,1.057,,1.006,16,2,8.837,W*19
$GNRMC,075302.00,A,3737.7555987,N,12704.7384608,E,0.2,,180324,8.8,W,D*1D
$PSSN,HRP,075302.00,180324,190.115,,-0.373,1.061,,1.016,15,2,8.837,W*35
$GNRMC,075302.50,A,3737.7556016,N,12704.7384961,E,0.4,,180324,8.8,W,D*1C
$PSSN,HRP,075302.50,180324,190.163,,-12.888,1.100,,1.008,17,2,8.837,W*06
$GNRMC,075303.00,A,3737.7556305,N,12704.7384706,E,0.3,,180324,8.8,W,D*11
$PSSN,HRP,075303.00,180324,189.662,,-3.517,1.177,,1.087,17,2,8.837,W*30
$GNRMC,075303.50,A,3737.7556456,N,12704.7384556,E,0.1,,180324,8.8,W,D*10
$PSSN,HRP,075303.50,180324,188.602,,-0.625,1.380,,1.403,16,2,8.837,W*30
$GNRMC,075304.00,A,3737.7556369,N,12704.7384574,E,0.2,,180324,8.8,W,D*1A
$PSSN,HRP,075304.00,180324,188.583,,-4.335,1.745,,1.797,16,2,8.837,W*3B
$GNRMC,075304.50,A,3737.7555894,N,12704.7384952,E,0.5,168.5,180324,8.8,W,D*3E
$PSSN,HRP,075304.50,180324,187.759,,-21.135,2.025,,1.934,15,2,8.837,W*07
$GNRMC,075305.00,A,3737.7556220,N,12704.7384742,E,0.7,,180324,8.8,W,D*15
$PSSN,HRP,075305.00,180324,187.888,,-12.037,1.780,,1.801,15,2,8.837,W*0F
$GNRMC,075305.50,A,3737.7556534,N,12704.7384221,E,0.1,,180324,8.8,W,D*14
$PSSN,HRP,075305.50,180324,187.636,,-1.624,1.630,,1.742,15,2,8.837,W*35
$GNRMC,075306.00,A,3737.7556537,N,12704.7384282,E,0.0,,180324,8.8,W,D*19
$PSSN,HRP,075306.00,180324,188.491,,-0.633,1.709,,1.789,15,2,8.837,W*38
$GNRMC,075306.50,A,3737.7556004,N,12704.7384721,E,0.8,172.0,180324,8.8,W,D*37
$PSSN,HRP,075306.50,180324,187.647,,-18.604,1.919,,1.797,15,2,8.837,W*06
$GNRMC,075307.00,A,3737.7556143,N,12704.7384676,E,0.7,,180324,8.8,W,D*17
$PSSN,HRP,075307.00,180324,187.116,,-15.147,1.733,,1.721,15,2,8.837,W*07
$GNRMC,075307.50,A,3737.7556529,N,12704.7384216,E,0.1,,180324,8.8,W,D*1E
$PSSN,HRP,075307.50,180324,187.397,,-1.289,1.660,,1.747,15,2,8.837,W*3A
$GNRMC,075308.00,A,3737.7556539,N,12704.7384250,E,0.0,,180324,8.8,W,D*16
$PSSN,HRP,075308.00,180324,188.115,,0.035,1.695,,1.775,15,2,8.837,W*15
$GNRMC,075308.50,A,3737.7556191,N,12704.7384729,E,0.6,,180324,8.8,W,D*18
$PSSN,HRP,075308.50,180324,187.828,,-12.874,1.919,,1.879,16,2,8.837,W*00
$GNRMC,075309.00,A,3737.7555987,N,12704.7384803,E,0.6,,180324,8.8,W,D*17
$PSSN,HRP,075309.00,180324,188.187,,-17.814,1.712,,1.706,15,2,8.837,W*05
$GNRMC,075309.50,A,3737.7556487,N,12704.7384117,E,0.1,,180324,8.8,W,D*17
$PSSN,HRP,075309.50,180324,187.987,,-1.007,1.628,,1.739,19,2,8.837,W*32
$GNRMC,075310.00,A,3737.7556514,N,12704.7384144,E,0.0,,180324,8.8,W,D*16
$PSSN,HRP,075310.00,180324,188.556,,0.780,1.699,,1.803,19,2,8.837,W*18
$GNRMC,075310.50,A,3737.7556137,N,12704.7384704,E,0.5,,180324,8.8,W,D*11
$PSSN,HRP,075310.50,180324,188.563,,-14.134,1.846,,1.844,18,2,8.837,W*04
$GNRMC,075311.00,A,3737.7556177,N,12704.7384730,E,0.6,,180324,8.8,W,D*15
$PSSN,HRP,075311.00,180324,188.304,,-13.606,1.338,,1.386,18,2,8.837,W*01
$GNRMC,075311.50,A,3737.7556519,N,12704.7384208,E,0.1,,180324,8.8,W,D*15
$PSSN,HRP,075311.50,180324,189.113,,-0.233,1.191,,1.309,18,2,8.837,W*37
$GNRMC,075312.00,A,3737.7556543,N,12704.7384230,E,0.0,,180324,8.8,W,D*16
$PSSN,HRP,075312.00,180324,189.914,,0.973,1.146,,1.293,18,2,8.837,W*14
$GNRMC,075312.50,A,3737.7556071,N,12704.7384659,E,0.5,168.3,180324,8.8,W,D*3B
$PSSN,HRP,075312.50,180324,189.208,,-15.859,1.393,,1.398,20,2,8.837,W*0C
$GNRMC,075313.00,A,3737.7556226,N,12704.7384561,E,0.6,,180324,8.8,W,D*16
$PSSN,HRP,075313.00,180324,188.010,,-10.993,1.344,,1.339,20,2,8.837,W*01
$GNRMC,075313.50,A,3737.7556506,N,12704.7384394,E,0.0,,180324,8.8,W,D*1C
$PSSN,HRP,075313.50,180324,188.739,,-0.434,1.126,,1.233,18,2,8.837,W*3F
$GNRMC,075314.00,A,3737.7556542,N,12704.7384406,E,0.0,,180324,8.8,W,D*12
$PSSN,HRP,075314.00,180324,189.100,,0.302,1.110,,1.244,18,2,8.837,W*1A
$GNRMC,075314.50,A,3737.7556131,N,12704.7384650,E,0.4,171.9,180324,8.8,W,D*32
$PSSN,HRP,075314.50,180324,188.817,,-15.110,1.366,,1.369,19,2,8.837,W*05
$GNRMC,075315.00,A,3737.7556262,N,12704.7384418,E,0.8,,180324,8.8,W,D*11
$PSSN,HRP,075315.00,180324,187.802,,-10.752,1.348,,1.332,19,2,8.837,W*0D
$GNRMC,075315.50,A,3737.7556559,N,12704.7384403,E,0.1,,180324,8.8,W,D*18
$PSSN,HRP,075315.50,180324,188.537,,0.017,1.121,,1.240,18,2,8.837,W*1E
$GNRMC,075316.00,A,3737.7556529,N,12704.7384438,E,0.1,,180324,8.8,W,D*11
$PSSN,HRP,075316.00,180324,188.896,,-0.475,1.134,,1.297,18,2,8.837,W*3D
$GNRMC,075316.50,A,3737.7556028,N,12704.7384716,E,0.5,171.8,180324,8.8,W,D*3A
$PSSN,HRP,075316.50,180324,188.486,,-18.661,1.361,,1.389,20,2,8.837,W*0C
$GNRMC,075317.00,A,3737.7556326,N,12704.7384454,E,0.5,,180324,8.8,W,D*17
$PSSN,HRP,075317.00,180324,187.924,,-7.888,1.311,,1.338,20,2,8.837,W*38
$GNRMC,075317.50,A,3737.7556516,N,12704.7384673,E,0.1,,180324,8.8,W,D*14
$PSSN,HRP,075317.50,180324,188.612,,-0.365,1.107,,1.177,17,2,8.837,W*3F
$GNRMC,075318.00,A,3737.7556420,N,12704.7384611,E,0.2,,180324,8.8,W,D*1D
$PSSN,HRP,075318.00,180324,188.487,,-3.988,1.193,,1.202,17,2,8.837,W*3D
$GNRMC,075318.50,A,3737.7556066,N,12704.7384806,E,0.1,163.6,180324,8.8,W,D*39
$PSSN,HRP,075318.50,180324,189.085,,-18.220,1.167,,1.147,20,2,8.837,W*01
$GNRMC,075319.00,A,3737.7556467,N,12704.7384576,E,0.2,,180324,8.8,W,D*1D
$PSSN,HRP,075319.00,180324,188.918,,-4.911,1.237,,1.203,20,2,8.837,W*38
$GNRMC,075319.50,A,3737.7556582,N,12704.7384705,E,0.0,,180324,8.8,W,D*16
$PSSN,HRP,075319.50,180324,188.322,,-0.216,1.108,,1.136,18,2,8.837,W*37
$GNRMC,075320.00,A,3737.7556411,N,12704.7384690,E,0.4,,180324,8.8,W,D*1B
$PSSN,HRP,075320.00,180324,188.713,,-6.806,1.300,,1.279,17,2,8.837,W*3E
$GNRMC,075320.50,A,3737.7556036,N,12704.7384742,E,0.1,158.4,180324,8.8,W,D*32
$PSSN,HRP,075320.50,180324,189.001,,-17.347,1.220,,1.196,19,2,8.837,W*0F
$GNRMC,075321.00,A,3737.7556527,N,12704.7384567,E,0.3,,180324,8.8,W,D*12
$PSSN,HRP,075321.00,180324,188.204,,-1.726,1.241,,1.219,19,2,8.837,W*3A
$GNRMC,075321.50,A,3737.7556626,N,12704.7384601,E,0.0,,180324,8.8,W,D*15
$PSSN,HRP,075321.50,180324,188.532,,0.237,1.110,,1.189,18,2,8.837,W*18
$GNRMC,075322.00,A,3737.7556225,N,12704.7384828,E,0.7,163.7,180324,8.8,W,D*3B
$PSSN,HRP,075322.00,180324,189.415,,-13.269,1.350,,1.413,18,2,8.837,W*0F
$GNRMC,075322.50,A,3737.7556277,N,12704.7384455,E,0.6,,180324,8.8,W,D*13
$PSSN,HRP,075322.50,180324,189.184,,-11.652,1.388,,1.468,18,2,8.837,W*00
$GNRMC,075323.00,A,3737.7556598,N,12704.7384273,E,0.1,,180324,8.8,W,D*14
$PSSN,HRP,075323.00,180324,188.235,,0.386,1.120,,1.276,18,2,8.837,W*14
$GNRMC,075323.50,A,3737.7556598,N,12704.7384584,E,0.0,,180324,8.8,W,D*1F
$PSSN,HRP,075323.50,180324,188.566,,0.408,1.110,,1.275,19,2,8.837,W*10
$GNRMC,075324.00,A,3737.7556070,N,12704.7384750,E,0.5,170.5,180324,8.8,W,D*3D
$PSSN,HRP,075324.00,180324,188.190,,-17.058,1.349,,1.385,19,2,8.837,W*05
$GNRMC,075324.50,A,3737.7556441,N,12704.7384276,E,0.4,,180324,8.8,W,D*13
$PSSN,HRP,075324.50,180324,188.828,,-4.666,1.311,,1.343,18,2,8.837,W*35
$GNRMC,075325.00,A,3737.7556597,N,12704.7384301,E,0.0,,180324,8.8,W,D*18
$PSSN,HRP,075325.00,180324,189.425,,1.949,1.084,,1.179,18,2,8.837,W*1F
$GNRMC,075325.50,A,3737.7556493,N,12704.7384702,E,0.3,,180324,8.8,W,D*1C
$PSSN,HRP,075325.50,180324,189.359,,-4.101,1.277,,1.308,19,2,8.837,W*31
$GNRMC,075326.00,A,3737.7556075,N,12704.7384811,E,0.2,162.6,180324,8.8,W,D*37
$PSSN,HRP,075326.00,180324,189.071,,-16.389,1.275,,1.352,19,2,8.837,W*02
$GNRMC,075326.50,A,3737.7556578,N,12704.7384250,E,0.2,,180324,8.8,W,D*18
$PSSN,HRP,075326.50,180324,188.833,,0.215,1.244,,1.364,17,2,8.837,W*1F
$GNRMC,075327.00,A,3737.7556587,N,12704.7384246,E,0.1,,180324,8.8,W,D*18
$PSSN,HRP,075327.00,180324,189.296,,2.176,1.121,,1.305,17,2,8.837,W*1C
$GNRMC,075327.50,A,3737.7556163,N,12704.7384596,E,0.6,183.2,180324,8.8,W,D*38
$PSSN,HRP,075327.50,180324,188.729,,-14.534,1.376,,1.451,19,2,8.837,W*09
$GNRMC,075328.00,A,3737.7556343,N,12704.7384553,E,0.8,,180324,8.8,W,D*13
$PSSN,HRP,075328.00,180324,187.892,,-9.336,1.369,,1.441,19,2,8.837,W*34
$GNRMC,075328.50,A,3737.7556547,N,12704.7384505,E,0.1,,180324,8.8,W,D*1E
$PSSN,HRP,075328.50,180324,188.676,,0.676,1.164,,1.356,16,2,8.837,W*1E
$GNRMC,075329.00,A,3737.7556419,N,12704.7384506,E,0.3,,180324,8.8,W,D*11
$PSSN,HRP,075329.00,180324,189.452,,-3.999,1.307,,1.531,16,2,8.837,W*3F
$GNRMC,075329.50,A,3737.7556063,N,12704.7384644,E,0.1,166.1,180324,8.8,W,D*34
$PSSN,HRP,075329.50,180324,188.796,,-17.457,1.270,,1.552,18,2,8.837,W*00
$GNRMC,075330.00,A,3737.7556571,N,12704.7384559,E,0.3,,180324,8.8,W,D*1C
$PSSN,HRP,075330.00,180324,187.873,,-2.518,1.292,,1.471,18,2,8.837,W*34
$GNRMC,075330.50,A,3737.7556661,N,12704.7384554,E,0.1,,180324,8.8,W,D*14
$PSSN,HRP,075330.50,180324,187.699,,-0.407,1.145,,1.359,18,2,8.837,W*32
$GNRMC,075331.00,A,3737.7556269,N,12704.7384634,E,0.7,191.7,180324,8.8,W,D*3F
$PSSN,HRP,075331.00,180324,187.515,,-14.084,1.354,,1.440,18,2,8.837,W*06
$GNRMC,075331.50,A,3737.7556291,N,12704.7384378,E,0.8,,180324,8.8,W,D*1F
$PSSN,HRP,075331.50,180324,187.899,,-12.264,1.358,,1.451,17,2,8.837,W*03
$GNRMC,075332.00,A,3737.7556617,N,12704.7384384,E,0.1,,180324,8.8,W,D*19
$PSSN,HRP,075332.00,180324,187.907,,0.084,1.142,,1.332,17,2,8.837,W*1A
$GNRMC,075332.50,A,3737.7556607,N,12704.7384543,E,0.1,,180324,8.8,W,D*10
$PSSN,HRP,075332.50,180324,187.885,,-2.101,1.219,,1.382,18,2,8.837,W*3E
$GNRMC,075333.00,A,3737.7556069,N,12704.7384645,E,0.3,170.2,180324,8.8,W,D*37
$PSSN,HRP,075333.00,180324,187.847,,-18.392,1.287,,1.379,18,2,8.837,W*04
$GNRMC,075333.50,A,3737.7556462,N,12704.7384234,E,0.4,,180324,8.8,W,D*12
$PSSN,HRP,075333.50,180324,188.703,,-2.553,1.276,,1.378,19,2,8.837,W*3F
$GNRMC,075334.00,A,3737.7556569,N,12704.7384339,E,0.0,,180324,8.8,W,D*12
$PSSN,HRP,075334.00,180324,189.831,,2.651,1.089,,1.261,19,2,8.837,W*15
$GNRMC,075334.50,A,3737.7556295,N,12704.7384575,E,0.6,,180324,8.8,W,D*1B
$PSSN,HRP,075334.50,180324,189.233,,-9.548,1.280,,1.353,19,2,8.837,W*3E
$GNRMC,075335.00,A,3737.7556208,N,12704.7384625,E,0.7,,180324,8.8,W,D*1C
$PSSN,HRP,075335.00,180324,188.556,,-13.435,1.299,,1.295,19,2,8.837,W*0C
$GNRMC,075335.50,A,3737.7556585,N,12704.7384418,E,0.1,,180324,8.8,W,D*11
$PSSN,HRP,075335.50,180324,188.364,,0.439,1.117,,1.175,17,2,8.837,W*1B
$GNRMC,075336.00,A,3737.7556583,N,12704.7384465,E,0.0,,180324,8.8,W,D*1A
$PSSN,HRP,075336.00,180324,188.404,,0.350,1.108,,1.220,17,2,8.837,W*19
$GNRMC,075336.50,A,3737.7556038,N,12704.7384774,E,0.6,161.5,180324,8.8,W,D*32
$PSSN,HRP,075336.50,180324,188.499,,-17.681,1.323,,1.318,19,2,8.837,W*05
$GNRMC,075337.00,A,3737.7556443,N,12704.7384668,E,0.4,,180324,8.8,W,D*1D
$PSSN,HRP,075337.00,180324,188.146,,-5.866,1.315,,1.337,19,2,8.837,W*3A
$GNRMC,075337.50,A,3737.7556640,N,12704.7384638,E,0.1,,180324,8.8,W,D*19
$PSSN,HRP,075337.50,180324,188.536,,-0.299,1.132,,1.216,18,2,8.837,W*37
$GNRMC,075338.00,A,3737.7556479,N,12704.7384563,E,0.3,,180324,8.8,W,D*14
$PSSN,HRP,075338.00,180324,188.351,,-5.802,1.250,,1.258,18,2,8.837,W*3A
$GNRMC,075338.50,A,3737.7556029,N,12704.7384830,E,0.1,158.1,180324,8.8,W,D*3A
$PSSN,HRP,075338.50,180324,188.808,,-19.138,1.224,,1.203,19,2,8.837,W*09
$GNRMC,075339.00,A,3737.7556574,N,12704.7384582,E,0.3,,180324,8.8,W,D*16
$PSSN,HRP,075339.00,180324,187.871,,-2.252,1.260,,1.235,19,2,8.837,W*3C
$GNRMC,075339.50,A,3737.7556678,N,12704.7384653,E,0.1,,180324,8.8,W,D*11
$PSSN,HRP,075339.50,180324,188.037,,-0.424,1.076,,1.096,20,2,8.837,W*3D
$GNRMC,075340.00,A,3737.7556331,N,12704.7384578,E,0.7,,180324,8.8,W,D*1E
$PSSN,HRP,075340.00,180324,187.951,,-11.521,1.227,,1.125,20,2,8.837,W*0B
$GNRMC,075340.50,A,3737.7556098,N,12704.7384648,E,0.6,,180324,8.8,W,D*1A
$PSSN,HRP,075340.50,180324,188.447,,-16.911,1.289,,1.176,19,2,8.837,W*0B
$GNRMC,075341.00,A,3737.7556587,N,12704.7384485,E,0.1,,180324,8.8,W,D*11
$PSSN,HRP,075341.00,180324,187.865,,-1.460,1.152,,1.164,19,2,8.837,W*37
$GNRMC,075341.50,A,3737.7556683,N,12704.7384546,E,0.1,,180324,8.8,W,D*1D
$PSSN,HRP,075341.50,180324,187.574,,-0.387,1.098,,1.130,20,2,8.837,W*3C
$GNRMC,075342.00,A,3737.7556168,N,12704.7384593,E,0.6,180.7,180324,8.8,W,D*36
$PSSN,HRP,075342.00,180324,187.766,,-16.466,1.265,,1.118,20,2,8.837,W*0E
$GNRMC,075342.50,A,3737.7556382,N,12704.7384305,E,0.7,,180324,8.8,W,D*1D
$PSSN,HRP,075342.50,180324,187.380,,-8.685,1.271,,1.185,19,2,8.837,W*3C
$GNRMC,075343.00,A,3737.7556629,N,12704.7384408,E,0.0,,180324,8.8,W,D*10
$PSSN,HRP,075343.00,180324,187.909,,0.334,1.070,,1.126,19,2,8.837,W*13
$GNRMC,075343.50,A,3737.7556548,N,12704.7384536,E,0.2,,180324,8.8,W,D*1F
$PSSN,HRP,075343.50,180324,188.243,,-3.557,1.237,,1.209,19,2,8.837,W*3E
$GNRMC,075344.00,A,3737.7556032,N,12704.7384691,E,0.1,168.3,180324,8.8,W,D*3A
$PSSN,HRP,075344.00,180324,188.111,,-18.589,1.149,,1.051,19,2,8.837,W*04
$GNRMC,075344.50,A,3737.7556496,N,12704.7384194,E,0.4,340.2,180324,8.8,W,D*3B
$PSSN,HRP,075344.50,180324,187.589,,-3.286,1.216,,1.111,19,2,8.837,W*35
$GNRMC,075345.00,A,3737.7556591,N,12704.7384347,E,0.1,,180324,8.8,W,D*1B
$PSSN,HRP,075345.00,180324,188.487,,0.958,1.039,,1.037,19,2,8.837,W*1D
$GNRMC,075345.50,A,3737.7556361,N,12704.7384408,E,0.6,,180324,8.8,W,D*1C
$PSSN,HRP,075345.50,180324,187.969,,-9.120,1.239,,1.148,19,2,8.837,W*32
$GNRMC,075346.00,A,3737.7556166,N,12704.7384542,E,0.6,,180324,8.8,W,D*10
$PSSN,HRP,075346.00,180324,187.894,,-15.235,1.281,,1.138,19,2,8.837,W*09
$GNRMC,075346.50,A,3737.7556591,N,12704.7384339,E,0.1,,180324,8.8,W,D*14
$PSSN,HRP,075346.50,180324,188.205,,0.093,1.171,,1.209,18,2,8.837,W*1A
$GNRMC,075347.00,A,3737.7556565,N,12704.7384343,E,0.1,,180324,8.8,W,D*16
$PSSN,HRP,075347.00,180324,188.357,,-0.340,1.167,,1.361,18,2,8.837,W*30
$GNRMC,075347.50,A,3737.7556076,N,12704.7384753,E,0.4,163.7,180324,8.8,W,D*39
$PSSN,HRP,075347.50,180324,188.588,,-17.127,1.358,,1.477,20,2,8.837,W*01
$GNRMC,075348.00,A,3737.7556476,N,12704.7384574,E,0.4,,180324,8.8,W,D*1D
$PSSN,HRP,075348.00,180324,187.838,,-5.543,1.206,,1.122,20,2,8.837,W*38
$GNRMC,075348.50,A,3737.7556639,N,12704.7384679,E,0.1,,180324,8.8,W,D*1A
$PSSN,HRP,075348.50,180324,188.235,,0.189,1.098,,1.122,19,2,8.837,W*10
$GNRMC,075349.00,A,3737.7556427,N,12704.7384612,E,0.4,,180324,8.8,W,D*1B
$PSSN,HRP,075349.00,180324,188.223,,-6.713,1.259,,1.390,19,2,8.837,W*39
$GNRMC,075349.50,A,3737.7556115,N,12704.7384746,E,0.3,,180324,8.8,W,D*1D
$PSSN,HRP,075349.50,180324,188.718,,-15.553,1.303,,1.458,20,2,8.837,W*02
$GNRMC,075350.00,A,3737.7556597,N,12704.7384686,E,0.3,,180324,8.8,W,D*13
$PSSN,HRP,075350.00,180324,188.409,,-0.661,1.193,,1.303,20,2,8.837,W*38
$GNRMC,075350.50,A,3737.7556647,N,12704.7384625,E,0.1,,180324,8.8,W,D*13
$PSSN,HRP,075350.50,180324,188.489,,0.582,1.102,,1.220,19,2,8.837,W*14
$GNRMC,075351.00,A,3737.7556179,N,12704.7384750,E,0.6,175.7,180324,8.8,W,D*33
$PSSN,HRP,075351.00,180324,188.499,,-14.410,1.316,,1.277,19,2,8.837,W*06
$GNRMC,075351.50,A,3737.7556301,N,12704.7384438,E,0.5,,180324,8.8,W,D*1F
$PSSN,HRP,075351.50,180324,188.801,,-10.216,1.312,,1.270,19,2,8.837,W*09
$GNRMC,075352.00,A,3737.7556592,N,12704.7384454,E,0.0,,180324,8.8,W,D*1A
$PSSN,HRP,075352.00,180324,188.914,,0.286,1.062,,1.147,19,2,8.837,W*1C
$GNRMC,075352.50,A,3737.7556671,N,12704.7384722,E,0.1,,180324,8.8,W,D*12
$PSSN,HRP,075352.50,180324,188.949,,0.445,1.066,,1.144,19,2,8.837,W*1F
$GNRMC,075353.00,A,3737.7556414,N,12704.7384615,E,0.4,,180324,8.8,W,D*17
$PSSN,HRP,075353.00,180324,188.214,,-8.729,1.141,,1.197,19,2,8.837,W*3E
$GNRMC,075353.50,A,3737.7556148,N,12704.7384739,E,0.4,,180324,8.8,W,D*11
$PSSN,HRP,075353.50,180324,188.890,,-15.270,1.190,,1.152,20,2,8.837,W*07
$GNRMC,075354.00,A,3737.7556590,N,12704.7384702,E,0.2,,180324,8.8,W,D*1C
$PSSN,HRP,075354.00,180324,189.076,,-0.913,0.948,,0.963,20,2,8.837,W*39
$GNRMC,075354.50,A,3737.7556681,N,12704.7384596,E,0.1,,180324,8.8,W,D*16
$PSSN,HRP,075354.50,180324,188.665,,0.664,0.877,,0.968,19,2,8.837,W*17
$GNRMC,075355.00,A,3737.7556541,N,12704.7384696,E,0.1,,180324,8.8,W,D*1E
$PSSN,HRP,075355.00,180324,189.252,,0.297,1.069,,1.149,19,2,8.837,W*16
$GNRMC,075355.50,A,3737.7556118,N,12704.7384821,E,0.5,171.8,180324,8.8,W,D*34
$PSSN,HRP,075355.50,180324,189.246,,-14.840,1.345,,1.307,19,2,8.837,W*0B
$GNRMC,075356.00,A,3737.7556388,N,12704.7384667,E,0.4,,180324,8.8,W,D*15
$PSSN,HRP,075356.00,180324,188.780,,-5.675,1.265,,1.242,19,2,8.837,W*38
$GNRMC,075356.50,A,3737.7556521,N,12704.7384902,E,0.1,,180324,8.8,W,D*1C
$PSSN,HRP,075356.50,180324,189.030,,0.069,1.082,,1.159,19,2,8.837,W*11
$GNRMC,075357.00,A,3737.7556505,N,12704.7384962,E,0.0,,180324,8.8,W,D*19
$PSSN,HRP,075357.00,180324,189.135,,0.128,1.075,,1.168,19,2,8.837,W*1F
$GNRMC,075357.50,A,3737.7556149,N,12704.7384924,E,0.5,158.3,180324,8.8,W,D*36
$PSSN,HRP,075357.50,180324,189.029,,-14.412,1.300,,1.271,20,2,8.837,W*02
$GNRMC,075358.00,A,3737.7556272,N,12704.7384755,E,0.6,,180324,8.8,W,D*1D
$PSSN,HRP,075358.00,180324,188.845,,-10.044,1.298,,1.266,20,2,8.837,W*0E
$GNRMC,075358.50,A,3737.7556519,N,12704.7384652,E,0.1,,180324,8.8,W,D*13
$PSSN,HRP,075358.50,180324,188.986,,0.256,1.128,,1.233,18,2,8.837,W*1B
$GNRMC,075359.00,A,3737.7556507,N,12704.7384650,E,0.0,,180324,8.8,W,D*1B
$PSSN,HRP,075359.00,180324,189.180,,0.560,1.109,,1.325,18,2,8.837,W*17
$GNRMC,075359.50,A,3737.7556311,N,12704.7384655,E,0.4,,180324,8.8,W,D*1E
$PSSN,HRP,075359.50,180324,188.870,,-8.516,1.315,,1.488,20,2,8.837,W*35
$GNRMC,075400.00,A,3737.7556173,N,12704.7384880,E,0.5,,180324,8.8,W,D*11
$PSSN,HRP,075400.00,180324,188.276,,-13.327,1.338,,1.443,20,2,8.837,W*01
$GNRMC,075400.50,A,3737.7556540,N,12704.7384426,E,0.2,,180324,8.8,W,D*17
$PSSN,HRP,075400.50,180324,189.164,,1.140,1.157,,1.337,19,2,8.837,W*1D
$GNRMC,075401.00,A,3737.7556554,N,12704.7384487,E,0.1,,180324,8.8,W,D*1E
$PSSN,HRP,075401.00,180324,190.013,,2.134,1.116,,1.320,19,2,8.837,W*13
$GNRMC,075401.50,A,3737.7556230,N,12704.7384732,E,0.5,,180324,8.8,W,D*17
$PSSN,HRP,075401.50,180324,190.018,,-10.801,1.302,,1.438,20,2,8.837,W*0F
$GNRMC,075402.00,A,3737.7556224,N,12704.7384810,E,0.7,,180324,8.8,W,D*19
$PSSN,HRP,075402.00,180324,189.079,,-12.075,1.316,,1.408,20,2,8.837,W*09
$GNRMC,075402.50,A,3737.7556576,N,12704.7384433,E,0.2,,180324,8.8,W,D*14
$PSSN,HRP,075402.50,180324,189.411,,0.702,1.095,,1.202,20,2,8.837,W*1B
$GNRMC,075403.00,A,3737.7556613,N,12704.7384403,E,0.0,,180324,8.8,W,D*11
$PSSN,HRP,075403.00,180324,189.739,,1.564,1.003,,1.036,20,2,8.837,W*1F
$GNRMC,075403.50,A,3737.7556499,N,12704.7384657,E,0.2,,180324,8.8,W,D*15
$PSSN,HRP,075403.50,180324,188.968,,-3.281,1.198,,1.157,20,2,8.837,W*37
$GNRMC,075404.00,A,3737.7556115,N,12704.7384762,E,0.1,,180324,8.8,W,D*12
$PSSN,HRP,075404.00,180324,188.199,,-15.639,1.149,,1.174,20,2,8.837,W*0E
$GNRMC,075404.50,A,3737.7556569,N,12704.7384498,E,0.1,,180324,8.8,W,D*1E
$PSSN,HRP,075404.50,180324,188.691,,-2.290,1.153,,1.234,19,2,8.837,W*33
$GNRMC,075405.00,A,3737.7556637,N,12704.7384482,E,0.1,,180324,8.8,W,D*19
$PSSN,HRP,075405.00,180324,188.903,,0.665,1.062,,1.170,19,2,8.837,W*12
$GNRMC,075405.50,A,3737.7556623,N,12704.7384743,E,0.0,,180324,8.8,W,D*16
$PSSN,HRP,075405.50,180324,188.645,,-0.051,1.056,,1.149,19,2,8.837,W*3B
$GNRMC,075406.00,A,3737.7556147,N,12704.7384814,E,0.5,171.7,180324,8.8,W,D*33
$PSSN,HRP,075406.00,180324,188.138,,-15.792,1.293,,1.234,19,2,8.837,W*0E
$GNRMC,075406.50,A,3737.7556342,N,12704.7384467,E,0.7,,180324,8.8,W,D*15
$PSSN,HRP,075406.50,180324,188.440,,-10.266,1.297,,1.247,19,2,8.837,W*0A
$GNRMC,075407.00,A,3737.7556638,N,12704.7384407,E,0.0,,180324,8.8,W,D*18
$PSSN,HRP,075407.00,180324,188.316,,0.512,1.069,,1.152,19,2,8.837,W*16
$GNRMC,075407.50,A,3737.7556661,N,12704.7384765,E,0.0,,180324,8.8,W,D*16
$PSSN,HRP,075407.50,180324,188.439,,0.089,1.065,,1.154,20,2,8.837,W*1E
$GNRMC,075408.00,A,3737.7556429,N,12704.7384696,E,0.5,,180324,8.8,W,D*1A
$PSSN,HRP,075408.00,180324,187.779,,-8.249,1.260,,1.249,20,2,8.837,W*3F
$GNRMC,075408.50,A,3737.7556159,N,12704.7384604,E,0.2,,180324,8.8,W,D*11
$PSSN,HRP,075408.50,180324,188.195,,-14.609,1.232,,1.224,19,2,8.837,W*0A
$GNRMC,075409.00,A,3737.7556587,N,12704.7384625,E,0.1,,180324,8.8,W,D*12
$PSSN,HRP,075409.00,180324,188.209,,-0.811,1.147,,1.192,19,2,8.837,W*35
$GNRMC,075409.50,A,3737.7556677,N,12704.7384687,E,0.0,,180324,8.8,W,D*12
$PSSN,HRP,075409.50,180324,188.218,,-0.118,1.073,,1.159,20,2,8.837,W*3B
$GNRMC,075410.00,A,3737.7556459,N,12704.7384700,E,0.4,,180324,8.8,W,D*1B
$PSSN,HRP,075410.00,180324,188.080,,-7.445,1.240,,1.247,20,2,8.837,W*31
$GNRMC,075410.50,A,3737.7556074,N,12704.7384775,E,0.2,167.4,180324,8.8,W,D*3B
$PSSN,HRP,075410.50,180324,188.286,,-17.177,1.185,,1.195,19,2,8.837,W*09
$GNRMC,075411.00,A,3737.7556559,N,12704.7384624,E,0.2,,180324,8.8,W,D*1A
$PSSN,HRP,075411.00,180324,187.636,,-2.233,1.172,,1.201,19,2,8.837,W*3C
$GNRMC,075411.50,A,3737.7556670,N,12704.7384752,E,0.1,,180324,8.8,W,D*14
$PSSN,HRP,075411.50,180324,187.591,,0.031,1.081,,1.158,20,2,8.837,W*10
$GNRMC,075412.00,A,3737.7556438,N,12704.7384713,E,0.5,,180324,8.8,W,D*1D
$PSSN,HRP,075412.00,180324,187.857,,-7.902,1.247,,1.251,20,2,8.837,W*30
$GNRMC,075412.50,A,3737.7556106,N,12704.7384774,E,0.4,,180324,8.8,W,D*10
$PSSN,HRP,075412.50,180324,188.231,,-16.053,1.272,,1.248,19,2,8.837,W*09
$GNRMC,075413.00,A,3737.7556543,N,12704.7384689,E,0.1,,180324,8.8,W,D*17
$PSSN,HRP,075413.00,180324,187.881,,-1.771,1.144,,1.196,19,2,8.837,W*34
$GNRMC,075413.50,A,3737.7556664,N,12704.7384730,E,0.0,,180324,8.8,W,D*16
$PSSN,HRP,075413.50,180324,188.240,,-0.318,1.063,,1.161,19,2,8.837,W*3F
$GNRMC,075414.00,A,3737.7556450,N,12704.7384626,E,0.4,,180324,8.8,W,D*13
$PSSN,HRP,075414.00,180324,188.309,,-8.219,1.248,,1.252,19,2,8.837,W*31
$GNRMC,075414.50,A,3737.7556052,N,12704.7384917,E,0.3,,180324,8.8,W,D*1A
$PSSN,HRP,075414.50,180324,189.212,,-16.677,1.247,,1.241,19,2,8.837,W*00
$GNRMC,075415.00,A,3737.7556539,N,12704.7384804,E,0.1,,180324,8.8,W,D*17
$PSSN,HRP,075415.00,180324,188.398,,-1.183,1.134,,1.190,19,2,8.837,W*34
$GNRMC,075415.50,A,3737.7556643,N,12704.7384788,E,0.0,,180324,8.8,W,D*16
$PSSN,HRP,075415.50,180324,188.608,,0.250,1.078,,1.165,21,2,8.837,W*14
$GNRMC,075416.00,A,3737.7556522,N,12704.7384777,E,0.2,,180324,8.8,W,D*16
$PSSN,HRP,075416.00,180324,188.177,,-4.399,1.201,,1.219,21,2,8.837,W*34
$GNRMC,075416.50,A,3737.7556107,N,12704.7384872,E,0.1,163.7,180324,8.8,W,D*34
$PSSN,HRP,075416.50,180324,188.832,,-16.287,1.172,,1.137,21,2,8.837,W*0C
$GNRMC,075417.00,A,3737.7556595,N,12704.7384784,E,0.2,,180324,8.8,W,D*17
$PSSN,HRP,075417.00,180324,188.813,,-1.278,1.097,,1.056,21,2,8.837,W*31
$GNRMC,075417.50,A,3737.7556695,N,12704.7384762,E,0.1,,180324,8.8,W,D*1A
$PSSN,HRP,075417.50,180324,188.517,,0.015,1.026,,1.000,21,2,8.837,W*11
$GNRMC,075418.00,A,3737.7556543,N,12704.7384725,E,0.3,,180324,8.8,W,D*19
$PSSN,HRP,075418.00,180324,188.201,,-5.867,1.183,,1.105,21,2,8.837,W*34
$GNRMC,075418.50,A,3737.7556155,N,12704.7384886,E,0.2,160.6,180324,8.8,W,D*37
$PSSN,HRP,075418.50,180324,188.754,,-15.909,1.176,,1.089,21,2,8.837,W*03
$GNRMC,075419.00,A,3737.7556658,N,12704.7384748,E,0.1,,180324,8.8,W,D*18
$PSSN,HRP,075419.00,180324,188.772,,-1.024,1.106,,1.071,21,2,8.837,W*30
$GNRMC,075419.50,A,3737.7556751,N,12704.7384681,E,0.0,,180324,8.8,W,D*10
$PSSN,HRP,075419.50,180324,188.490,,0.219,1.035,,1.042,21,2,8.837,W*1B
$GNRMC,075420.00,A,3737.7556529,N,12704.7384682,E,0.4,,180324,8.8,W,D*15
$PSSN,HRP,075420.00,180324,188.575,,-7.798,1.208,,1.127,21,2,8.837,W*36
$GNRMC,075420.50,A,3737.7556148,N,12704.7384834,E,0.3,,180324,8.8,W,D*17
$PSSN,HRP,075420.50,180324,188.669,,-16.165,1.194,,1.114,20,2,8.837,W*0E
$GNRMC,075421.00,A,3737.7556623,N,12704.7384609,E,0.2,,180324,8.8,W,D*18
$PSSN,HRP,075421.00,180324,187.744,,-1.507,1.133,,1.106,20,2,8.837,W*33
$GNRMC,075421.50,A,3737.7556717,N,12704.7384783,E,0.1,,180324,8.8,W,D*1B
$PSSN,HRP,075421.50,180324,188.312,,0.629,1.042,,1.074,20,2,8.837,W*1E
$GNRMC,075422.00,A,3737.7556499,N,12704.7384747,E,0.4,,180324,8.8,W,D*15
$PSSN,HRP,075422.00,180324,188.695,,-7.036,1.203,,1.143,20,2,8.837,W*32
$GNRMC,075422.50,A,3737.7556103,N,12704.7384977,E,0.3,156.3,180324,8.8,W,D*33
$PSSN,HRP,075422.50,180324,189.641,,-17.198,1.187,,1.113,20,2,8.837,W*01
$GNRMC,075423.00,A,3737.7556626,N,12704.7384734,E,0.2,,180324,8.8,W,D*10
$PSSN,HRP,075423.00,180324,188.507,,-0.976,1.152,,1.108,20,2,8.837,W*39
$GNRMC,075423.50,A,3737.7556718,N,12704.7384761,E,0.1,,180324,8.8,W,D*1A
$PSSN,HRP,075423.50,180324,188.659,,0.521,1.031,,1.047,20,2,8.837,W*19
$GNRMC,075424.00,A,3737.7556364,N,12704.7384881,E,0.7,,180324,8.8,W,D*10
$PSSN,HRP,075424.00,180324,189.157,,-12.133,1.235,,1.145,20,2,8.837,W*0F
$GNRMC,075424.50,A,3737.7556217,N,12704.7384544,E,0.5,,180324,8.8,W,D*16
$PSSN,HRP,075424.50,180324,188.697,,-14.909,1.104,,1.076,20,2,8.837,W*07
$GNRMC,075425.00,A,3737.7556663,N,12704.7384498,E,0.1,,180324,8.8,W,D*11
$PSSN,HRP,075425.00,180324,188.472,,-0.469,1.049,,1.053,20,2,8.837,W*3B
$GNRMC,075425.50,A,3737.7556710,N,12704.7384685,E,0.1,,180324,8.8,W,D*1F
$PSSN,HRP,075425.50,180324,188.363,,0.331,1.011,,1.034,20,2,8.837,W*12
$GNRMC,075426.00,A,3737.7556417,N,12704.7384803,E,0.6,,180324,8.8,W,D*1A
$PSSN,HRP,075426.00,180324,188.589,,-10.657,1.227,,1.143,20,2,8.837,W*09
$GNRMC,075426.50,A,3737.7556245,N,12704.7384567,E,0.5,,180324,8.8,W,D*12
$PSSN,HRP,075426.50,180324,188.971,,-13.679,1.242,,1.148,20,2,8.837,W*00
$GNRMC,075427.00,A,3737.7556631,N,12704.7384453,E,0.0,,180324,8.8,W,D*12
$PSSN,HRP,075427.00,180324,189.002,,0.112,1.067,,1.070,20,2,8.837,W*12
$GNRMC,075427.50,A,3737.7556721,N,12704.7384692,E,0.1,,180324,8.8,W,D*19
$PSSN,HRP,075427.50,180324,188.508,,0.845,1.030,,1.059,20,2,8.837,W*1B
$GNRMC,075428.00,A,3737.7556495,N,12704.7384717,E,0.5,,180324,8.8,W,D*17
$PSSN,HRP,075428.00,180324,188.493,,-8.122,1.210,,1.147,20,2,8.837,W*31
$GNRMC,075428.50,A,3737.7556184,N,12704.7384663,E,0.4,,180324,8.8,W,D*14
$PSSN,HRP,075428.50,180324,188.836,,-15.223,1.228,,1.141,20,2,8.837,W*04
$GNRMC,075429.00,A,3737.7556645,N,12704.7384544,E,0.1,,180324,8.8,W,D*19
$PSSN,HRP,075429.00,180324,188.571,,-0.251,1.090,,1.085,20,2,8.837,W*37
$GNRMC,075429.50,A,3737.7556715,N,12704.7384602,E,0.0,,180324,8.8,W,D*18
$PSSN,HRP,075429.50,180324,188.175,,0.585,1.024,,1.053,20,2,8.837,W*15
$GNRMC,075430.00,A,3737.7556476,N,12704.7384629,E,0.4,,180324,8.8,W,D*1E
$PSSN,HRP,075430.00,180324,187.648,,-7.982,1.202,,1.134,20,2,8.837,W*39
$GNRMC,075430.50,A,3737.7556237,N,12704.7384687,E,0.5,,180324,8.8,W,D*1D
$PSSN,HRP,075430.50,180324,188.775,,-13.319,1.248,,1.158,20,2,8.837,W*05
$GNRMC,075431.00,A,3737.7556629,N,12704.7384565,E,0.1,,180324,8.8,W,D*19
$PSSN,HRP,075431.00,180324,188.680,,0.138,1.035,,1.061,20,2,8.837,W*17
$GNRMC,075431.50,A,3737.7556695,N,12704.7384720,E,0.0,,180324,8.8,W,D*19
$PSSN,HRP,075431.50,180324,188.681,,0.642,1.023,,1.057,20,2,8.837,W*1B
$GNRMC,075432.00,A,3737.7556390,N,12704.7384795,E,0.6,,180324,8.8,W,D*17
$PSSN,HRP,075432.00,180324,188.608,,-10.536,1.234,,1.148,20,2,8.837,W*0B
$GNRMC,075432.50,A,3737.7556302,N,12704.7384551,E,0.7,,180324,8.8,W,D*12
$PSSN,HRP,075432.50,180324,188.770,,-11.218,1.247,,1.166,20,2,8.837,W*02
$GNRMC,075433.00,A,3737.7556598,N,12704.7384504,E,0.1,,180324,8.8,W,D*15
$PSSN,HRP,075433.00,180324,189.154,,0.696,1.034,,1.069,20,2,8.837,W*10
$GNRMC,075433.50,A,3737.7556651,N,12704.7384748,E,0.1,,180324,8.8,W,D*1C
$PSSN,HRP,075433.50,180324,189.026,,0.655,1.038,,1.071,20,2,8.837,W*1B
$GNRMC,075434.00,A,3737.7556127,N,12704.7384912,E,0.6,167.6,180324,8.8,W,D*36
$PSSN,HRP,075434.00,180324,188.876,,-15.766,1.245,,1.137,20,2,8.837,W*06
$GNRMC,075434.50,A,3737.7556495,N,12704.7384483,E,0.4,,180324,8.8,W,D*10
$PSSN,HRP,075434.50,180324,188.649,,-5.397,1.277,,1.264,18,2,8.837,W*35
$GNRMC,075435.00,A,3737.7556635,N,12704.7384493,E,0.0,,180324,8.8,W,D*19
$PSSN,HRP,075435.00,180324,188.891,,0.090,1.101,,1.304,18,2,8.837,W*13
$GNRMC,075435.50,A,3737.7556619,N,12704.7384714,E,0.1,,180324,8.8,W,D*1F
$PSSN,HRP,075435.50,180324,188.531,,-1.531,1.191,,1.404,20,2,8.837,W*36
$GNRMC,075436.00,A,3737.7556086,N,12704.7384856,E,0.3,164.0,180324,8.8,W,D*3F
$PSSN,HRP,075436.00,180324,188.011,,-17.878,1.236,,1.331,20,2,8.837,W*0F
$GNRMC,075436.50,A,3737.7556513,N,12704.7384510,E,0.2,,180324,8.8,W,D*10
$PSSN,HRP,075436.50,180324,188.255,,-2.794,1.246,,1.295,20,2,8.837,W*39
$GNRMC,075437.00,A,3737.7556565,N,12704.7384556,E,0.1,,180324,8.8,W,D*14
$PSSN,HRP,075437.00,180324,189.266,,0.737,1.062,,1.173,20,2,8.837,W*15
$GNRMC,075437.50,A,3737.7556449,N,12704.7384658,E,0.3,,180324,8.8,W,D*11
$PSSN,HRP,075437.50,180324,188.663,,-8.601,1.267,,1.283,20,2,8.837,W*3A
$GNRMC,075438.00,A,3737.7556174,N,12704.7384811,E,0.4,,180324,8.8,W,D*14
$PSSN,HRP,075438.00,180324,188.259,,-16.229,1.283,,1.263,20,2,8.837,W*08
$GNRMC,075438.50,A,3737.7556584,N,12704.7384320,E,0.1,,180324,8.8,W,D*16
$PSSN,HRP,075438.50,180324,187.731,,-1.089,1.127,,1.162,20,2,8.837,W*38
$GNRMC,075439.00,A,3737.7556638,N,12704.7384276,E,0.1,,180324,8.8,W,D*14
$PSSN,HRP,075439.00,180324,188.359,,0.788,1.010,,1.032,20,2,8.837,W*12
$GNRMC,075439.50,A,3737.7556317,N,12704.7384633,E,0.7,,180324,8.8,W,D*1A
$PSSN,HRP,075439.50,180324,188.493,,-13.259,1.236,,1.131,20,2,8.837,W*04
$GNRMC,075440.00,A,3737.7556395,N,12704.7384634,E,0.8,,180324,8.8,W,D*13
$PSSN,HRP,075440.00,180324,187.883,,-10.986,1.255,,1.149,20,2,8.837,W*0D
$GNRMC,075440.50,A,3737.7556618,N,12704.7384459,E,0.1,,180324,8.8,W,D*16
$PSSN,HRP,075440.50,180324,187.776,,-0.152,1.058,,1.088,19,2,8.837,W*34
$GNRMC,075441.00,A,3737.7556599,N,12704.7384472,E,0.0,,180324,8.8,W,D*10
$PSSN,HRP,075441.00,180324,188.315,,0.244,1.068,,1.189,19,2,8.837,W*14
$GNRMC,075441.50,A,3737.7556187,N,12704.7384808,E,0.6,165.2,180324,8.8,W,D*37
$PSSN,HRP,075441.50,180324,188.472,,-15.777,1.350,,1.339,20,2,8.837,W*00
$GNRMC,075442.00,A,3737.7556497,N,12704.7384731,E,0.5,,180324,8.8,W,D*1D
$PSSN,HRP,075442.00,180324,187.605,,-7.024,1.281,,1.252,20,2,8.837,W*38
$GNRMC,075442.50,A,3737.7556646,N,12704.7384558,E,0.0,,180324,8.8,W,D*1E
$PSSN,HRP,075442.50,180324,188.019,,0.233,1.086,,1.139,20,2,8.837,W*1C
$GNRMC,075443.00,A,3737.7556605,N,12704.7384675,E,0.1,,180324,8.8,W,D*10
$PSSN,HRP,075443.00,180324,188.597,,-0.293,1.076,,1.157,20,2,8.837,W*3B
$GNRMC,075443.50,A,3737.7556138,N,12704.7384762,E,0.4,164.6,180324,8.8,W,D*35
$PSSN,HRP,075443.50,180324,188.520,,-17.265,1.261,,1.204,20,2,8.837,W*0C
$GNRMC,075444.00,A,3737.7556556,N,12704.7384616,E,0.4,,180324,8.8,W,D*12
$PSSN,HRP,075444.00,180324,187.719,,-5.346,1.256,,1.200,20,2,8.837,W*3A
$GNRMC,075444.50,A,3737.7556686,N,12704.7384553,E,0.1,,180324,8.8,W,D*1E
$PSSN,HRP,075444.50,180324,187.887,,0.176,1.077,,1.098,20,2,8.837,W*1C
$GNRMC,075445.00,A,3737.7556527,N,12704.7384591,E,0.3,,180324,8.8,W,D*1E
$PSSN,HRP,075445.00,180324,188.316,,-5.332,1.223,,1.184,20,2,8.837,W*31
$GNRMC,075445.50,A,3737.7556066,N,12704.7384877,E,0.2,168.7,180324,8.8,W,D*39
$PSSN,HRP,075445.50,180324,189.271,,-18.487,1.218,,1.182,19,2,8.837,W*04
$GNRMC,075446.00,A,3737.7556582,N,12704.7384604,E,0.2,,180324,8.8,W,D*1C
$PSSN,HRP,075446.00,180324,187.655,,-1.838,1.216,,1.231,19,2,8.837,W*3B
$GNRMC,075446.50,A,3737.7556661,N,12704.7384691,E,0.0,,180324,8.8,W,D*19
$PSSN,HRP,075446.50,180324,188.514,,0.556,1.095,,1.164,20,2,8.837,W*1E
$GNRMC,075447.00,A,3737.7556450,N,12704.7384622,E,0.4,,180324,8.8,W,D*11
$PSSN,HRP,075447.00,180324,188.562,,-6.776,1.211,,1.158,19,2,8.837,W*3B
$GNRMC,075447.50,A,3737.7556108,N,12704.7384740,E,0.4,,180324,8.8,W,D*19
$PSSN,HRP,075447.50,180324,189.392,,-16.230,1.273,,1.183,19,2,8.837,W*02
$GNRMC,075448.00,A,3737.7556588,N,12704.7384651,E,0.1,,180324,8.8,W,D*1B
$PSSN,HRP,075448.00,180324,188.354,,-1.060,1.194,,1.188,19,2,8.837,W*33
$GNRMC,075448.50,A,3737.7556660,N,12704.7384632,E,0.0,,180324,8.8,W,D*1F
$PSSN,HRP,075448.50,180324,188.215,,0.144,1.146,,1.188,20,2,8.837,W*1C
$GNRMC,075449.00,A,3737.7556305,N,12704.7384680,E,0.6,,180324,8.8,W,D*12
$PSSN,HRP,075449.00,180324,187.932,,-12.986,1.301,,1.205,20,2,8.837,W*06
$GNRMC,075449.50,A,3737.7556288,N,12704.7384457,E,0.6,,180324,8.8,W,D*1B
$PSSN,HRP,075449.50,180324,188.040,,-12.486,1.315,,1.244,19,2,8.837,W*07
$GNRMC,075450.00,A,3737.7556612,N,12704.7384390,E,0.1,,180324,8.8,W,D*1A
$PSSN,HRP,075450.00,180324,188.185,,0.124,1.164,,1.204,19,2,8.837,W*11
$GNRMC,075450.50,A,3737.7556649,N,12704.7384557,E,0.0,,180324,8.8,W,D*1D
$PSSN,HRP,075450.50,180324,187.752,,0.423,1.131,,1.186,20,2,8.837,W*16
$GNRMC,075451.00,A,3737.7556116,N,12704.7384550,E,0.7,170.2,180324,8.8,W,D*3E
$PSSN,HRP,075451.00,180324,187.496,,-16.980,1.344,,1.212,20,2,8.837,W*09
$GNRMC,075451.50,A,3737.7556410,N,12704.7384302,E,0.6,,180324,8.8,W,D*12
$PSSN,HRP,075451.50,180324,187.298,,-8.734,1.324,,1.247,20,2,8.837,W*3C
$GNRMC,075452.00,A,3737.7556631,N,12704.7384356,E,0.0,,180324,8.8,W,D*12
$PSSN,HRP,075452.00,180324,187.456,,-0.061,1.150,,1.187,20,2,8.837,W*3F
$GNRMC,075452.50,A,3737.7556641,N,12704.7384606,E,0.1,,180324,8.8,W,D*11
$PSSN,HRP,075452.50,180324,187.895,,0.339,1.151,,1.232,19,2,8.837,W*1C
$GNRMC,075453.00,A,3737.7556132,N,12704.7384665,E,0.5,167.7,180324,8.8,W,D*3E
$PSSN,HRP,075453.00,180324,188.253,,-16.128,1.336,,1.315,19,2,8.837,W*08
$GNRMC,075453.50,A,3737.7556567,N,12704.7384377,E,0.4,,180324,8.8,W,D*11
$PSSN,HRP,075453.50,180324,188.075,,-2.614,1.347,,1.386,18,2,8.837,W*3B
$GNRMC,075454.00,A,3737.7556660,N,12704.7384439,E,0.0,,180324,8.8,W,D*1E
$PSSN,HRP,075454.00,180324,188.507,,0.772,1.174,,1.355,18,2,8.837,W*1B
$GNRMC,075454.50,A,3737.7556447,N,12704.7384630,E,0.4,,180324,8.8,W,D*13
$PSSN,HRP,075454.50,180324,188.187,,-8.617,1.396,,1.482,18,2,8.837,W*36
$GNRMC,075455.00,A,3737.7556334,N,12704.7384699,E,0.5,,180324,8.8,W,D*16
$PSSN,HRP,075455.00,180324,188.025,,-11.932,1.359,,1.358,18,2,8.837,W*08
$GNRMC,075455.50,A,3737.7556636,N,12704.7384472,E,0.1,,180324,8.8,W,D*17
$PSSN,HRP,075455.50,180324,187.745,,0.048,1.250,,1.400,18,2,8.837,W*18
$GNRMC,075456.00,A,3737.7556621,N,12704.7384516,E,0.0,,180324,8.8,W,D*15
$PSSN,HRP,075456.00,180324,188.429,,0.698,1.274,,1.551,18,2,8.837,W*10
$GNRMC,075456.50,A,3737.7556159,N,12704.7384850,E,0.5,162.4,180324,8.8,W,D*3D
$PSSN,HRP,075456.50,180324,188.866,,-15.196,1.516,,1.657,18,2,8.837,W*04
$GNRMC,075457.00,A,3737.7556466,N,12704.7384828,E,0.4,,180324,8.8,W,D*11
$PSSN,HRP,075457.00,180324,188.988,,-5.226,1.343,,1.376,18,2,8.837,W*38
$GNRMC,075457.50,A,3737.7556665,N,12704.7384593,E,0.0,,180324,8.8,W,D*1C
$PSSN,HRP,075457.50,180324,188.177,,0.224,1.179,,1.288,18,2,8.837,W*14
$GNRMC,075458.00,A,3737.7556562,N,12704.7384631,E,0.2,,180324,8.8,W,D*1B
$PSSN,HRP,075458.00,180324,188.176,,-4.341,1.338,,1.404,18,2,8.837,W*31
$GNRMC,075458.50,A,3737.7556179,N,12704.7384732,E,0.2,166.6,180324,8.8,W,D*3B
$PSSN,HRP,075458.50,180324,188.085,,-16.055,1.342,,1.396,18,2,8.837,W*0D
$GNRMC,075459.00,A,3737.7556631,N,12704.7384684,E,0.1,,180324,8.8,W,D*12
$PSSN,HRP,075459.00,180324,187.957,,-1.431,1.226,,1.322,18,2,8.837,W*3C
$GNRMC,075459.50,A,3737.7556697,N,12704.7384663,E,0.0,,180324,8.8,W,D*13
$PSSN,HRP,075459.50,180324,188.359,,0.033,1.153,,1.282,18,2,8.837,W*12
$GNRMC,075500.00,A,3737.7556294,N,12704.7384776,E,0.6,,180324,8.8,W,D*1F
$PSSN,HRP,075500.00,180324,188.159,,-13.824,1.374,,1.368,18,2,8.837,W*0B
$GNRMC,075500.50,A,3737.7556401,N,12704.7384477,E,0.7,,180324,8.8,W,D*13
$PSSN,HRP,075500.50,180324,188.518,,-10.453,1.362,,1.387,18,2,8.837,W*06
$GNRMC,075501.00,A,3737.7556684,N,12704.7384440,E,0.0,,180324,8.8,W,D*1B
$PSSN,HRP,075501.00,180324,188.153,,0.222,1.170,,1.305,18,2,8.837,W*1E
$GNRMC,075501.50,A,3737.7556683,N,12704.7384683,E,0.1,,180324,8.8,W,D*15
$PSSN,HRP,075501.50,180324,188.130,,0.646,1.162,,1.301,18,2,8.837,W*1F
$GNRMC,075502.00,A,3737.7556149,N,12704.7384851,E,0.7,172.6,180324,8.8,W,D*39
$PSSN,HRP,075502.00,180324,188.935,,-15.884,1.396,,1.375,18,2,8.837,W*07
$GNRMC,075502.50,A,3737.7556523,N,12704.7384440,E,0.6,,180324,8.8,W,D*15
$PSSN,HRP,075502.50,180324,188.235,,-5.694,1.350,,1.377,18,2,8.837,W*3F
$GNRMC,075503.00,A,3737.7556690,N,12704.7384388,E,0.0,,180324,8.8,W,D*1F
$PSSN,HRP,075503.00,180324,188.279,,1.773,1.158,,1.293,18,2,8.837,W*13
$GNRMC,075503.50,A,3737.7556585,N,12704.7384617,E,0.2,,180324,8.8,W,D*1C
$PSSN,HRP,075503.50,180324,188.090,,-2.582,1.301,,1.357,19,2,8.837,W*37
$GNRMC,075504.00,A,3737.7556104,N,12704.7384955,E,0.2,158.7,180324,8.8,W,D*3F
$PSSN,HRP,075504.00,180324,189.216,,-16.684,1.274,,1.306,19,2,8.837,W*0F
$GNRMC,075504.50,A,3737.7556640,N,12704.7384312,E,0.1,,180324,8.8,W,D*12
$PSSN,HRP,075504.50,180324,188.414,,-0.932,1.251,,1.319,18,2,8.837,W*32
$GNRMC,075505.00,A,3737.7556683,N,12704.7384381,E,0.1,,180324,8.8,W,D*13
$PSSN,HRP,075505.00,180324,189.569,,2.455,1.159,,1.291,18,2,8.837,W*15
$GNRMC,075505.50,A,3737.7556411,N,12704.7384759,E,0.5,,180324,8.8,W,D*1A
$PSSN,HRP,075505.50,180324,188.602,,-8.563,1.373,,1.415,18,2,8.837,W*3C
$GNRMC,075506.00,A,3737.7556352,N,12704.7384823,E,0.7,,180324,8.8,W,D*1C
$PSSN,HRP,075506.00,180324,187.944,,-11.361,1.375,,1.392,18,2,8.837,W*0A
$GNRMC,075506.50,A,3737.7556686,N,12704.7384458,E,0.1,,180324,8.8,W,D*13
$PSSN,HRP,075506.50,180324,187.366,,0.166,1.248,,1.391,17,2,8.837,W*1E
$GNRMC,075507.00,A,3737.7556688,N,12704.7384501,E,0.0,,180324,8.8,W,D*15
$PSSN,HRP,075507.00,180324,187.916,,0.336,1.312,,1.599,17,2,8.837,W*10
$GNRMC,075507.50,A,3737.7556164,N,12704.7384734,E,0.6,161.8,180324,8.8,W,D*37
$PSSN,HRP,075507.50,180324,188.460,,-16.392,1.571,,1.787,18,2,8.837,W*03
$GNRMC,075508.00,A,3737.7556610,N,12704.7384499,E,0.4,,180324,8.8,W,D*1F
$PSSN,HRP,075508.00,180324,186.793,,-3.591,1.426,,1.569,18,2,8.837,W*38
$GNRMC,075508.50,A,3737.7556710,N,12704.7384689,E,0.1,,180324,8.8,W,D*1D
$PSSN,HRP,075508.50,180324,186.835,,-0.011,1.282,,1.505,17,2,8.837,W*3D
$GNRMC,075509.00,A,3737.7556547,N,12704.7384797,E,0.3,,180324,8.8,W,D*15
$PSSN,HRP,075509.00,180324,187.326,,-6.769,1.442,,1.618,17,2,8.837,W*3A
$GNRMC,075509.50,A,3737.7556216,N,12704.7384888,E,0.2,158.7,180324,8.8,W,D*36
$PSSN,HRP,075509.50,180324,188.214,,-15.713,1.437,,1.610,18,2,8.837,W*0A
$GNRMC,075510.00,A,3737.7556636,N,12704.7384789,E,0.1,,180324,8.8,W,D*15
$PSSN,HRP,075510.00,180324,188.215,,-1.316,1.340,,1.537,18,2,8.837,W*33
$GNRMC,075510.50,A,3737.7556720,N,12704.7384706,E,0.0,,180324,8.8,W,D*10
$PSSN,HRP,075510.50,180324,188.024,,0.026,1.243,,1.467,18,2,8.837,W*1C
$GNRMC,075511.00,A,3737.7556361,N,12704.7384836,E,0.6,,180324,8.8,W,D*1F
$PSSN,HRP,075511.00,180324,188.207,,-12.727,1.433,,1.523,18,2,8.837,W*03
$GNRMC,075511.50,A,3737.7556475,N,12704.7384512,E,0.6,,180324,8.8,W,D*13
$PSSN,HRP,075511.50,180324,188.082,,-7.387,1.409,,1.513,18,2,8.837,W*39
$GNRMC,075512.00,A,3737.7556663,N,12704.7384559,E,0.0,,180324,8.8,W,D*19
$PSSN,HRP,075512.00,180324,188.589,,0.645,1.198,,1.392,18,2,8.837,W*12
$GNRMC,075512.50,A,3737.7556643,N,12704.7384878,E,0.1,,180324,8.8,W,D*11
$PSSN,HRP,075512.50,180324,188.465,,-0.281,1.244,,1.439,17,2,8.837,W*3E
$GNRMC,075513.00,A,3737.7556127,N,12704.7385063,E,0.4,161.4,180324,8.8,W,D*3A
$PSSN,HRP,075513.00,180324,189.168,,-17.303,1.446,,1.585,17,2,8.837,W*0C
$GNRMC,075513.50,A,3737.7556668,N,12704.7384454,E,0.3,,180324,8.8,W,D*19
$PSSN,HRP,075513.50,180324,189.128,,-0.553,1.442,,1.628,17,2,8.837,W*38
$GNRMC,075514.00,A,3737.7556718,N,12704.7384460,E,0.1,,180324,8.8,W,D*18
$PSSN,HRP,075514.00,180324,189.453,,1.992,1.264,,1.531,17,2,8.837,W*17
$GNRMC,075514.50,A,3737.7556257,N,12704.7384798,E,0.6,185.7,180324,8.8,W,D*35
$PSSN,HRP,075514.50,180324,189.416,,-13.245,1.475,,1.625,17,2,8.837,W*0C
$GNRMC,075515.00,A,3737.7556446,N,12704.7384776,E,0.7,,180324,8.8,W,D*13
$PSSN,HRP,075515.00,180324,189.348,,-7.882,1.458,,1.606,17,2,8.837,W*3E
$GNRMC,075515.50,A,3737.7556661,N,12704.7384734,E,0.1,,180324,8.8,W,D*11
$PSSN,HRP,075515.50,180324,188.590,,0.475,1.266,,1.501,17,2,8.837,W*18
$GNRMC,075516.00,A,3737.7556604,N,12704.7384795,E,0.1,,180324,8.8,W,D*1F
$PSSN,HRP,075516.00,180324,188.715,,-1.420,1.284,,1.557,17,2,8.837,W*32
$GNRMC,075516.50,A,3737.7556103,N,12704.7384920,E,0.3,168.1,180324,8.8,W,D*38
$PSSN,HRP,075516.50,180324,189.398,,-17.655,1.439,,1.611,17,2,8.837,W*01
$GNRMC,075517.00,A,3737.7556606,N,12704.7384746,E,0.3,,180324,8.8,W,D*10
$PSSN,HRP,075517.00,180324,188.315,,-3.023,1.425,,1.573,17,2,8.837,W*39
$GNRMC,075517.50,A,3737.7556662,N,12704.7384728,E,0.1,,180324,8.8,W,D*1D
$PSSN,HRP,075517.50,180324,188.418,,0.108,1.257,,1.491,17,2,8.837,W*1E
$GNRMC,075518.00,A,3737.7556395,N,12704.7384849,E,0.5,,180324,8.8,W,D*16
$PSSN,HRP,075518.00,180324,189.689,,-9.233,1.466,,1.641,17,2,8.837,W*3B
$GNRMC,075518.50,A,3737.7556158,N,12704.7384829,E,0.3,,180324,8.8,W,D*10
$PSSN,HRP,075518.50,180324,189.415,,-15.468,1.469,,1.635,17,2,8.837,W*00
$GNRMC,075519.00,A,3737.7556486,N,12704.7384787,E,0.2,,180324,8.8,W,D*18
$PSSN,HRP,075519.00,180324,189.090,,-1.812,1.355,,1.563,17,2,8.837,W*31
$GNRMC,075519.50,A,3737.7556555,N,12704.7384761,E,0.1,,180324,8.8,W,D*19
$PSSN,HRP,075519.50,180324,189.272,,-0.114,1.264,,1.529,18,2,8.837,W*36
$GNRMC,075520.00,A,3737.7556340,N,12704.7384677,E,0.4,,180324,8.8,W,D*17
$PSSN,HRP,075520.00,180324,189.743,,-8.693,1.336,,1.597,18,2,8.837,W*3D
$GNRMC,075520.50,A,3737.7556198,N,12704.7384817,E,0.5,,180324,8.8,W,D*1C
$PSSN,HRP,075520.50,180324,189.911,,-12.830,1.298,,1.428,17,2,8.837,W*02
$GNRMC,075521.00,A,3737.7556517,N,12704.7384784,E,0.0,,180324,8.8,W,D*1B
$PSSN,HRP,075521.00,180324,190.021,,-0.010,0.885,,1.009,17,2,8.837,W*3D
$GNRMC,075521.50,A,3737.7556551,N,12704.7384687,E,0.1,,180324,8.8,W,D*1F
$PSSN,HRP,075521.50,180324,189.722,,0.579,0.949,,1.093,18,2,8.837,W*1E
$GNRMC,075522.00,A,3737.7556283,N,12704.7384647,E,0.5,,180324,8.8,W,D*19
$PSSN,HRP,075522.00,180324,189.874,,-10.096,1.373,,1.415,18,2,8.837,W*04
$GNRMC,075522.50,A,3737.7556170,N,12704.7384758,E,0.4,,180324,8.8,W,D*1D
$PSSN,HRP,075522.50,180324,189.802,,-13.066,1.536,,1.584,17,2,8.837,W*0D
$GNRMC,075523.00,A,3737.7556514,N,12704.7384688,E,0.1,,180324,8.8,W,D*16
$PSSN,HRP,075523.00,180324,188.990,,0.152,1.319,,1.536,17,2,8.837,W*19
$GNRMC,075523.50,A,3737.7556580,N,12704.7384750,E,0.0,,180324,8.8,W,D*1B
$PSSN,HRP,075523.50,180324,188.809,,0.635,1.264,,1.522,18,2,8.837,W*1A
$GNRMC,075524.00,A,3737.7556321,N,12704.7384849,E,0.5,,180324,8.8,W,D*16
$PSSN,HRP,075524.00,180324,189.410,,-9.836,1.462,,1.639,18,2,8.837,W*3D
$GNRMC,075524.50,A,3737.7556149,N,12704.7384750,E,0.5,,180324,8.8,W,D*18
$PSSN,HRP,075524.50,180324,189.513,,-13.040,1.436,,1.556,18,2,8.837,W*03
$GNRMC,075525.00,A,3737.7556501,N,12704.7384674,E,0.0,,180324,8.8,W,D*16
$PSSN,HRP,075525.00,180324,190.136,,0.715,1.215,,1.354,18,2,8.837,W*17
$GNRMC,075525.50,A,3737.7556577,N,12704.7384724,E,0.0,,180324,8.8,W,D*16
$PSSN,HRP,075525.50,180324,189.848,,0.881,1.189,,1.330,18,2,8.837,W*1C
$GNRMC,075526.00,A,3737.7556305,N,12704.7384799,E,0.5,,180324,8.8,W,D*10
$PSSN,HRP,075526.00,180324,190.083,,-9.736,1.383,,1.438,18,2,8.837,W*3D
$GNRMC,075526.50,A,3737.7556200,N,12704.7384700,E,0.6,,180324,8.8,W,D*12
$PSSN,HRP,075526.50,180324,189.572,,-12.417,1.380,,1.423,18,2,8.837,W*08
$GNRMC,075527.00,A,3737.7556526,N,12704.7384636,E,0.2,,180324,8.8,W,D*15
$PSSN,HRP,075527.00,180324,189.802,,0.705,1.191,,1.330,18,2,8.837,W*1F
$GNRMC,075527.50,A,3737.7556508,N,12704.7384720,E,0.1,,180324,8.8,W,D*19
$PSSN,HRP,075527.50,180324,189.356,,-1.576,1.208,,1.364,19,2,8.837,W*39
$GNRMC,075528.00,A,3737.7556007,N,12704.7384847,E,0.2,170.6,180324,8.8,W,D*3A
$PSSN,HRP,075528.00,180324,189.356,,-18.541,1.297,,1.378,19,2,8.837,W*04
$GNRMC,075528.50,A,3737.7556394,N,12704.7384287,E,0.3,,180324,8.8,W,D*1F
$PSSN,HRP,075528.50,180324,190.090,,-5.362,1.381,,1.468,18,2,8.837,W*3A
$GNRMC,075529.00,A,3737.7556525,N,12704.7384309,E,0.0,,180324,8.8,W,D*13
$PSSN,HRP,075529.00,180324,190.354,,1.705,1.183,,1.329,18,2,8.837,W*1B
$GNRMC,075529.50,A,3737.7556342,N,12704.7384665,E,0.4,,180324,8.8,W,D*1A
$PSSN,HRP,075529.50,180324,189.828,,-7.653,1.350,,1.404,18,2,8.837,W*3B
$GNRMC,075530.00,A,3737.7556018,N,12704.7384858,E,0.4,,180324,8.8,W,D*1B
$PSSN,HRP,075530.00,180324,189.054,,-17.486,1.319,,1.346,18,2,8.837,W*02
$GNRMC,075530.50,A,3737.7556501,N,12704.7384463,E,0.1,,180324,8.8,W,D*12
$PSSN,HRP,075530.50,180324,189.424,,-1.824,1.281,,1.393,17,2,8.837,W*30
$GNRMC,075531.00,A,3737.7556594,N,12704.7384484,E,0.1,,180324,8.8,W,D*13
$PSSN,HRP,075531.00,180324,190.337,,2.094,1.251,,1.406,17,2,8.837,W*12
$GNRMC,075531.50,A,3737.7556259,N,12704.7384837,E,0.7,,180324,8.8,W,D*12
$PSSN,HRP,075531.50,180324,190.348,,-12.154,1.488,,1.550,18,2,8.837,W*01
$GNRMC,075532.00,A,3737.7556284,N,12704.7384872,E,0.7,,180324,8.8,W,D*15
$PSSN,HRP,075532.00,180324,189.699,,-12.710,1.457,,1.489,18,2,8.837,W*07
$GNRMC,075532.50,A,3737.7556626,N,12704.7384469,E,0.2,,180324,8.8,W,D*1F
$PSSN,HRP,075532.50,180324,188.893,,0.360,1.273,,1.387,18,2,8.837,W*13
$GNRMC,075533.00,A,3737.7556590,N,12704.7384360,E,0.1,,180324,8.8,W,D*18
$PSSN,HRP,075533.00,180324,189.282,,1.725,1.174,,1.347,18,2,8.837,W*10
$GNRMC,075533.50,A,3737.7556588,N,12704.7384665,E,0.1,,180324,8.8,W,D*14
$PSSN,HRP,075533.50,180324,188.602,,1.262,1.149,,1.297,19,2,8.837,W*1D
$GNRMC,075534.00,A,3737.7556581,N,12704.7384721,E,0.2,,180324,8.8,W,D*1D
$PSSN,HRP,075534.00,180324,188.723,,0.433,1.147,,1.258,19,2,8.837,W*13
$GNRMC,075534.50,A,3737.7556606,N,12704.7384571,E,0.1,,180324,8.8,W,D*10
$PSSN,HRP,075534.50,180324,188.096,,0.460,1.132,,1.244,18,2,8.837,W*17
$GNRMC,075535.00,A,3737.7556602,N,12704.7384583,E,0.1,,180324,8.8,W,D*1D
$PSSN,HRP,075535.00,180324,187.932,,0.476,1.138,,1.265,18,2,8.837,W*15
$GNRMC,075535.50,A,3737.7556626,N,12704.7384645,E,0.1,,180324,8.8,W,D*17
$PSSN,HRP,075535.50,180324,187.918,,0.309,1.039,,1.233,17,2,8.837,W*1B
$GNRMC,075536.00,A,3737.7556652,N,12704.7384626,E,0.2,,180324,8.8,W,D*14
$PSSN,HRP,075536.00,180324,187.329,,0.251,0.904,,1.131,17,2,8.837,W*1E
$GNRMC,075536.50,A,3737.7556609,N,12704.7384556,E,0.0,,180324,8.8,W,D*19
$PSSN,HRP,075536.50,180324,188.149,,0.312,0.952,,1.151,18,2,8.837,W*1C
$GNRMC,075537.00,A,3737.7556628,N,12704.7384578,E,0.1,,180324,8.8,W,D*13
$PSSN,HRP,075537.00,180324,188.630,,1.043,1.012,,1.138,17,2,8.837,W*1B
$GNRMC,075537.50,A,3737.7556638,N,12704.7384755,E,0.4,,180324,8.8,W,D*1F
$PSSN,HRP,075537.50,180324,188.897,,0.825,1.088,,1.152,18,2,8.837,W*14
$GNRMC,075538.00,A,3737.7556658,N,12704.7384793,E,0.0,,180324,8.8,W,D*1D
$PSSN,HRP,075538.00,180324,188.375,,1.192,1.020,,1.143,18,2,8.837,W*1F
$GNRMC,075538.50,A,3737.7556741,N,12704.7384765,E,0.2,,180324,8.8,W,D*1A
$PSSN,HRP,075538.50,180324,189.071,,1.662,0.937,,1.056,19,2,8.837,W*1E
$GNRMC,075539.00,A,3737.7557339,N,12704.7385113,E,0.5,23.8,180324,8.8,W,D*02
$PSSN,HRP,075539.00,180324,192.687,,0.379,0.823,,0.934,17,2,8.837,W*17
$GNRMC,075539.50,A,3737.7557603,N,12704.7385058,E,0.2,16.6,180324,8.8,W,D*0A
$PSSN,HRP,075539.50,180324,191.385,,12.825,1.045,,1.226,11,2,8.837,W*21
$GNRMC,075540.00,A,3737.7557522,N,12704.7384925,E,0.3,,180324,8.8,W,D*1D
$PSSN,HRP,075540.00,180324,189.973,,3.833,1.480,,1.841,11,2,8.837,W*11
$GNRMC,075540.50,A,3737.7557413,N,12704.7385051,E,0.1,,180324,8.8,W,D*12
$PSSN,HRP,075540.50,180324,191.267,,-2.060,1.766,,2.269,12,2,8.837,W*3A
$GNRMC,075541.00,A,3737.7557411,N,12704.7385093,E,0.0,,180324,8.8,W,D*1B
$PSSN,HRP,075541.00,180324,191.131,,0.017,2.004,,2.668,12,2,8.837,W*14
$GNRMC,075541.50,A,3737.7557678,N,12704.7385070,E,0.1,,180324,8.8,W,D*1F
$PSSN,HRP,075541.50,180324,189.642,,13.212,2.179,,2.834,12,2,8.837,W*22
$GNRMC,075542.00,A,3737.7557457,N,12704.7384975,E,0.2,,180324,8.8,W,D*18
$PSSN,HRP,075542.00,180324,191.171,,0.128,1.972,,2.502,12,2,8.837,W*1A
$GNRMC,075542.50,A,3737.7557334,N,12704.7385073,E,0.1,,180324,8.8,W,D*12
$PSSN,HRP,075542.50,180324,191.437,,-1.465,1.953,,2.482,12,2,8.837,W*32
$GNRMC,075543.00,A,3737.7557460,N,12704.7385072,E,0.3,,180324,8.8,W,D*13
$PSSN,HRP,075543.00,180324,191.379,,6.143,2.023,,2.578,12,2,8.837,W*19
$GNRMC,075543.50,A,3737.7557625,N,12704.7384983,E,0.1,,180324,8.8,W,D*11
$PSSN,HRP,075543.50,180324,190.417,,14.754,1.992,,2.435,13,2,8.837,W*28
$GNRMC,075544.00,A,3737.7557373,N,12704.7384946,E,0.2,,180324,8.8,W,D*1F
$PSSN,HRP,075544.00,180324,192.063,,0.460,1.758,,1.917,13,2,8.837,W*18
$GNRMC,075544.50,A,3737.7557263,N,12704.7385005,E,0.0,,180324,8.8,W,D*17
$PSSN,HRP,075544.50,180324,191.443,,-0.854,1.769,,1.858,13,2,8.837,W*36
$GNRMC,075545.00,A,3737.7557372,N,12704.7385021,E,0.3,,180324,8.8,W,D*17
$PSSN,HRP,075545.00,180324,191.662,,6.550,1.823,,1.951,13,2,8.837,W*18
$GNRMC,075545.50,A,3737.7557554,N,12704.7385033,E,0.1,,180324,8.8,W,D*11
$PSSN,HRP,075545.50,180324,190.397,,14.328,1.840,,1.951,14,2,8.837,W*2B
$GNRMC,075546.00,A,3737.7557329,N,12704.7385050,E,0.1,,180324,8.8,W,D*1E
$PSSN,HRP,075546.00,180324,191.646,,1.076,1.735,,1.887,14,2,8.837,W*1E
$GNRMC,075546.50,A,3737.7557268,N,12704.7385071,E,0.0,,180324,8.8,W,D*1D
$PSSN,HRP,075546.50,180324,191.376,,-0.582,1.710,,1.846,14,2,8.837,W*35
$GNRMC,075547.00,A,3737.7557434,N,12704.7385107,E,0.3,,180324,8.8,W,D*15
$PSSN,HRP,075547.00,180324,189.872,,10.609,1.795,,1.921,14,2,8.837,W*26
$GNRMC,075547.50,A,3737.7557539,N,12704.7385017,E,0.2,,180324,8.8,W,D*1D
$PSSN,HRP,075547.50,180324,189.619,,14.479,1.802,,1.915,14,2,8.837,W*27
$GNRMC,075548.00,A,3737.7557303,N,12704.7385027,E,0.1,,180324,8.8,W,D*18
$PSSN,HRP,075548.00,180324,191.110,,0.995,1.708,,1.855,14,2,8.837,W*10
$GNRMC,075548.50,A,3737.7557265,N,12704.7385108,E,0.0,,180324,8.8,W,D*11
$PSSN,HRP,075548.50,180324,191.360,,0.006,1.703,,1.845,14,2,8.837,W*19
$GNRMC,075549.00,A,3737.7557472,N,12704.7385160,E,0.2,,180324,8.8,W,D*19
$PSSN,HRP,075549.00,180324,191.205,,13.099,1.808,,1.901,14,2,8.837,W*2E
$GNRMC,075549.50,A,3737.7557476,N,12704.7385088,E,0.3,,180324,8.8,W,D*1E
$PSSN,HRP,075549.50,180324,191.653,,10.197,1.781,,1.899,14,2,8.837,W*2E
$GNRMC,075550.00,A,3737.7557312,N,12704.7385075,E,0.0,,180324,8.8,W,D*17
$PSSN,HRP,075550.00,180324,192.576,,0.846,1.697,,1.835,14,2,8.837,W*10
$GNRMC,075550.50,A,3737.7557238,N,12704.7385170,E,0.0,,180324,8.8,W,D*1F
$PSSN,HRP,075550.50,180324,191.755,,0.041,1.699,,1.838,14,2,8.837,W*19
$GNRMC,075551.00,A,3737.7557422,N,12704.7385242,E,0.4,,180324,8.8,W,D*10
$PSSN,HRP,075551.00,180324,191.341,,11.467,1.815,,1.908,14,2,8.837,W*24
$GNRMC,075551.50,A,3737.7557472,N,12704.7385040,E,0.3,,180324,8.8,W,D*17
$PSSN,HRP,075551.50,180324,191.473,,10.520,1.788,,1.899,14,2,8.837,W*26
$GNRMC,075552.00,A,3737.7557299,N,12704.7385033,E,0.0,,180324,8.8,W,D*15
$PSSN,HRP,075552.00,180324,192.136,,0.661,1.707,,1.854,14,2,8.837,W*16
$GNRMC,075552.50,A,3737.7557272,N,12704.7384904,E,0.1,,180324,8.8,W,D*18
$PSSN,HRP,075552.50,180324,191.715,,0.083,1.715,,1.856,14,2,8.837,W*1C
$GNRMC,075553.00,A,3737.7557443,N,12704.7384931,E,0.2,,180324,8.8,W,D*1D
$PSSN,HRP,075553.00,180324,191.666,,11.212,1.789,,1.900,14,2,8.837,W*20
$GNRMC,075553.50,A,3737.7557462,N,12704.7384960,E,0.2,,180324,8.8,W,D*1F
$PSSN,HRP,075553.50,180324,191.472,,10.367,1.765,,1.884,14,2,8.837,W*2F
$GNRMC,075554.00,A,3737.7557296,N,12704.7384965,E,0.0,,180324,8.8,W,D*17
$PSSN,HRP,075554.00,180324,191.522,,0.604,1.682,,1.829,14,2,8.837,W*17
$GNRMC,075554.50,A,3737.7557280,N,12704.7384930,E,0.0,,180324,8.8,W,D*15
$PSSN,HRP,075554.50,180324,192.001,,0.660,1.683,,1.829,14,2,8.837,W*16
$GNRMC,075555.00,A,3737.7557404,N,12704.7384988,E,0.3,,180324,8.8,W,D*1B
$PSSN,HRP,075555.00,180324,193.345,,8.878,1.757,,1.867,14,2,8.837,W*1D
$GNRMC,075555.50,A,3737.7557509,N,12704.7385032,E,0.2,,180324,8.8,W,D*1A
$PSSN,HRP,075555.50,180324,192.606,,13.270,1.777,,1.874,14,2,8.837,W*23
$GNRMC,075556.00,A,3737.7557282,N,12704.7384984,E,0.0,,180324,8.8,W,D*1F
$PSSN,HRP,075556.00,180324,192.336,,0.339,1.705,,1.856,14,2,8.837,W*18
$GNRMC,075556.50,A,3737.7557335,N,12704.7384831,E,0.0,,180324,8.8,W,D*18
$PSSN,HRP,075556.50,180324,192.114,,0.206,1.700,,1.853,14,2,8.837,W*12
$GNRMC,075557.00,A,3737.7557510,N,12704.7384955,E,0.2,,180324,8.8,W,D*1C
$PSSN,HRP,075557.00,180324,192.280,,11.653,1.764,,1.859,14,2,8.837,W*24
$GNRMC,075557.50,A,3737.7557511,N,12704.7384899,E,0.3,,180324,8.8,W,D*18
$PSSN,HRP,075557.50,180324,192.952,,9.797,1.728,,1.841,14,2,8.837,W*14
$GNRMC,075558.00,A,3737.7557364,N,12704.7384878,E,0.0,,180324,8.8,W,D*1A
$PSSN,HRP,075558.00,180324,192.716,,0.665,1.666,,1.810,14,2,8.837,W*1A
$GNRMC,075558.50,A,3737.7557342,N,12704.7384763,E,0.0,,180324,8.8,W,D*1E
$PSSN,HRP,075558.50,180324,192.680,,0.122,1.677,,1.821,14,2,8.837,W*17
$GNRMC,075559.00,A,3737.7557499,N,12704.7384792,E,0.2,,180324,8.8,W,D*17
$PSSN,HRP,075559.00,180324,193.243,,10.395,1.751,,1.859,14,2,8.837,W*2C
$GNRMC,075559.50,A,3737.7557492,N,12704.7384874,E,0.3,,180324,8.8,W,D*1F
$PSSN,HRP,075559.50,180324,193.719,,8.272,1.738,,1.852,14,2,8.837,W*16
$GNRMC,075600.00,A,3737.7557367,N,12704.7384813,E,0.0,,180324,8.8,W,D*1A
$PSSN,HRP,075600.00,180324,193.305,,0.006,1.667,,1.809,14,2,8.837,W*19
$GNRMC,075600.50,A,3737.7557347,N,12704.7384909,E,0.0,,180324,8.8,W,D*17
$PSSN,HRP,075600.50,180324,193.073,,0.058,1.657,,1.807,14,2,8.837,W*18
$GNRMC,075601.00,A,3737.7557582,N,12704.7384963,E,0.2,,180324,8.8,W,D*12
$PSSN,HRP,075601.00,180324,193.103,,14.007,1.740,,1.835,14,2,8.837,W*23
$GNRMC,075601.50,A,3737.7557461,N,12704.7384946,E,0.4,,180324,8.8,W,D*1A
$PSSN,HRP,075601.50,180324,194.045,,5.592,1.713,,1.849,14,2,8.837,W*16
$GNRMC,075602.00,A,3737.7557317,N,12704.7384875,E,0.0,,180324,8.8,W,D*1F
$PSSN,HRP,075602.00,180324,193.729,,-0.375,1.659,,1.812,14,2,8.837,W*3C
$GNRMC,075602.50,A,3737.7557320,N,12704.7384806,E,0.0,,180324,8.8,W,D*1A
$PSSN,HRP,075602.50,180324,194.040,,1.154,1.660,,1.824,14,2,8.837,W*14
$GNRMC,075603.00,A,3737.7557589,N,12704.7384858,E,0.1,,180324,8.8,W,D*11
$PSSN,HRP,075603.00,180324,193.800,,14.408,1.724,,1.820,14,2,8.837,W*26
$GNRMC,075603.50,A,3737.7557399,N,12704.7384781,E,0.2,,180324,8.8,W,D*1B
$PSSN,HRP,075603.50,180324,193.856,,2.955,1.684,,1.839,14,2,8.837,W*11
$GNRMC,075604.00,A,3737.7557323,N,12704.7384728,E,0.0,,180324,8.8,W,D*19
$PSSN,HRP,075604.00,180324,192.972,,-1.052,1.661,,1.819,14,2,8.837,W*3C
$GNRMC,075604.50,A,3737.7557356,N,12704.7384887,E,0.1,,180324,8.8,W,D*15
$PSSN,HRP,075604.50,180324,194.334,,2.444,1.686,,1.843,14,2,8.837,W*1C
$GNRMC,075605.00,A,3737.7557588,N,12704.7384922,E,0.0,,180324,8.8,W,D*1B
$PSSN,HRP,075605.00,180324,193.804,,16.288,1.752,,1.829,14,2,8.837,W*20
$GNRMC,075605.50,A,3737.7557384,N,12704.7384750,E,0.2,,180324,8.8,W,D*1D
$PSSN,HRP,075605.50,180324,193.295,,2.578,1.691,,1.842,14,2,8.837,W*19
$GNRMC,075606.00,A,3737.7557298,N,12704.7384768,E,0.0,,180324,8.8,W,D*1E
$PSSN,HRP,075606.00,180324,192.231,,-0.932,1.650,,1.799,14,2,8.837,W*39
$GNRMC,075606.50,A,3737.7557347,N,12704.7384896,E,0.1,,180324,8.8,W,D*17
$PSSN,HRP,075606.50,180324,193.934,,4.119,1.667,,1.818,14,2,8.837,W*19
$GNRMC,075607.00,A,3737.7557544,N,12704.7384925,E,0.1,,180324,8.8,W,D*1F
