$GNRMC,073128.50,A,3737.7555853,N,12704.7385080,E,0.0,,180324,8.8,W,D*19
$PSSN,HRP,073128.50,180324,192.338,,0.571,0.887,,1.020,20,2,8.837,W*18
$GNRMC,073129.00,A,3737.7555848,N,12704.7385038,E,0.0,,180324,8.8,W,D*14
$PSSN,HRP,073129.00,180324,191.927,,0.268,0.885,,1.020,20,2,8.837,W*16
$GNRMC,073129.50,A,3737.7555850,N,12704.7385098,E,0.0,,180324,8.8,W,D*12
$PSSN,HRP,073129.50,180324,192.167,,0.447,0.881,,1.016,20,2,8.837,W*16
$GNRMC,073130.00,A,3737.7555877,N,12704.7385109,E,0.0,,180324,8.8,W,D*13
$PSSN,HRP,073130.00,180324,192.203,,0.657,0.875,,1.010,20,2,8.837,W*14
$GNRMC,073130.50,A,3737.7555869,N,12704.7385055,E,0.0,,180324,8.8,W,D*11
$PSSN,HRP,073130.50,180324,192.229,,0.639,0.876,,1.011,20,2,8.837,W*13
$GNRMC,073131.00,A,3737.7555872,N,12704.7385038,E,0.0,,180324,8.8,W,D*14
$PSSN,HRP,073131.00,180324,192.333,,0.566,0.878,,1.012,20,2,8.837,W*19
$GNRMC,073131.50,A,3737.7555872,N,12704.7385080,E,0.0,,180324,8.8,W,D*12
$PSSN,HRP,073131.50,180324,192.276,,0.579,0.880,,1.015,20,2,8.837,W*12
$GNRMC,073132.00,A,3737.7555856,N,12704.7385144,E,0.0,,180324,8.8,W,D*1B
$PSSN,HRP,073132.00,180324,192.292,,0.605,0.881,,1.018,20,2,8.837,W*1A
$GNRMC,073132.50,A,3737.7555852,N,12704.7385203,E,0.0,,180324,8.8,W,D*1A
$PSSN,HRP,073132.50,180324,192.172,,0.501,0.878,,1.016,20,2,8.837,W*1D
$GNRMC,073133.00,A,3737.7555855,N,12704.7385185,E,0.0,,180324,8.8,W,D*14
$PSSN,HRP,073133.00,180324,192.124,,0.582,0.875,,1.015,20,2,8.837,W*1F
$GNRMC,073133.50,A,3737.7555828,N,12704.7385202,E,0.0,,180324,8.8,W,D*17
$PSSN,HRP,073133.50,180324,192.024,,0.750,0.875,,1.013,20,2,8.837,W*10
$GNRMC,073134.00,A,3737.7555821,N,12704.7385264,E,0.0,,180324,8.8,W,D*1C
$PSSN,HRP,073134.00,180324,191.918,,0.876,0.880,,1.017,20,2,8.837,W*12
$GNRMC,073134.50,A,3737.7555848,N,12704.7385160,E,0.0,,180324,8.8,W,D*11
$PSSN,HRP,073134.50,180324,192.313,,0.645,0.891,,1.029,20,2,8.837,W*16
$GNRMC,073135.00,A,3737.7555868,N,12704.7385016,E,0.0,,180324,8.8,W,D*17
$PSSN,HRP,073135.00,180324,192.527,,0.566,0.903,,1.043,20,2,8.837,W*17
$GNRMC,073135.50,A,3737.7555854,N,12704.7385053,E,0.0,,180324,8.8,W,D*1C
$PSSN,HRP,073135.50,180324,192.306,,0.371,0.902,,1.043,21,2,8.837,W*17
$GNRMC,073136.00,A,3737.7555835,N,12704.7385083,E,0.0,,180324,8.8,W,D*10
$PSSN,HRP,073136.00,180324,192.360,,0.391,0.880,,1.016,21,2,8.837,W*14
$GNRMC,073136.50,A,3737.7555823,N,12704.7385130,E,0.0,,180324,8.8,W,D*1B
$PSSN,HRP,073136.50,180324,192.316,,0.384,0.878,,1.016,20,2,8.837,W*12
$GNRMC,073137.00,A,3737.7555826,N,12704.7385091,E,0.0,,180324,8.8,W,D*10
$PSSN,HRP,073137.00,180324,192.192,,0.547,0.881,,1.018,20,2,8.837,W*19
$GNRMC,073137.50,A,3737.7555834,N,12704.7385128,E,0.0,,180324,8.8,W,D*15
$PSSN,HRP,073137.50,180324,192.032,,0.339,0.888,,1.025,20,2,8.837,W*1F
$GNRMC,073138.00,A,3737.7555839,N,12704.7385176,E,0.0,,180324,8.8,W,D*19
$PSSN,HRP,073138.00,180324,192.264,,0.621,0.885,,1.022,20,2,8.837,W*12
$GNRMC,073138.50,A,3737.7555846,N,12704.7385165,E,0.0,,180324,8.8,W,D*16
$PSSN,HRP,073138.50,180324,192.337,,0.550,0.884,,1.024,20,2,8.837,W*12
$GNRMC,073139.00,A,3737.7555838,N,12704.7385140,E,0.0,,180324,8.8,W,D*1C
$PSSN,HRP,073139.00,180324,192.160,,0.425,0.877,,1.023,20,2,8.837,W*1E
$GNRMC,073139.50,A,3737.7555845,N,12704.7385223,E,0.0,,180324,8.8,W,D*15
$PSSN,HRP,073139.50,180324,191.835,,0.647,0.879,,1.021,20,2,8.837,W*1B
$GNRMC,073140.00,A,3737.7555854,N,12704.7385244,E,0.0,,180324,8.8,W,D*1F
$PSSN,HRP,073140.00,180324,192.297,,0.454,0.894,,1.036,20,2,8.837,W*14
$GNRMC,073140.50,A,3737.7555803,N,12704.7385377,E,0.1,,180324,8.8,W,D*18
$PSSN,HRP,073140.50,180324,191.894,,0.228,0.917,,1.040,17,2,8.837,W*19
$GNRMC,073141.00,A,3737.7555871,N,12704.7385158,E,0.0,,180324,8.8,W,D*17
$PSSN,HRP,073141.00,180324,191.308,,0.002,0.891,,1.021,16,2,8.837,W*10
$GNRMC,073141.50,A,3737.7555875,N,12704.7385105,E,0.2,,180324,8.8,W,D*1C
$PSSN,HRP,073141.50,180324,191.636,,-0.344,0.906,,1.036,20,2,8.837,W*3D
$GNRMC,073142.00,A,3737.7555876,N,12704.7384891,E,0.0,,180324,8.8,W,D*1E
$PSSN,HRP,073142.00,180324,192.353,,-0.430,0.920,,1.060,19,2,8.837,W*37
$GNRMC,073142.50,A,3737.7555831,N,12704.7385049,E,0.1,,180324,8.8,W,D*15
$PSSN,HRP,073142.50,180324,192.066,,-1.357,0.924,,1.067,20,2,8.837,W*39
$GNRMC,073143.00,A,3737.7555605,N,12704.7385026,E,0.1,,180324,8.8,W,D*11
$PSSN,HRP,073143.00,180324,192.015,,-11.741,0.918,,1.056,20,2,8.837,W*06
$GNRMC,073143.50,A,3737.7556009,N,12704.7384798,E,0.5,,180324,8.8,W,D*1A
$PSSN,HRP,073143.50,180324,191.177,,-5.527,0.941,,1.055,19,2,8.837,W*37
$GNRMC,073144.00,A,3737.7556381,N,12704.7384668,E,0.3,19.3,180324,8.8,W,D*06
$PSSN,HRP,073144.00,180324,190.563,,1.138,0.913,,1.023,20,2,8.837,W*1A
$GNRMC,073144.50,A,3737.7556153,N,12704.7384593,E,0.3,,180324,8.8,W,D*1C
$PSSN,HRP,073144.50,180324,190.814,,-6.013,1.037,,1.096,21,2,8.837,W*31
$GNRMC,073145.00,A,3737.7555791,N,12704.7384657,E,0.1,,180324,8.8,W,D*1A
$PSSN,HRP,073145.00,180324,189.783,,-16.300,0.897,,1.018,21,2,8.837,W*09
$GNRMC,073145.50,A,3737.7556362,N,12704.7384802,E,0.3,,180324,8.8,W,D*18
$PSSN,HRP,073145.50,180324,188.812,,-1.753,1.078,,1.141,21,2,8.837,W*3B
$GNRMC,073146.00,A,3737.7556440,N,12704.7384962,E,0.1,,180324,8.8,W,D*1C
$PSSN,HRP,073146.00,180324,189.175,,0.057,1.147,,1.270,21,2,8.837,W*17
$GNRMC,073146.50,A,3737.7555954,N,12704.7384421,E,0.7,205.8,180324,8.8,W,D*3F
$PSSN,HRP,073146.50,180324,188.619,,-14.675,1.453,,1.464,20,2,8.837,W*02
$GNRMC,073147.00,A,3737.7556081,N,12704.7384447,E,0.7,,180324,8.8,W,D*18
$PSSN,HRP,073147.00,180324,189.099,,-11.464,1.313,,1.341,20,2,8.837,W*0D
$GNRMC,073147.50,A,3737.7556440,N,12704.7385050,E,0.2,,180324,8.8,W,D*12
$PSSN,HRP,073147.50,180324,189.021,,-0.269,1.184,,1.251,19,2,8.837,W*36
$GNRMC,073148.00,A,3737.7556361,N,12704.7384956,E,0.3,,180324,8.8,W,D*13
$PSSN,HRP,073148.00,180324,188.398,,-2.816,1.304,,1.325,19,2,8.837,W*34
$GNRMC,073148.50,A,3737.7555782,N,12704.7384808,E,0.2,199.5,180324,8.8,W,D*3D
$PSSN,HRP,073148.50,180324,189.225,,-20.191,1.334,,1.324,20,2,8.837,W*09
$GNRMC,073149.00,A,3737.7556291,N,12704.7384625,E,0.4,,180324,8.8,W,D*10
$PSSN,HRP,073149.00,180324,189.163,,-5.546,1.310,,1.344,20,2,8.837,W*35
$GNRMC,073149.50,A,3737.7556415,N,12704.7385137,E,0.1,,180324,8.8,W,D*1F
$PSSN,HRP,073149.50,180324,188.824,,-0.691,1.193,,1.284,19,2,8.837,W*39
$GNRMC,073150.00,A,3737.7556006,N,12704.7384908,E,0.8,193.7,180324,8.8,W,D*3A
$PSSN,HRP,073150.00,180324,188.858,,-14.632,1.440,,1.437,19,2,8.837,W*06
$GNRMC,073150.50,A,3737.7555979,N,12704.7384606,E,0.7,,180324,8.8,W,D*11
$PSSN,HRP,073150.50,180324,188.986,,-16.542,1.448,,1.447,20,2,8.837,W*02
$GNRMC,073151.00,A,3737.7556547,N,12704.7384792,E,0.3,6.7,180324,8.8,W,D*30
$PSSN,HRP,073151.00,180324,187.744,,-0.833,1.224,,1.281,19,2,8.837,W*3F
$GNRMC,073151.50,A,3737.7556520,N,12704.7384654,E,0.1,,180324,8.8,W,D*12
$PSSN,HRP,073151.50,180324,187.451,,-2.208,1.212,,1.295,19,2,8.837,W*3D
$GNRMC,073152.00,A,3737.7555911,N,12704.7384344,E,0.2,183.1,180324,8.8,W,D*3B
$PSSN,HRP,073152.00,180324,188.694,,-19.406,1.293,,1.329,19,2,8.837,W*02
$GNRMC,073152.50,A,3737.7556525,N,12704.7384215,E,0.4,,180324,8.8,W,D*10
$PSSN,HRP,073152.50,180324,187.165,,-4.493,1.320,,1.374,19,2,8.837,W*30
$GNRMC,073153.00,A,3737.7556642,N,12704.7384576,E,0.0,,180324,8.8,W,D*10
$PSSN,HRP,073153.00,180324,186.727,,-0.277,1.170,,1.280,19,2,8.837,W*30
$GNRMC,073153.50,A,3737.7556184,N,12704.7384379,E,0.7,,180324,8.8,W,D*16
$PSSN,HRP,073153.50,180324,188.374,,-12.151,1.368,,1.397,20,2,8.837,W*0B
$GNRMC,073154.00,A,3737.7556125,N,12704.7384412,E,0.6,,180324,8.8,W,D*14
$PSSN,HRP,073154.00,180324,188.686,,-12.751,1.332,,1.386,20,2,8.837,W*08
$GNRMC,073154.50,A,3737.7556536,N,12704.7384666,E,0.2,,180324,8.8,W,D*12
$PSSN,HRP,073154.50,180324,187.447,,0.129,1.199,,1.293,18,2,8.837,W*17
$GNRMC,073155.00,A,3737.7556471,N,12704.7384589,E,0.2,,180324,8.8,W,D*16
$PSSN,HRP,073155.00,180324,186.918,,-2.257,1.288,,1.331,18,2,8.837,W*3A
$GNRMC,073155.50,A,3737.7555966,N,12704.7384585,E,0.0,188.4,180324,8.8,W,D*3E
$PSSN,HRP,073155.50,180324,188.714,,-17.968,1.282,,1.317,20,2,8.837,W*05
$GNRMC,073156.00,A,3737.7556495,N,12704.7384502,E,0.2,,180324,8.8,W,D*1C
$PSSN,HRP,073156.00,180324,187.638,,-1.807,1.311,,1.350,20,2,8.837,W*34
$GNRMC,073156.50,A,3737.7556595,N,12704.7384761,E,0.1,,180324,8.8,W,D*1C
$PSSN,HRP,073156.50,180324,188.161,,0.220,1.166,,1.285,19,2,8.837,W*17
$GNRMC,073157.00,A,3737.7556130,N,12704.7384440,E,0.8,191.0,180324,8.8,W,D*3D
$PSSN,HRP,073157.00,180324,189.167,,-14.358,1.376,,1.408,19,2,8.837,W*02
$GNRMC,073157.50,A,3737.7556203,N,12704.7384510,E,0.8,,180324,8.8,W,D*18
$PSSN,HRP,073157.50,180324,188.590,,-13.191,1.359,,1.410,20,2,8.837,W*04
$GNRMC,073158.00,A,3737.7556615,N,12704.7384621,E,0.2,27.6,180324,8.8,W,D*07
$PSSN,HRP,073158.00,180324,187.144,,-0.548,1.196,,1.297,20,2,8.837,W*36
$GNRMC,073158.50,A,3737.7556493,N,12704.7384215,E,0.3,,180324,8.8,W,D*11
$PSSN,HRP,073158.50,180324,187.757,,-5.189,1.316,,1.363,19,2,8.837,W*31
$GNRMC,073159.00,A,3737.7556040,N,12704.7384216,E,0.3,200.4,180324,8.8,W,D*34
$PSSN,HRP,073159.00,180324,188.870,,-16.545,1.297,,1.359,19,2,8.837,W*07
$GNRMC,073159.50,A,3737.7556596,N,12704.7384573,E,0.1,,180324,8.8,W,D*11
$PSSN,HRP,073159.50,180324,186.001,,-0.706,1.272,,1.330,19,2,8.837,W*34
$GNRMC,073200.00,A,3737.7556590,N,12704.7384620,E,0.2,,180324,8.8,W,D*1B
$PSSN,HRP,073200.00,180324,185.744,,-0.724,1.213,,1.296,19,2,8.837,W*31
$GNRMC,073200.50,A,3737.7555947,N,12704.7384386,E,0.5,193.9,180324,8.8,W,D*39
$PSSN,HRP,073200.50,180324,188.045,,-18.728,1.375,,1.364,20,2,8.837,W*0D
$GNRMC,073201.00,A,3737.7556480,N,12704.7384341,E,0.5,346.0,180324,8.8,W,D*30
$PSSN,HRP,073201.00,180324,187.441,,-3.112,1.287,,1.323,20,2,8.837,W*3C
$GNRMC,073201.50,A,3737.7556617,N,12704.7384937,E,0.1,,180324,8.8,W,D*19
$PSSN,HRP,073201.50,180324,187.659,,0.200,1.145,,1.242,20,2,8.837,W*17
$GNRMC,073202.00,A,3737.7556015,N,12704.7384752,E,0.6,189.8,180324,8.8,W,D*37
$PSSN,HRP,073202.00,180324,188.926,,-17.954,1.384,,1.365,20,2,8.837,W*03
$GNRMC,073202.50,A,3737.7556378,N,12704.7384563,E,0.5,,180324,8.8,W,D*1F
$PSSN,HRP,073202.50,180324,188.535,,-9.676,1.353,,1.378,20,2,8.837,W*3E
$GNRMC,073203.00,A,3737.7556643,N,12704.7384895,E,0.1,,180324,8.8,W,D*16
$PSSN,HRP,073203.00,180324,187.190,,-0.839,1.186,,1.257,20,2,8.837,W*34
$GNRMC,073203.50,A,3737.7556492,N,12704.7384558,E,0.2,,180324,8.8,W,D*12
$PSSN,HRP,073203.50,180324,187.459,,-4.476,1.307,,1.326,21,2,8.837,W*3F
$GNRMC,073204.00,A,3737.7556098,N,12704.7384556,E,0.4,,180324,8.8,W,D*16
$PSSN,HRP,073204.00,180324,188.922,,-16.269,1.311,,1.338,21,2,8.837,W*00
$GNRMC,073204.50,A,3737.7556642,N,12704.7384456,E,0.1,,180324,8.8,W,D*16
$PSSN,HRP,073204.50,180324,187.066,,-0.622,1.254,,1.299,20,2,8.837,W*34
$GNRMC,073205.00,A,3737.7556565,N,12704.7384411,E,0.2,,180324,8.8,W,D*14
$PSSN,HRP,073205.00,180324,186.359,,-3.462,1.286,,1.313,20,2,8.837,W*37
$GNRMC,073205.50,A,3737.7556038,N,12704.7384654,E,0.2,182.3,180324,8.8,W,D*39
$PSSN,HRP,073205.50,180324,188.551,,-19.372,1.272,,1.308,20,2,8.837,W*0E
$GNRMC,073206.00,A,3737.7556635,N,12704.7384750,E,0.2,353.6,180324,8.8,W,D*3A
$PSSN,HRP,073206.00,180324,188.068,,-1.781,1.275,,1.349,20,2,8.837,W*34
$GNRMC,073206.50,A,3737.7556683,N,12704.7384753,E,0.1,,180324,8.8,W,D*1F
$PSSN,HRP,073206.50,180324,188.356,,-0.452,1.159,,1.306,20,2,8.837,W*35
$GNRMC,073207.00,A,3737.7556063,N,12704.7384747,E,0.4,187.5,180324,8.8,W,D*36
$PSSN,HRP,073207.00,180324,189.094,,-18.682,1.320,,1.359,20,2,8.837,W*0D
$GNRMC,073207.50,A,3737.7556688,N,12704.7384345,E,0.3,,180324,8.8,W,D*14
$PSSN,HRP,073207.50,180324,187.535,,-2.490,1.286,,1.353,20,2,8.837,W*35
$GNRMC,073208.00,A,3737.7556755,N,12704.7384558,E,0.0,,180324,8.8,W,D*16
$PSSN,HRP,073208.00,180324,187.633,,-0.827,1.146,,1.284,20,2,8.837,W*3C
$GNRMC,073208.50,A,3737.7556062,N,12704.7384437,E,0.6,196.2,180324,8.8,W,D*3C
$PSSN,HRP,073208.50,180324,188.144,,-19.935,1.384,,1.390,20,2,8.837,W*03
$GNRMC,073209.00,A,3737.7556559,N,12704.7384532,E,0.4,,180324,8.8,W,D*11
$PSSN,HRP,073209.00,180324,187.700,,-5.164,1.304,,1.383,20,2,8.837,W*35
$GNRMC,073209.50,A,3737.7556795,N,12704.7384802,E,0.1,,180324,8.8,W,D*1D
$PSSN,HRP,073209.50,180324,188.358,,0.448,1.170,,1.303,21,2,8.837,W*1D
$GNRMC,073210.00,A,3737.7556370,N,12704.7384545,E,0.8,196.9,180324,8.8,W,D*31
$PSSN,HRP,073210.00,180324,189.372,,-14.943,1.389,,1.412,20,2,8.837,W*05
$GNRMC,073210.50,A,3737.7556538,N,12704.7384316,E,0.9,,180324,8.8,W,D*16
$PSSN,HRP,073210.50,180324,188.314,,-8.744,1.351,,1.401,20,2,8.837,W*32
$GNRMC,073211.00,A,3737.7556797,N,12704.7384496,E,0.1,,180324,8.8,W,D*12
$PSSN,HRP,073211.00,180324,187.342,,-0.182,1.148,,1.285,20,2,8.837,W*3E
$GNRMC,073211.50,A,3737.7556478,N,12704.7384432,E,0.6,,180324,8.8,W,D*1C
$PSSN,HRP,073211.50,180324,188.277,,-9.296,1.317,,1.387,21,2,8.837,W*36
$GNRMC,073212.00,A,3737.7556175,N,12704.7384497,E,0.6,,180324,8.8,W,D*1D
$PSSN,HRP,073212.00,180324,188.893,,-17.199,1.354,,1.402,21,2,8.837,W*0E
$GNRMC,073212.50,A,3737.7556776,N,12704.7384235,E,0.1,,180324,8.8,W,D*14
$PSSN,HRP,073212.50,180324,187.300,,-0.911,1.233,,1.338,20,2,8.837,W*34
$GNRMC,073213.00,A,3737.7556787,N,12704.7384321,E,0.1,,180324,8.8,W,D*1A
$PSSN,HRP,073213.00,180324,187.032,,-0.734,1.174,,1.298,20,2,8.837,W*30
$GNRMC,073213.50,A,3737.7556132,N,12704.7384459,E,0.5,189.4,180324,8.8,W,D*31
$PSSN,HRP,073213.50,180324,188.020,,-19.759,1.413,,1.413,21,2,8.837,W*0A
$GNRMC,073214.00,A,3737.7556653,N,12704.7384342,E,0.6,347.6,180324,8.8,W,D*3F
$PSSN,HRP,073214.00,180324,187.628,,-3.603,1.367,,1.417,21,2,8.837,W*3C
$GNRMC,073214.50,A,3737.7556788,N,12704.7384875,E,0.1,,180324,8.8,W,D*1D
$PSSN,HRP,073214.50,180324,188.177,,0.248,1.214,,1.313,21,2,8.837,W*18
$GNRMC,073215.00,A,3737.7556307,N,12704.7384601,E,0.9,192.0,180324,8.8,W,D*3B
$PSSN,HRP,073215.00,180324,188.892,,-15.832,1.363,,1.374,21,2,8.837,W*00
$GNRMC,073215.50,A,3737.7556534,N,12704.7384205,E,0.9,,180324,8.8,W,D*1C
$PSSN,HRP,073215.50,180324,187.602,,-10.624,1.320,,1.365,21,2,8.837,W*06
$GNRMC,073216.00,A,3737.7556831,N,12704.7384482,E,0.1,,180324,8.8,W,D*13
$PSSN,HRP,073216.00,180324,187.467,,-0.708,1.175,,1.272,21,2,8.837,W*3A
$GNRMC,073216.50,A,3737.7556650,N,12704.7384534,E,0.5,,180324,8.8,W,D*17
$PSSN,HRP,073216.50,180324,188.064,,-6.993,1.306,,1.351,21,2,8.837,W*3B
$GNRMC,073217.00,A,3737.7556278,N,12704.7384522,E,0.5,,180324,8.8,W,D*1A
$PSSN,HRP,073217.00,180324,188.409,,-16.680,1.361,,1.384,21,2,8.837,W*05
$GNRMC,073217.50,A,3737.7556863,N,12704.7384496,E,0.3,18.5,180324,8.8,W,D*05
$PSSN,HRP,073217.50,180324,187.768,,-0.314,1.189,,1.278,21,2,8.837,W*32
$GNRMC,073218.00,A,3737.7556859,N,12704.7384489,E,0.0,,180324,8.8,W,D*19
$PSSN,HRP,073218.00,180324,187.090,,-0.474,1.145,,1.257,21,2,8.837,W*34
$GNRMC,073218.50,A,3737.7556287,N,12704.7384489,E,0.6,182.2,180324,8.8,W,D*34
$PSSN,HRP,073218.50,180324,187.794,,-18.301,1.371,,1.365,21,2,8.837,W*0B
$GNRMC,073219.00,A,3737.7556652,N,12704.7384530,E,0.7,,180324,8.8,W,D*19
$PSSN,HRP,073219.00,180324,187.867,,-6.293,1.309,,1.360,21,2,8.837,W*33
$GNRMC,073219.50,A,3737.7556838,N,12704.7384460,E,0.0,,180324,8.8,W,D*1D
$PSSN,HRP,073219.50,180324,187.969,,0.595,1.232,,1.402,20,2,8.837,W*18
$GNRMC,073220.00,A,3737.7556760,N,12704.7384456,E,0.2,,180324,8.8,W,D*17
$PSSN,HRP,073220.00,180324,188.151,,-2.038,1.454,,1.807,20,2,8.837,W*39
$GNRMC,073220.50,A,3737.7556289,N,12704.7384428,E,0.1,188.0,180324,8.8,W,D*35
$PSSN,HRP,073220.50,180324,188.721,,-18.798,1.528,,1.905,21,2,8.837,W*03
$GNRMC,073221.00,A,3737.7556839,N,12704.7384587,E,0.2,,180324,8.8,W,D*18
$PSSN,HRP,073221.00,180324,188.153,,-1.105,1.261,,1.319,21,2,8.837,W*33
$GNRMC,073221.50,A,3737.7556888,N,12704.7384788,E,0.1,,180324,8.8,W,D*19
$PSSN,HRP,073221.50,180324,188.245,,-0.119,1.186,,1.231,23,2,8.837,W*3D
$GNRMC,073222.00,A,3737.7556595,N,12704.7384464,E,0.6,,180324,8.8,W,D*18
$PSSN,HRP,073222.00,180324,188.401,,-10.078,1.313,,1.357,23,2,8.837,W*05
$GNRMC,073222.50,A,3737.7556490,N,12704.7384559,E,0.7,,180324,8.8,W,D*17
$PSSN,HRP,073222.50,180324,188.253,,-12.396,1.313,,1.346,22,2,8.837,W*01
$GNRMC,073223.00,A,3737.7556887,N,12704.7384792,E,0.2,,180324,8.8,W,D*19
$PSSN,HRP,073223.00,180324,188.322,,-0.135,1.130,,1.210,22,2,8.837,W*3B
$GNRMC,073223.50,A,3737.7556785,N,12704.7384562,E,0.3,,180324,8.8,W,D*1D
$PSSN,HRP,073223.50,180324,188.119,,-3.776,1.236,,1.272,23,2,8.837,W*36
$GNRMC,073224.00,A,3737.7556268,N,12704.7384600,E,0.2,178.3,180324,8.8,W,D*3C
$PSSN,HRP,073224.00,180324,188.558,,-18.886,1.225,,1.260,23,2,8.837,W*0E
$GNRMC,073224.50,A,3737.7556882,N,12704.7384554,E,0.3,,180324,8.8,W,D*17
$PSSN,HRP,073224.50,180324,187.881,,-1.050,1.235,,1.260,22,2,8.837,W*36
$GNRMC,073225.00,A,3737.7556901,N,12704.7384548,E,0.1,,180324,8.8,W,D*16
$PSSN,HRP,073225.00,180324,187.353,,-0.473,1.119,,1.195,22,2,8.837,W*36
$GNRMC,073225.50,A,3737.7556276,N,12704.7384421,E,0.8,195.8,180324,8.8,W,D*34
$PSSN,HRP,073225.50,180324,187.256,,-18.702,1.330,,1.296,22,2,8.837,W*02
$GNRMC,073226.00,A,3737.7556564,N,12704.7384317,E,0.7,,180324,8.8,W,D*10
$PSSN,HRP,073226.00,180324,187.292,,-8.802,1.274,,1.299,22,2,8.837,W*3C
$GNRMC,073226.50,A,3737.7556796,N,12704.7384669,E,0.1,,180324,8.8,W,D*10
$PSSN,HRP,073226.50,180324,187.876,,0.418,1.244,,1.454,20,2,8.837,W*1D
$GNRMC,073227.00,A,3737.7556762,N,12704.7384616,E,0.0,,180324,8.8,W,D*16
$PSSN,HRP,073227.00,180324,188.308,,-0.209,1.334,,1.737,20,2,8.837,W*3F
$GNRMC,073227.50,A,3737.7556126,N,12704.7384539,E,0.5,182.3,180324,8.8,W,D*38
$PSSN,HRP,073227.50,180324,189.194,,-20.093,1.669,,2.067,23,2,8.837,W*00
$GNRMC,073228.00,A,3737.7556555,N,12704.7384477,E,0.4,,180324,8.8,W,D*1E
$PSSN,HRP,073228.00,180324,188.077,,-2.794,1.441,,1.749,23,2,8.837,W*37
$GNRMC,073228.50,A,3737.7556729,N,12704.7384832,E,0.1,,180324,8.8,W,D*1A
$PSSN,HRP,073228.50,180324,189.196,,0.325,1.209,,1.468,21,2,8.837,W*14
$GNRMC,073229.00,A,3737.7556482,N,12704.7384630,E,0.5,,180324,8.8,W,D*14
$PSSN,HRP,073229.00,180324,189.524,,-7.717,1.288,,1.335,21,2,8.837,W*34
$GNRMC,073229.50,A,3737.7556289,N,12704.7384533,E,0.6,,180324,8.8,W,D*1F
$PSSN,HRP,073229.50,180324,189.941,,-15.977,1.364,,1.350,21,2,8.837,W*05
$GNRMC,073230.00,A,3737.7556728,N,12704.7384659,E,0.2,,180324,8.8,W,D*17
$PSSN,HRP,073230.00,180324,189.182,,-0.194,1.182,,1.275,21,2,8.837,W*32
$GNRMC,073230.50,A,3737.7556725,N,12704.7384769,E,0.0,,180324,8.8,W,D*1F
$PSSN,HRP,073230.50,180324,189.190,,-0.197,1.151,,1.271,21,2,8.837,W*3D
$GNRMC,073231.00,A,3737.7556187,N,12704.7384528,E,0.6,184.1,180324,8.8,W,D*36
$PSSN,HRP,073231.00,180324,189.410,,-17.029,1.353,,1.370,21,2,8.837,W*06
$GNRMC,073231.50,A,3737.7556621,N,12704.7384406,E,0.5,,180324,8.8,W,D*14
$PSSN,HRP,073231.50,180324,187.904,,-4.722,1.292,,1.340,22,2,8.837,W*37
$GNRMC,073232.00,A,3737.7556771,N,12704.7384687,E,0.1,,180324,8.8,W,D*19
$PSSN,HRP,073232.00,180324,187.649,,-1.246,1.161,,1.259,22,2,8.837,W*33
$GNRMC,073232.50,A,3737.7556466,N,12704.7384537,E,0.6,,180324,8.8,W,D*16
$PSSN,HRP,073232.50,180324,188.144,,-9.774,1.296,,1.343,22,2,8.837,W*3E
$GNRMC,073233.00,A,3737.7556255,N,12704.7384570,E,0.7,,180324,8.8,W,D*16
$PSSN,HRP,073233.00,180324,189.191,,-14.665,1.281,,1.340,20,2,8.837,W*09
$GNRMC,073233.50,A,3737.7556778,N,12704.7384688,E,0.2,,180324,8.8,W,D*18
$PSSN,HRP,073233.50,180324,188.314,,-0.292,1.112,,1.232,20,2,8.837,W*36
$GNRMC,073234.00,A,3737.7556767,N,12704.7384613,E,0.1,,180324,8.8,W,D*15
$PSSN,HRP,073234.00,180324,187.674,,-1.200,1.190,,1.270,20,2,8.837,W*3E
$GNRMC,073234.50,A,3737.7556117,N,12704.7384536,E,0.4,184.4,180324,8.8,W,D*37
$PSSN,HRP,073234.50,180324,188.600,,-20.190,1.395,,1.364,20,2,8.837,W*0D
$GNRMC,073235.00,A,3737.7556660,N,12704.7384739,E,0.2,,180324,8.8,W,D*18
$PSSN,HRP,073235.00,180324,188.161,,-2.099,1.260,,1.341,20,2,8.837,W*3D
$GNRMC,073235.50,A,3737.7556781,N,12704.7384726,E,0.0,,180324,8.8,W,D*1F
$PSSN,HRP,073235.50,180324,189.122,,0.128,1.107,,1.270,21,2,8.837,W*1A
$GNRMC,073236.00,A,3737.7556397,N,12704.7384534,E,0.6,192.8,180324,8.8,W,D*31
$PSSN,HRP,073236.00,180324,189.413,,-12.710,1.297,,1.365,21,2,8.837,W*07
$GNRMC,073236.50,A,3737.7556548,N,12704.7384331,E,0.9,,180324,8.8,W,D*10
$PSSN,HRP,073236.50,180324,188.358,,-8.963,1.277,,1.349,21,2,8.837,W*3A
$GNRMC,073237.00,A,3737.7556842,N,12704.7384664,E,0.1,,180324,8.8,W,D*1E
$PSSN,HRP,073237.00,180324,188.364,,-0.372,1.108,,1.215,21,2,8.837,W*30
$GNRMC,073237.50,A,3737.7556706,N,12704.7384606,E,0.3,,180324,8.8,W,D*12
$PSSN,HRP,073237.50,180324,188.530,,-4.030,1.208,,1.270,22,2,8.837,W*30
$GNRMC,073238.00,A,3737.7556266,N,12704.7384549,E,0.4,,180324,8.8,W,D*14
$PSSN,HRP,073238.00,180324,189.379,,-16.214,1.261,,1.300,21,2,8.837,W*0D
$GNRMC,073238.50,A,3737.7556811,N,12704.7384636,E,0.3,,180324,8.8,W,D*17
$PSSN,HRP,073238.50,180324,188.272,,-0.412,1.094,,1.199,21,2,8.837,W*3E
$GNRMC,073239.00,A,3737.7556708,N,12704.7384623,E,0.2,,180324,8.8,W,D*11
$PSSN,HRP,073239.00,180324,187.266,,-3.583,1.190,,1.253,21,2,8.837,W*3A
$GNRMC,073239.50,A,3737.7556133,N,12704.7384763,E,0.1,184.4,180324,8.8,W,D*3B
$PSSN,HRP,073239.50,180324,188.916,,-19.581,1.190,,1.249,20,2,8.837,W*0F
$GNRMC,073240.00,A,3737.7556735,N,12704.7384890,E,0.3,8.8,180324,8.8,W,D*38
$PSSN,HRP,073240.00,180324,188.899,,-1.011,1.178,,1.257,20,2,8.837,W*3E
$GNRMC,073240.50,A,3737.7556804,N,12704.7384804,E,0.0,,180324,8.8,W,D*10
$PSSN,HRP,073240.50,180324,188.983,,-0.477,1.060,,1.212,21,2,8.837,W*3C
$GNRMC,073241.00,A,3737.7556186,N,12704.7384753,E,0.6,185.1,180324,8.8,W,D*3F
$PSSN,HRP,073241.00,180324,189.740,,-18.000,1.282,,1.295,21,2,8.837,W*04
$GNRMC,073241.50,A,3737.7556721,N,12704.7384510,E,0.4,,180324,8.8,W,D*15
$PSSN,HRP,073241.50,180324,188.184,,-2.900,1.233,,1.276,20,2,8.837,W*3A
$GNRMC,073242.00,A,3737.7556796,N,12704.7384623,E,0.1,,180324,8.8,W,D*19
$PSSN,HRP,073242.00,180324,188.295,,-1.004,1.091,,1.206,20,2,8.837,W*3C
$GNRMC,073242.50,A,3737.7556301,N,12704.7384523,E,0.8,183.5,180324,8.8,W,D*3D
$PSSN,HRP,073242.50,180324,188.526,,-16.773,1.322,,1.328,20,2,8.837,W*01
$GNRMC,073243.00,A,3737.7556598,N,12704.7384523,E,0.8,,180324,8.8,W,D*1E
$PSSN,HRP,073243.00,180324,188.070,,-6.918,1.287,,1.330,20,2,8.837,W*36
$GNRMC,073243.50,A,3737.7556754,N,12704.7384677,E,0.1,,180324,8.8,W,D*12
$PSSN,HRP,073243.50,180324,188.541,,-0.080,1.158,,1.245,21,2,8.837,W*39
$GNRMC,073244.00,A,3737.7556541,N,12704.7384561,E,0.5,,180324,8.8,W,D*16
$PSSN,HRP,073244.00,180324,189.443,,-6.929,1.272,,1.307,21,2,8.837,W*39
$GNRMC,073244.50,A,3737.7556474,N,12704.7384596,E,0.7,,180324,8.8,W,D*1E
$PSSN,HRP,073244.50,180324,189.781,,-12.423,1.290,,1.330,20,2,8.837,W*0A
$GNRMC,073245.00,A,3737.7556808,N,12704.7384678,E,0.1,,180324,8.8,W,D*18
$PSSN,HRP,073245.00,180324,189.596,,-0.039,1.113,,1.228,20,2,8.837,W*36
$GNRMC,073245.50,A,3737.7556758,N,12704.7384678,E,0.0,,180324,8.8,W,D*16
$PSSN,HRP,073245.50,180324,188.984,,-1.216,1.113,,1.235,20,2,8.837,W*3F
$GNRMC,073246.00,A,3737.7556195,N,12704.7384617,E,0.3,178.1,180324,8.8,W,D*3C
$PSSN,HRP,073246.00,180324,187.856,,-20.108,1.294,,1.292,20,2,8.837,W*06
$GNRMC,073246.50,A,3737.7556693,N,12704.7384492,E,0.3,,180324,8.8,W,D*16
$PSSN,HRP,073246.50,180324,187.203,,-2.954,1.301,,1.316,20,2,8.837,W*38
$GNRMC,073247.00,A,3737.7556760,N,12704.7384567,E,0.0,,180324,8.8,W,D*17
$PSSN,HRP,073247.00,180324,187.737,,-1.398,1.118,,1.227,20,2,8.837,W*3E
$GNRMC,073247.50,A,3737.7556286,N,12704.7384788,E,0.8,176.0,180324,8.8,W,D*3A
$PSSN,HRP,073247.50,180324,188.161,,-18.757,1.344,,1.329,20,2,8.837,W*0A
$GNRMC,073248.00,A,3737.7556640,N,12704.7384629,E,0.7,,180324,8.8,W,D*15
$PSSN,HRP,073248.00,180324,188.457,,-6.024,1.288,,1.336,19,2,8.837,W*39
$GNRMC,073248.50,A,3737.7556799,N,12704.7384552,E,0.1,,180324,8.8,W,D*1C
$PSSN,HRP,073248.50,180324,188.074,,-1.255,1.224,,1.424,15,2,8.837,W*34
$GNRMC,073249.00,A,3737.7556419,N,12704.7384256,E,0.7,,180324,8.8,W,D*16
$PSSN,HRP,073249.00,180324,188.141,,-14.110,1.585,,1.968,15,2,8.837,W*08
$GNRMC,073249.50,A,3737.7556443,N,12704.7384580,E,0.9,,180324,8.8,W,D*1E
$PSSN,HRP,073249.50,180324,188.002,,-14.564,1.673,,2.130,17,2,8.837,W*02
$GNRMC,073250.00,A,3737.7556792,N,12704.7384752,E,0.2,29.0,180324,8.8,W,D*0F
$PSSN,HRP,073250.00,180324,187.569,,-1.385,1.383,,1.810,17,2,8.837,W*37
$GNRMC,073250.50,A,3737.7556680,N,12704.7384415,E,0.3,,180324,8.8,W,D*1C
$PSSN,HRP,073250.50,180324,188.171,,-5.991,1.390,,1.627,19,2,8.837,W*3D
$GNRMC,073251.00,A,3737.7556154,N,12704.7384537,E,0.5,183.0,180324,8.8,W,D*35
$PSSN,HRP,073251.00,180324,188.992,,-19.544,1.360,,1.325,19,2,8.837,W*0D
$GNRMC,073251.50,A,3737.7556837,N,12704.7384364,E,0.3,11.0,180324,8.8,W,D*00
$PSSN,HRP,073251.50,180324,187.846,,-0.946,1.291,,1.235,19,2,8.837,W*36
$GNRMC,073252.00,A,3737.7556841,N,12704.7384344,E,0.1,,180324,8.8,W,D*19
$PSSN,HRP,073252.00,180324,187.337,,-1.008,1.148,,1.226,19,2,8.837,W*3A
$GNRMC,073252.50,A,3737.7556176,N,12704.7384535,E,0.7,188.7,180324,8.8,W,D*3F
$PSSN,HRP,073252.50,180324,188.492,,-20.102,1.370,,1.324,19,2,8.837,W*0A
$GNRMC,073253.00,A,3737.7556669,N,12704.7384295,E,0.5,340.3,180324,8.8,W,D*3F
$PSSN,HRP,073253.00,180324,186.443,,-4.118,1.316,,1.324,19,2,8.837,W*31
$GNRMC,073253.50,A,3737.7556844,N,12704.7384811,E,0.1,,180324,8.8,W,D*13
$PSSN,HRP,073253.50,180324,187.521,,-0.356,1.152,,1.228,19,2,8.837,W*33
$GNRMC,073254.00,A,3737.7556205,N,12704.7384789,E,0.8,182.6,180324,8.8,W,D*3A
$PSSN,HRP,073254.00,180324,188.367,,-19.570,1.363,,1.315,19,2,8.837,W*0F
$GNRMC,073254.50,A,3737.7556726,N,12704.7384299,E,0.4,338.8,180324,8.8,W,D*3E
$PSSN,HRP,073254.50,180324,186.765,,-5.152,1.303,,1.308,19,2,8.837,W*31
$GNRMC,073255.00,A,3737.7556874,N,12704.7384526,E,0.1,,180324,8.8,W,D*1A
$PSSN,HRP,073255.00,180324,187.054,,-0.641,1.139,,1.217,19,2,8.837,W*35
$GNRMC,073255.50,A,3737.7556313,N,12704.7384526,E,0.9,182.0,180324,8.8,W,D*38
$PSSN,HRP,073255.50,180324,188.018,,-17.567,1.358,,1.322,19,2,8.837,W*04
$GNRMC,073256.00,A,3737.7556553,N,12704.7384504,E,0.7,,180324,8.8,W,D*17
$PSSN,HRP,073256.00,180324,188.044,,-7.410,1.312,,1.328,18,2,8.837,W*3E
$GNRMC,073256.50,A,3737.7556799,N,12704.7384676,E,0.1,,180324,8.8,W,D*16
$PSSN,HRP,073256.50,180324,188.054,,-0.564,1.231,,1.400,15,2,8.837,W*3F
$GNRMC,073257.00,A,3737.7556576,N,12704.7384591,E,0.5,,180324,8.8,W,D*1F
$PSSN,HRP,073257.00,180324,188.379,,-8.850,1.538,,1.936,15,2,8.837,W*33
$GNRMC,073257.50,A,3737.7556476,N,12704.7384450,E,0.7,,180324,8.8,W,D*15
$PSSN,HRP,073257.50,180324,189.122,,-13.131,1.646,,2.128,17,2,8.837,W*03
$GNRMC,073258.00,A,3737.7556858,N,12704.7384647,E,0.2,,180324,8.8,W,D*1E
$PSSN,HRP,073258.00,180324,188.177,,-1.260,1.381,,1.797,17,2,8.837,W*33
$GNRMC,073258.50,A,3737.7556721,N,12704.7384548,E,0.1,,180324,8.8,W,D*15
$PSSN,HRP,073258.50,180324,187.984,,-2.545,1.337,,1.637,15,2,8.837,W*3A
$GNRMC,073259.00,A,3737.7556153,N,12704.7384428,E,0.1,175.2,180324,8.8,W,D*3A
$PSSN,HRP,073259.00,180324,190.061,,-19.924,1.283,,1.373,15,2,8.837,W*00
$GNRMC,073259.50,A,3737.7556866,N,12704.7384312,E,0.3,,180324,8.8,W,D*13
$PSSN,HRP,073259.50,180324,187.787,,-2.286,1.362,,1.379,17,2,8.837,W*33
$GNRMC,073300.00,A,3737.7556888,N,12704.7384388,E,0.0,,180324,8.8,W,D*1B
$PSSN,HRP,073300.00,180324,187.497,,-1.476,1.246,,1.362,17,2,8.837,W*3E
$GNRMC,073300.50,A,3737.7556333,N,12704.7384430,E,0.9,185.0,180324,8.8,W,D*3A
$PSSN,HRP,073300.50,180324,188.055,,-17.421,1.462,,1.432,16,2,8.837,W*08
$GNRMC,073301.00,A,3737.7556563,N,12704.7384258,E,0.9,,180324,8.8,W,D*17
$PSSN,HRP,073301.00,180324,188.036,,-9.488,1.389,,1.416,16,2,8.837,W*31
$GNRMC,073301.50,A,3737.7556882,N,12704.7384569,E,0.1,,180324,8.8,W,D*1D
$PSSN,HRP,073301.50,180324,187.999,,-0.440,1.236,,1.320,17,2,8.837,W*3C
$GNRMC,073302.00,A,3737.7556564,N,12704.7384339,E,0.6,,180324,8.8,W,D*1A
$PSSN,HRP,073302.00,180324,187.776,,-12.860,1.413,,1.419,17,2,8.837,W*04
$GNRMC,073302.50,A,3737.7556466,N,12704.7384485,E,0.7,,180324,8.8,W,D*1D
$PSSN,HRP,073302.50,180324,188.539,,-14.518,1.400,,1.419,18,2,8.837,W*0E
$GNRMC,073303.00,A,3737.7556816,N,12704.7384696,E,0.2,,180324,8.8,W,D*17
$PSSN,HRP,073303.00,180324,187.918,,-1.474,1.178,,1.256,18,2,8.837,W*32
$GNRMC,073303.50,A,3737.7556852,N,12704.7384681,E,0.1,,180324,8.8,W,D*17
$PSSN,HRP,073303.50,180324,188.197,,-0.903,1.138,,1.232,18,2,8.837,W*3D
$GNRMC,073304.00,A,3737.7556213,N,12704.7384624,E,0.6,178.8,180324,8.8,W,D*3A
$PSSN,HRP,073304.00,180324,188.698,,-20.884,1.355,,1.310,18,2,8.837,W*03
$GNRMC,073304.50,A,3737.7556680,N,12704.7384236,E,0.6,347.4,180324,8.8,W,D*34
$PSSN,HRP,073304.50,180324,187.586,,-5.366,1.293,,1.310,19,2,8.837,W*3F
$GNRMC,073305.00,A,3737.7556810,N,12704.7384272,E,0.1,,180324,8.8,W,D*1A
$PSSN,HRP,073305.00,180324,187.129,,-1.055,1.157,,1.237,19,2,8.837,W*32
$GNRMC,073305.50,A,3737.7556444,N,12704.7384408,E,0.7,,180324,8.8,W,D*1F
$PSSN,HRP,073305.50,180324,187.912,,-13.900,1.331,,1.333,19,2,8.837,W*0A
$GNRMC,073306.00,A,3737.7556419,N,12704.7384417,E,0.9,,180324,8.8,W,D*11
$PSSN,HRP,073306.00,180324,188.835,,-14.236,1.326,,1.337,19,2,8.837,W*0C
$GNRMC,073306.50,A,3737.7556755,N,12704.7384435,E,0.2,,180324,8.8,W,D*14
$PSSN,HRP,073306.50,180324,188.007,,-0.213,1.157,,1.231,19,2,8.837,W*31
$GNRMC,073307.00,A,3737.7556674,N,12704.7384414,E,0.1,,180324,8.8,W,D*12
$PSSN,HRP,073307.00,180324,188.205,,-0.041,1.130,,1.221,19,2,8.837,W*30
$GNRMC,073307.50,A,3737.7556668,N,12704.7384486,E,0.0,,180324,8.8,W,D*10
$PSSN,HRP,073307.50,180324,188.231,,-0.275,1.139,,1.241,18,2,8.837,W*39
$GNRMC,073308.00,A,3737.7556648,N,12704.7384369,E,0.0,,180324,8.8,W,D*1E
$PSSN,HRP,073308.00,180324,188.160,,-0.416,1.154,,1.270,18,2,8.837,W*3E
$GNRMC,073308.50,A,3737.7556635,N,12704.7384596,E,0.1,,180324,8.8,W,D*16
$PSSN,HRP,073308.50,180324,188.490,,-0.326,1.150,,1.274,18,2,8.837,W*35
$GNRMC,073309.00,A,3737.7556651,N,12704.7384551,E,0.2,,180324,8.8,W,D*18
$PSSN,HRP,073309.00,180324,188.601,,-0.369,1.135,,1.251,17,2,8.837,W*3B
$GNRMC,073309.50,A,3737.7556672,N,12704.7384521,E,0.1,,180324,8.8,W,D*18
$PSSN,HRP,073309.50,180324,188.509,,-0.030,1.038,,1.151,19,2,8.837,W*3B
$GNRMC,073310.00,A,3737.7556701,N,12704.7384565,E,0.1,,180324,8.8,W,D*10
$PSSN,HRP,073310.00,180324,188.518,,0.373,0.913,,1.045,18,2,8.837,W*1B
$GNRMC,073310.50,A,3737.7556596,N,12704.7384362,E,0.1,,180324,8.8,W,D*18
$PSSN,HRP,073310.50,180324,187.724,,0.174,0.952,,1.147,17,2,8.837,W*10
$GNRMC,073311.00,A,3737.7556521,N,12704.7384526,E,0.0,,180324,8.8,W,D*17
$PSSN,HRP,073311.00,180324,186.803,,0.074,1.042,,1.399,16,2,8.837,W*17
$GNRMC,073311.50,A,3737.7556643,N,12704.7384530,E,0.0,,180324,8.8,W,D*12
$PSSN,HRP,073311.50,180324,186.524,,-0.679,1.231,,1.673,17,2,8.837,W*3A
$GNRMC,073312.00,A,3737.7556935,N,12704.7384592,E,0.7,15.0,180324,8.8,W,D*0F
$PSSN,HRP,073312.00,180324,185.170,,-1.531,1.528,,1.829,17,2,8.837,W*3A
$GNRMC,073312.50,A,3737.7558368,N,12704.7384954,E,1.3,2.4,180324,8.8,W,D*37
$PSSN,HRP,073312.50,180324,180.296,,-0.124,1.627,,1.798,15,2,8.837,W*3B
$GNRMC,073313.00,A,3737.7560032,N,12704.7385423,E,1.2,13.3,180324,8.8,W,D*0E
$PSSN,HRP,073313.00,180324,180.784,,-0.577,1.379,,1.456,15,2,8.837,W*34
$GNRMC,073313.50,A,3737.7561063,N,12704.7385570,E,0.8,12.2,180324,8.8,W,D*02
$PSSN,HRP,073313.50,180324,180.900,,0.252,1.305,,1.260,14,2,8.837,W*17
$GNRMC,073314.00,A,3737.7561034,N,12704.7385523,E,0.1,13.7,180324,8.8,W,D*09
$PSSN,HRP,073314.00,180324,181.722,,0.722,1.106,,1.138,14,2,8.837,W*17
$GNRMC,073314.50,A,3737.7561034,N,12704.7385482,E,0.0,,180324,8.8,W,D*1C
$PSSN,HRP,073314.50,180324,183.560,,0.607,1.063,,1.135,17,2,8.837,W*1E
$GNRMC,073315.00,A,3737.7561016,N,12704.7385507,E,0.0,,180324,8.8,W,D*14
$PSSN,HRP,073315.00,180324,184.772,,1.013,1.016,,1.139,15,2,8.837,W*12
$GNRMC,073315.50,A,3737.7561010,N,12704.7385447,E,0.0,,180324,8.8,W,D*12
$PSSN,HRP,073315.50,180324,185.092,,0.903,1.054,,1.169,15,2,8.837,W*15
$GNRMC,073316.00,A,3737.7561002,N,12704.7385442,E,0.0,,180324,8.8,W,D*12
$PSSN,HRP,073316.00,180324,185.548,,0.154,1.169,,1.254,15,2,8.837,W*19
$GNRMC,073316.50,A,3737.7561000,N,12704.7385530,E,0.1,,180324,8.8,W,D*10
$PSSN,HRP,073316.50,180324,184.573,,0.531,1.238,,1.312,14,2,8.837,W*17
$GNRMC,073317.00,A,3737.7561006,N,12704.7385514,E,0.0,,180324,8.8,W,D*15
$PSSN,HRP,073317.00,180324,185.109,,1.344,1.109,,1.247,14,2,8.837,W*1E
$GNRMC,073317.50,A,3737.7561011,N,12704.7385526,E,0.0,,180324,8.8,W,D*17
$PSSN,HRP,073317.50,180324,186.317,,1.251,1.030,,1.190,15,2,8.837,W*13
$GNRMC,073318.00,A,3737.7561012,N,12704.7385612,E,0.0,,180324,8.8,W,D*1A
$PSSN,HRP,073318.00,180324,186.647,,1.345,0.949,,1.129,15,2,8.837,W*19
$GNRMC,073318.50,A,3737.7560998,N,12704.7385514,E,0.0,,180324,8.8,W,D*10
$PSSN,HRP,073318.50,180324,186.942,,2.041,0.952,,1.128,15,2,8.837,W*19
$GNRMC,073319.00,A,3737.7561005,N,12704.7385438,E,0.0,,180324,8.8,W,D*17
$PSSN,HRP,073319.00,180324,187.694,,2.601,0.943,,1.112,15,2,8.837,W*13
$GNRMC,073319.50,A,3737.7560267,N,12704.7385528,E,0.1,175.9,180324,8.8,W,D*30
$PSSN,HRP,073319.50,180324,193.138,,1.956,0.948,,1.100,19,2,8.837,W*18
$GNRMC,073320.00,A,3737.7560346,N,12704.7385587,E,0.2,,180324,8.8,W,D*1F
$PSSN,HRP,073320.00,180324,193.279,,14.989,0.979,,0.960,19,2,8.837,W*2A
$GNRMC,073320.50,A,3737.7560233,N,12704.7385650,E,0.3,,180324,8.8,W,D*11
$PSSN,HRP,073320.50,180324,192.302,,4.427,1.115,,1.145,20,2,8.837,W*1C
$GNRMC,073321.00,A,3737.7560182,N,12704.7385643,E,0.0,,180324,8.8,W,D*1D
$PSSN,HRP,073321.00,180324,192.162,,0.689,1.204,,1.271,20,2,8.837,W*19
$GNRMC,073321.50,A,3737.7560318,N,12704.7385592,E,0.3,,180324,8.8,W,D*15
$PSSN,HRP,073321.50,180324,191.689,,12.724,1.372,,1.301,20,2,8.837,W*2E
$GNRMC,073322.00,A,3737.7560199,N,12704.7385583,E,0.4,,180324,8.8,W,D*1F
$PSSN,HRP,073322.00,180324,191.091,,4.956,1.234,,1.277,20,2,8.837,W*18
$GNRMC,073322.50,A,3737.7560174,N,12704.7385584,E,0.0,,180324,8.8,W,D*1A
$PSSN,HRP,073322.50,180324,191.208,,1.229,1.164,,1.258,20,2,8.837,W*12
$GNRMC,073323.00,A,3737.7560278,N,12704.7385597,E,0.3,,180324,8.8,W,D*10
$PSSN,HRP,073323.00,180324,191.563,,8.361,1.213,,1.219,20,2,8.837,W*1E
$GNRMC,073323.50,A,3737.7560467,N,12704.7385680,E,0.1,,180324,8.8,W,D*1A
$PSSN,HRP,073323.50,180324,192.415,,12.466,1.204,,1.180,20,2,8.837,W*26
$GNRMC,073324.00,A,3737.7560337,N,12704.7385595,E,0.0,,180324,8.8,W,D*1C
$PSSN,HRP,073324.00,180324,192.342,,1.603,1.180,,1.281,20,2,8.837,W*1F
$GNRMC,073324.50,A,3737.7560396,N,12704.7385718,E,0.1,,180324,8.8,W,D*14
$PSSN,HRP,073324.50,180324,191.910,,7.810,1.209,,1.252,20,2,8.837,W*12
$GNRMC,073325.00,A,3737.7560492,N,12704.7385789,E,0.3,,180324,8.8,W,D*19
$PSSN,HRP,073325.00,180324,192.523,,13.972,1.234,,1.180,20,2,8.837,W*2B
$GNRMC,073325.50,A,3737.7560314,N,12704.7385660,E,0.1,,180324,8.8,W,D*11
$PSSN,HRP,073325.50,180324,192.482,,1.030,1.200,,1.271,17,2,8.837,W*16
$GNRMC,073326.00,A,3737.7560301,N,12704.7385670,E,0.0,,180324,8.8,W,D*13
$PSSN,HRP,073326.00,180324,192.319,,0.646,1.307,,1.295,17,2,8.837,W*1F
$GNRMC,073326.50,A,3737.7560525,N,12704.7385767,E,0.2,,180324,8.8,W,D*13
$PSSN,HRP,073326.50,180324,192.515,,17.495,1.459,,1.182,19,2,8.837,W*2D
$GNRMC,073327.00,A,3737.7560308,N,12704.7385735,E,0.3,,180324,8.8,W,D*18
$PSSN,HRP,073327.00,180324,192.400,,5.168,1.367,,1.330,19,2,8.837,W*19
$GNRMC,073327.50,A,3737.7560232,N,12704.7385631,E,0.0,,180324,8.8,W,D*13
$PSSN,HRP,073327.50,180324,192.794,,1.228,1.272,,1.329,18,2,8.837,W*1D
$GNRMC,073328.00,A,3737.7560408,N,12704.7385677,E,0.4,,180324,8.8,W,D*10
$PSSN,HRP,073328.00,180324,192.686,,13.032,1.320,,1.257,18,2,8.837,W*21
$GNRMC,073328.50,A,3737.7560380,N,12704.7385681,E,0.3,,180324,8.8,W,D*1C
$PSSN,HRP,073328.50,180324,192.701,,11.077,1.286,,1.271,18,2,8.837,W*20
$GNRMC,073329.00,A,3737.7560207,N,12704.7385634,E,0.0,,180324,8.8,W,D*1B
$PSSN,HRP,073329.00,180324,192.762,,1.072,1.225,,1.330,18,2,8.837,W*18
$GNRMC,073329.50,A,3737.7560197,N,12704.7385573,E,0.0,,180324,8.8,W,D*14
$PSSN,HRP,073329.50,180324,192.666,,3.023,1.209,,1.313,19,2,8.837,W*10
$GNRMC,073330.00,A,3737.7560430,N,12704.7385678,E,0.0,,180324,8.8,W,D*19
$PSSN,HRP,073330.00,180324,192.759,,17.498,1.199,,1.132,19,2,8.837,W*2A
$GNRMC,073330.50,A,3737.7560163,N,12704.7385654,E,0.2,,180324,8.8,W,D*13
$PSSN,HRP,073330.50,180324,193.204,,1.600,1.173,,1.274,19,2,8.837,W*12
$GNRMC,073331.00,A,3737.7560150,N,12704.7385643,E,0.0,,180324,8.8,W,D*13
$PSSN,HRP,073331.00,180324,192.923,,0.433,1.153,,1.263,19,2,8.837,W*1E
$GNRMC,073331.50,A,3737.7560376,N,12704.7385667,E,0.3,,180324,8.8,W,D*15
$PSSN,HRP,073331.50,180324,192.901,,15.797,1.249,,1.156,20,2,8.837,W*25
$GNRMC,073332.00,A,3737.7560282,N,12704.7385703,E,0.4,,180324,8.8,W,D*1D
$PSSN,HRP,073332.00,180324,192.648,,7.574,1.212,,1.237,20,2,8.837,W*17
$GNRMC,073332.50,A,3737.7560160,N,12704.7385641,E,0.1,,180324,8.8,W,D*15
$PSSN,HRP,073332.50,180324,192.811,,1.154,1.155,,1.252,20,2,8.837,W*13
$GNRMC,073333.00,A,3737.7560238,N,12704.7385631,E,0.2,,180324,8.8,W,D*1B
$PSSN,HRP,073333.00,180324,192.604,,8.694,1.184,,1.198,20,2,8.837,W*16
$GNRMC,073333.50,A,3737.7560377,N,12704.7385721,E,0.2,,180324,8.8,W,D*14
$PSSN,HRP,073333.50,180324,193.165,,15.026,1.181,,1.104,21,2,8.837,W*20
$GNRMC,073334.00,A,3737.7560151,N,12704.7385693,E,0.0,,180324,8.8,W,D*1A
$PSSN,HRP,073334.00,180324,193.807,,1.204,1.070,,1.172,21,2,8.837,W*16
$GNRMC,073334.50,A,3737.7560150,N,12704.7385600,E,0.0,,180324,8.8,W,D*14
$PSSN,HRP,073334.50,180324,193.545,,1.600,1.061,,1.161,21,2,8.837,W*1A
$GNRMC,073335.00,A,3737.7560412,N,12704.7385637,E,0.2,,180324,8.8,W,D*15
$PSSN,HRP,073335.00,180324,193.332,,19.390,1.128,,0.998,21,2,8.837,W*2E
$GNRMC,073335.50,A,3737.7560304,N,12704.7385652,E,0.3,,180324,8.8,W,D*12
$PSSN,HRP,073335.50,180324,193.188,,5.241,1.108,,1.146,21,2,8.837,W*10
$GNRMC,073336.00,A,3737.7560263,N,12704.7385660,E,0.1,,180324,8.8,W,D*17
$PSSN,HRP,073336.00,180324,193.471,,0.700,1.075,,1.159,21,2,8.837,W*15
$GNRMC,073336.50,A,3737.7560302,N,12704.7385617,E,0.1,,180324,8.8,W,D*14
$PSSN,HRP,073336.50,180324,192.812,,6.826,1.082,,1.111,21,2,8.837,W*11
$GNRMC,073337.00,A,3737.7560401,N,12704.7385653,E,0.2,,180324,8.8,W,D*17
$PSSN,HRP,073337.00,180324,193.145,,14.296,1.094,,1.047,21,2,8.837,W*28
$GNRMC,073337.50,A,3737.7560249,N,12704.7385532,E,0.1,,180324,8.8,W,D*1F
$PSSN,HRP,073337.50,180324,193.141,,1.329,1.047,,1.143,21,2,8.837,W*13
$GNRMC,073338.00,A,3737.7560241,N,12704.7385554,E,0.0,,180324,8.8,W,D*1C
$PSSN,HRP,073338.00,180324,193.104,,3.866,1.062,,1.132,21,2,8.837,W*1B
$GNRMC,073338.50,A,3737.7560357,N,12704.7385624,E,0.2,,180324,8.8,W,D*19
$PSSN,HRP,073338.50,180324,192.869,,15.327,1.123,,1.047,21,2,8.837,W*23
$GNRMC,073339.00,A,3737.7560154,N,12704.7385601,E,0.0,,180324,8.8,W,D*19
$PSSN,HRP,073339.00,180324,192.721,,1.937,1.077,,1.170,21,2,8.837,W*1F
$GNRMC,073339.50,A,3737.7560129,N,12704.7385589,E,0.0,,180324,8.8,W,D*15
$PSSN,HRP,073339.50,180324,193.294,,1.518,1.065,,1.174,21,2,8.837,W*16
$GNRMC,073340.00,A,3737.7560370,N,12704.7385642,E,0.2,,180324,8.8,W,D*16
$PSSN,HRP,073340.00,180324,193.560,,18.690,1.130,,1.007,21,2,8.837,W*2E
$GNRMC,073340.50,A,3737.7560297,N,12704.7385673,E,0.2,,180324,8.8,W,D*19
$PSSN,HRP,073340.50,180324,192.803,,6.882,1.101,,1.135,21,2,8.837,W*12
$GNRMC,073341.00,A,3737.7560193,N,12704.7385613,E,0.2,,180324,8.8,W,D*1C
$PSSN,HRP,073341.00,180324,192.601,,0.574,1.096,,1.181,21,2,8.837,W*18
$GNRMC,073341.50,A,3737.7560300,N,12704.7385454,E,0.2,,180324,8.8,W,D*10
$PSSN,HRP,073341.50,180324,191.890,,7.688,1.103,,1.128,21,2,8.837,W*11
$GNRMC,073342.00,A,3737.7560368,N,12704.7385420,E,0.1,,180324,8.8,W,D*18
$PSSN,HRP,073342.00,180324,191.324,,17.359,1.094,,1.012,21,2,8.837,W*2C
$GNRMC,073342.50,A,3737.7560215,N,12704.7385484,E,0.0,,180324,8.8,W,D*19
$PSSN,HRP,073342.50,180324,192.033,,3.340,1.049,,1.138,21,2,8.837,W*1B
$GNRMC,073343.00,A,3737.7560192,N,12704.7385444,E,0.0,,180324,8.8,W,D*1D
$PSSN,HRP,073343.00,180324,192.123,,1.041,1.043,,1.154,21,2,8.837,W*1F
$GNRMC,073343.50,A,3737.7560402,N,12704.7385370,E,0.2,,180324,8.8,W,D*16
$PSSN,HRP,073343.50,180324,190.890,,17.508,1.128,,1.030,21,2,8.837,W*29
$GNRMC,073344.00,A,3737.7560270,N,12704.7385352,E,0.3,,180324,8.8,W,D*16
$PSSN,HRP,073344.00,180324,191.183,,8.138,1.069,,1.107,21,2,8.837,W*19
$GNRMC,073344.50,A,3737.7560178,N,12704.7385336,E,0.0,,180324,8.8,W,D*19
$PSSN,HRP,073344.50,180324,191.574,,1.593,1.034,,1.148,21,2,8.837,W*1F
$GNRMC,073345.00,A,3737.7560165,N,12704.7385326,E,0.0,,180324,8.8,W,D*10
$PSSN,HRP,073345.00,180324,191.280,,2.456,1.046,,1.151,21,2,8.837,W*11
$GNRMC,073345.50,A,3737.7560366,N,12704.7385373,E,0.0,,180324,8.8,W,D*14
$PSSN,HRP,073345.50,180324,190.926,,16.074,1.080,,1.031,21,2,8.837,W*2E
$GNRMC,073346.00,A,3737.7560195,N,12704.7385310,E,0.0,,180324,8.8,W,D*19
$PSSN,HRP,073346.00,180324,191.324,,2.404,1.029,,1.140,21,2,8.837,W*13
$GNRMC,073346.50,A,3737.7560194,N,12704.7385313,E,0.0,,180324,8.8,W,D*1E
$PSSN,HRP,073346.50,180324,191.483,,1.729,1.030,,1.144,21,2,8.837,W*1F
$GNRMC,073347.00,A,3737.7560409,N,12704.7385318,E,0.2,,180324,8.8,W,D*12
$PSSN,HRP,073347.00,180324,190.632,,17.172,1.107,,1.026,21,2,8.837,W*2D
$GNRMC,073347.50,A,3737.7560274,N,12704.7385352,E,0.2,,180324,8.8,W,D*15
$PSSN,HRP,073347.50,180324,191.149,,6.361,1.082,,1.129,21,2,8.837,W*10
$GNRMC,073348.00,A,3737.7560187,N,12704.7385315,E,0.0,,180324,8.8,W,D*11
$PSSN,HRP,073348.00,180324,191.489,,1.223,1.050,,1.154,21,2,8.837,W*16
$GNRMC,073348.50,A,3737.7560198,N,12704.7385394,E,0.1,,180324,8.8,W,D*12
$PSSN,HRP,073348.50,180324,191.308,,6.570,1.050,,1.112,21,2,8.837,W*19
$GNRMC,073349.00,A,3737.7560346,N,12704.7385376,E,0.1,,180324,8.8,W,D*1B
$PSSN,HRP,073349.00,180324,191.311,,13.359,1.059,,1.051,21,2,8.837,W*23
$GNRMC,073349.50,A,3737.7560207,N,12704.7385295,E,0.1,,180324,8.8,W,D*16
$PSSN,HRP,073349.50,180324,191.232,,1.477,1.037,,1.148,21,2,8.837,W*1F
$GNRMC,073350.00,A,3737.7560194,N,12704.7385305,E,0.0,,180324,8.8,W,D*1B
$PSSN,HRP,073350.00,180324,191.011,,1.657,1.039,,1.148,21,2,8.837,W*1F
$GNRMC,073350.50,A,3737.7560394,N,12704.7385306,E,0.1,,180324,8.8,W,D*1E
$PSSN,HRP,073350.50,180324,190.822,,15.788,1.077,,1.030,21,2,8.837,W*21
$GNRMC,073351.00,A,3737.7560169,N,12704.7385285,E,0.2,,180324,8.8,W,D*13
$PSSN,HRP,073351.00,180324,191.016,,2.892,1.051,,1.142,21,2,8.837,W*19
$GNRMC,073351.50,A,3737.7560097,N,12704.7385228,E,0.0,,180324,8.8,W,D*13
$PSSN,HRP,073351.50,180324,190.644,,1.439,1.034,,1.146,21,2,8.837,W*15
$GNRMC,073352.00,A,3737.7560161,N,12704.7385263,E,0.1,,180324,8.8,W,D*13
$PSSN,HRP,073352.00,180324,190.598,,5.483,1.046,,1.122,21,2,8.837,W*13
$GNRMC,073352.50,A,3737.7560354,N,12704.7385230,E,0.1,,180324,8.8,W,D*14
$PSSN,HRP,073352.50,180324,190.315,,14.586,1.078,,1.053,21,2,8.837,W*2B
$GNRMC,073353.00,A,3737.7560203,N,12704.7385222,E,0.1,,180324,8.8,W,D*10
$PSSN,HRP,073353.00,180324,190.596,,1.612,1.046,,1.159,21,2,8.837,W*1E
$GNRMC,073353.50,A,3737.7560226,N,12704.7385185,E,0.0,,180324,8.8,W,D*1D
$PSSN,HRP,073353.50,180324,190.248,,1.679,1.043,,1.156,21,2,8.837,W*18
$GNRMC,073354.00,A,3737.7560424,N,12704.7385205,E,0.2,,180324,8.8,W,D*12
$PSSN,HRP,073354.00,180324,189.639,,16.913,1.109,,1.038,21,2,8.837,W*23
$GNRMC,073354.50,A,3737.7560289,N,12704.7385240,E,0.2,,180324,8.8,W,D*17
$PSSN,HRP,073354.50,180324,190.737,,5.875,1.086,,1.136,21,2,8.837,W*1B
$GNRMC,073355.00,A,3737.7560222,N,12704.7385201,E,0.0,,180324,8.8,W,D*15
$PSSN,HRP,073355.00,180324,191.261,,1.508,1.054,,1.155,21,2,8.837,W*11
$GNRMC,073355.50,A,3737.7560268,N,12704.7385278,E,0.1,,180324,8.8,W,D*11
$PSSN,HRP,073355.50,180324,190.597,,9.081,1.084,,1.108,21,2,8.837,W*12
$GNRMC,073356.00,A,3737.7560347,N,12704.7385313,E,0.2,,180324,8.8,W,D*14
$PSSN,HRP,073356.00,180324,190.459,,14.088,1.078,,1.055,21,2,8.837,W*28
$GNRMC,073356.50,A,3737.7560200,N,12704.7385264,E,0.0,,180324,8.8,W,D*10
$PSSN,HRP,073356.50,180324,190.752,,1.428,1.034,,1.143,21,2,8.837,W*11
$GNRMC,073357.00,A,3737.7560184,N,12704.7385192,E,0.0,,180324,8.8,W,D*11
$PSSN,HRP,073357.00,180324,190.340,,1.148,1.051,,1.149,21,2,8.837,W*18
$GNRMC,073357.50,A,3737.7560351,N,12704.7385354,E,0.3,,180324,8.8,W,D*15
$PSSN,HRP,073357.50,180324,190.396,,16.026,1.137,,1.048,20,2,8.837,W*29
$GNRMC,073358.00,A,3737.7560236,N,12704.7385338,E,0.3,,180324,8.8,W,D*15
$PSSN,HRP,073358.00,180324,191.021,,9.078,1.096,,1.118,20,2,8.837,W*16
$GNRMC,073358.50,A,3737.7560176,N,12704.7385193,E,0.0,,180324,8.8,W,D*17
$PSSN,HRP,073358.50,180324,191.009,,1.787,1.061,,1.181,20,2,8.837,W*1E
$GNRMC,073359.00,A,3737.7560164,N,12704.7385171,E,0.0,,180324,8.8,W,D*1C
$PSSN,HRP,073359.00,180324,190.896,,1.675,1.064,,1.199,20,2,8.837,W*15
$GNRMC,073359.50,A,3737.7560384,N,12704.7385191,E,0.3,,180324,8.8,W,D*18
$PSSN,HRP,073359.50,180324,190.496,,18.059,1.157,,1.090,20,2,8.837,W*25
$GNRMC,073400.00,A,3737.7560226,N,12704.7385191,E,0.3,,180324,8.8,W,D*1F
$PSSN,HRP,073400.00,180324,190.823,,7.582,1.084,,1.150,20,2,8.837,W*16
$GNRMC,073400.50,A,3737.7560190,N,12704.7385162,E,0.0,,180324,8.8,W,D*1B
$PSSN,HRP,073400.50,180324,191.281,,1.997,1.037,,1.176,20,2,8.837,W*12
$GNRMC,073401.00,A,3737.7560179,N,12704.7385109,E,0.0,,180324,8.8,W,D*15
$PSSN,HRP,073401.00,180324,191.177,,2.169,1.048,,1.182,20,2,8.837,W*15
$GNRMC,073401.50,A,3737.7560395,N,12704.7385159,E,0.1,,180324,8.8,W,D*14
$PSSN,HRP,073401.50,180324,190.769,,17.906,1.114,,1.052,20,2,8.837,W*29
$GNRMC,073402.00,A,3737.7560221,N,12704.7385154,E,0.2,,180324,8.8,W,D*12
$PSSN,HRP,073402.00,180324,191.558,,4.492,1.052,,1.162,20,2,8.837,W*1D
$GNRMC,073402.50,A,3737.7560187,N,12704.7385178,E,0.0,,180324,8.8,W,D*14
$PSSN,HRP,073402.50,180324,190.677,,1.598,1.043,,1.185,20,2,8.837,W*10
$GNRMC,073403.00,A,3737.7560292,N,12704.7385224,E,0.3,,180324,8.8,W,D*1E
$PSSN,HRP,073403.00,180324,190.399,,11.884,1.129,,1.136,20,2,8.837,W*25
$GNRMC,073403.50,A,3737.7560331,N,12704.7385262,E,0.2,,180324,8.8,W,D*10
$PSSN,HRP,073403.50,180324,190.505,,10.425,1.121,,1.156,20,2,8.837,W*2B
$GNRMC,073404.00,A,3737.7560209,N,12704.7385240,E,0.0,,180324,8.8,W,D*1A
$PSSN,HRP,073404.00,180324,190.625,,1.434,1.064,,1.203,20,2,8.837,W*1B
$GNRMC,073404.50,A,3737.7560201,N,12704.7385237,E,0.0,,180324,8.8,W,D*17
$PSSN,HRP,073404.50,180324,190.668,,1.775,1.048,,1.191,21,2,8.837,W*16
$GNRMC,073405.00,A,3737.7560416,N,12704.7385269,E,0.1,,180324,8.8,W,D*19
$PSSN,HRP,073405.00,180324,190.761,,16.996,1.083,,1.050,21,2,8.837,W*24
$GNRMC,073405.50,A,3737.7560259,N,12704.7385204,E,0.1,,180324,8.8,W,D*1A
$PSSN,HRP,073405.50,180324,191.297,,3.368,1.063,,1.170,21,2,8.837,W*1E
$GNRMC,073406.00,A,3737.7560242,N,12704.7385192,E,0.0,,180324,8.8,W,D*1B
$PSSN,HRP,073406.00,180324,191.126,,1.452,1.044,,1.156,21,2,8.837,W*1C
$GNRMC,073406.50,A,3737.7560285,N,12704.7385239,E,0.3,,180324,8.8,W,D*14
$PSSN,HRP,073406.50,180324,191.149,,11.378,1.109,,1.087,21,2,8.837,W*2B
$GNRMC,073407.00,A,3737.7560300,N,12704.7385186,E,0.3,,180324,8.8,W,D*1B
$PSSN,HRP,073407.00,180324,191.548,,11.252,1.074,,1.080,21,2,8.837,W*2F
$GNRMC,073407.50,A,3737.7560198,N,12704.7385131,E,0.1,,180324,8.8,W,D*13
$PSSN,HRP,073407.50,180324,191.770,,1.683,1.028,,1.148,22,2,8.837,W*15
$GNRMC,073408.00,A,3737.7560195,N,12704.7385126,E,0.1,,180324,8.8,W,D*12
$PSSN,HRP,073408.00,180324,191.755,,4.252,1.042,,1.143,22,2,8.837,W*12
$GNRMC,073408.50,A,3737.7560419,N,12704.7385177,E,0.0,,180324,8.8,W,D*13
$PSSN,HRP,073408.50,180324,190.737,,16.643,1.076,,1.030,21,2,8.837,W*24
$GNRMC,073409.00,A,3737.7560214,N,12704.7385108,E,0.1,,180324,8.8,W,D*15
$PSSN,HRP,073409.00,180324,190.674,,2.336,1.048,,1.158,21,2,8.837,W*16
$GNRMC,073409.50,A,3737.7560209,N,12704.7385093,E,0.0,,180324,8.8,W,D*1E
$PSSN,HRP,073409.50,180324,190.815,,1.611,1.032,,1.155,21,2,8.837,W*19
$GNRMC,073410.00,A,3737.7560385,N,12704.7385086,E,0.2,,180324,8.8,W,D*10
$PSSN,HRP,073410.00,180324,190.354,,16.676,1.111,,1.040,21,2,8.837,W*28
$GNRMC,073410.50,A,3737.7560253,N,12704.7385187,E,0.2,,180324,8.8,W,D*1F
$PSSN,HRP,073410.50,180324,191.063,,5.301,1.080,,1.145,21,2,8.837,W*11
$GNRMC,073411.00,A,3737.7560200,N,12704.7385208,E,0.0,,180324,8.8,W,D*1B
$PSSN,HRP,073411.00,180324,191.600,,1.603,1.048,,1.163,21,2,8.837,W*15
$GNRMC,073411.50,A,3737.7560242,N,12704.7385208,E,0.2,,180324,8.8,W,D*1A
$PSSN,HRP,073411.50,180324,191.181,,10.704,1.087,,1.107,21,2,8.837,W*29
$GNRMC,073412.00,A,3737.7560319,N,12704.7385173,E,0.2,,180324,8.8,W,D*1C
$PSSN,HRP,073412.00,180324,191.083,,14.078,1.071,,1.055,21,2,8.837,W*2B
$GNRMC,073412.50,A,3737.7560164,N,12704.7385234,E,0.0,,180324,8.8,W,D*13
$PSSN,HRP,073412.50,180324,191.630,,1.656,1.030,,1.148,21,2,8.837,W*16
$GNRMC,073413.00,A,3737.7560149,N,12704.7385206,E,0.0,,180324,8.8,W,D*19
$PSSN,HRP,073413.00,180324,191.658,,1.869,1.045,,1.153,21,2,8.837,W*16
$GNRMC,073413.50,A,3737.7560372,N,12704.7385236,E,0.2,,180324,8.8,W,D*17
$PSSN,HRP,073413.50,180324,190.690,,17.906,1.114,,1.022,21,2,8.837,W*2B
$GNRMC,073414.00,A,3737.7560240,N,12704.7385228,E,0.3,,180324,8.8,W,D*1B
$PSSN,HRP,073414.00,180324,190.659,,6.900,1.062,,1.117,21,2,8.837,W*1D
$GNRMC,073414.50,A,3737.7560190,N,12704.7385144,E,0.0,,180324,8.8,W,D*1A
$PSSN,HRP,073414.50,180324,191.477,,1.466,1.028,,1.150,21,2,8.837,W*10
$GNRMC,073415.00,A,3737.7560252,N,12704.7385172,E,0.1,,180324,8.8,W,D*17
$PSSN,HRP,073415.00,180324,191.127,,8.789,1.072,,1.116,21,2,8.837,W*12
$GNRMC,073415.50,A,3737.7560373,N,12704.7385177,E,0.2,,180324,8.8,W,D*16
$PSSN,HRP,073415.50,180324,191.085,,14.810,1.114,,1.073,21,2,8.837,W*2F
$GNRMC,073416.00,A,3737.7560198,N,12704.7385072,E,0.0,,180324,8.8,W,D*11
$PSSN,HRP,073416.00,180324,190.905,,1.268,1.022,,1.152,21,2,8.837,W*1E
$GNRMC,073416.50,A,3737.7560171,N,12704.7385166,E,0.0,,180324,8.8,W,D*17
$PSSN,HRP,073416.50,180324,191.529,,2.101,1.017,,1.140,21,2,8.837,W*12
$GNRMC,073417.00,A,3737.7560373,N,12704.7385184,E,0.2,,180324,8.8,W,D*1D
$PSSN,HRP,073417.00,180324,191.053,,17.604,1.082,,1.007,21,2,8.837,W*26
$GNRMC,073417.50,A,3737.7560260,N,12704.7385146,E,0.2,,180324,8.8,W,D*15
$PSSN,HRP,073417.50,180324,191.771,,4.948,1.064,,1.135,21,2,8.837,W*19
$GNRMC,073418.00,A,3737.7560191,N,12704.7385144,E,0.0,,180324,8.8,W,D*12
$PSSN,HRP,073418.00,180324,191.917,,1.065,1.040,,1.157,21,2,8.837,W*1C
$GNRMC,073418.50,A,3737.7560133,N,12704.7385196,E,0.0,,180324,8.8,W,D*10
$PSSN,HRP,073418.50,180324,191.634,,4.162,1.040,,1.140,21,2,8.837,W*12
$GNRMC,073419.00,A,3737.7560360,N,12704.7385201,E,0.1,,180324,8.8,W,D*1C
$PSSN,HRP,073419.00,180324,191.620,,14.351,1.037,,1.031,21,2,8.837,W*27
$GNRMC,073419.50,A,3737.7560267,N,12704.7385247,E,0.0,,180324,8.8,W,D*1C
$PSSN,HRP,073419.50,180324,191.108,,1.639,1.025,,1.145,21,2,8.837,W*11
$GNRMC,073420.00,A,3737.7560250,N,12704.7385241,E,0.0,,180324,8.8,W,D*11
$PSSN,HRP,073420.00,180324,190.827,,1.356,1.033,,1.150,21,2,8.837,W*14
$GNRMC,073420.50,A,3737.7560397,N,12704.7385261,E,0.2,,180324,8.8,W,D*1E
$PSSN,HRP,073420.50,180324,190.463,,15.074,1.088,,1.050,21,2,8.837,W*2A
$GNRMC,073421.00,A,3737.7560302,N,12704.7385295,E,0.3,,180324,8.8,W,D*1C
$PSSN,HRP,073421.00,180324,191.624,,4.241,1.052,,1.133,21,2,8.837,W*19
$GNRMC,073421.50,A,3737.7560283,N,12704.7385139,E,0.0,,180324,8.8,W,D*17
$PSSN,HRP,073421.50,180324,190.897,,1.496,1.015,,1.137,21,2,8.837,W*15
$GNRMC,073422.00,A,3737.7560345,N,12704.7385126,E,0.1,,180324,8.8,W,D*15
$PSSN,HRP,073422.00,180324,189.924,,8.949,1.064,,1.103,21,2,8.837,W*15
$GNRMC,073422.50,A,3737.7560427,N,12704.7385287,E,0.2,,180324,8.8,W,D*18
$PSSN,HRP,073422.50,180324,190.388,,11.771,1.083,,1.084,21,2,8.837,W*2E
$GNRMC,073423.00,A,3737.7560220,N,12704.7385168,E,0.2,,180324,8.8,W,D*1F
$PSSN,HRP,073423.00,180324,190.985,,1.480,1.044,,1.152,21,2,8.837,W*10
$GNRMC,073423.50,A,3737.7560178,N,12704.7385190,E,0.1,,180324,8.8,W,D*10
$PSSN,HRP,073423.50,180324,191.070,,1.906,1.026,,1.136,21,2,8.837,W*12
$GNRMC,073424.00,A,3737.7560374,N,12704.7385199,E,0.2,,180324,8.8,W,D*16
$PSSN,HRP,073424.00,180324,190.717,,18.616,1.079,,0.990,21,2,8.837,W*2E
$GNRMC,073424.50,A,3737.7560246,N,12704.7385269,E,0.2,,180324,8.8,W,D*1F
$PSSN,HRP,073424.50,180324,191.740,,5.163,1.060,,1.125,21,2,8.837,W*1E
$GNRMC,073425.00,A,3737.7560199,N,12704.7385209,E,0.0,,180324,8.8,W,D*1E
$PSSN,HRP,073425.00,180324,191.763,,1.639,1.031,,1.137,21,2,8.837,W*10
$GNRMC,073425.50,A,3737.7560348,N,12704.7385196,E,0.3,,180324,8.8,W,D*13
$PSSN,HRP,073425.50,180324,190.846,,14.575,1.111,,1.050,21,2,8.837,W*20
$GNRMC,073426.00,A,3737.7560263,N,12704.7385166,E,0.3,,180324,8.8,W,D*12
$PSSN,HRP,073426.00,180324,190.882,,8.786,1.058,,1.089,21,2,8.837,W*15
$GNRMC,073426.50,A,3737.7560168,N,12704.7385190,E,0.0,,180324,8.8,W,D*15
$PSSN,HRP,073426.50,180324,190.809,,1.675,1.016,,1.140,20,2,8.837,W*18
$GNRMC,073427.00,A,3737.7560186,N,12704.7385177,E,0.1,,180324,8.8,W,D*19
$PSSN,HRP,073427.00,180324,190.792,,5.345,1.059,,1.160,20,2,8.837,W*1A
$GNRMC,073427.50,A,3737.7560413,N,12704.7385260,E,0.1,,180324,8.8,W,D*10
$PSSN,HRP,073427.50,180324,190.136,,16.873,1.115,,1.076,21,2,8.837,W*25
$GNRMC,073428.00,A,3737.7560183,N,12704.7385225,E,0.1,,180324,8.8,W,D*17
$PSSN,HRP,073428.00,180324,190.667,,2.742,1.029,,1.138,21,2,8.837,W*11
$GNRMC,073428.50,A,3737.7560134,N,12704.7385193,E,0.0,,180324,8.8,W,D*11
$PSSN,HRP,073428.50,180324,190.416,,1.862,1.029,,1.145,21,2,8.837,W*14
$GNRMC,073429.00,A,3737.7560260,N,12704.7385216,E,0.2,,180324,8.8,W,D*1B
$PSSN,HRP,073429.00,180324,190.316,,13.995,1.107,,1.067,21,2,8.837,W*21
$GNRMC,073429.50,A,3737.7560258,N,12704.7385146,E,0.3,,180324,8.8,W,D*12
$PSSN,HRP,073429.50,180324,190.451,,8.768,1.096,,1.118,21,2,8.837,W*16
$GNRMC,073430.00,A,3737.7560163,N,12704.7385134,E,0.1,,180324,8.8,W,D*13
$PSSN,HRP,073430.00,180324,190.895,,1.704,1.041,,1.155,21,2,8.837,W*1F
$GNRMC,073430.50,A,3737.7560143,N,12704.7385177,E,0.0,,180324,8.8,W,D*12
$PSSN,HRP,073430.50,180324,191.277,,3.437,1.033,,1.145,21,2,8.837,W*18
$GNRMC,073431.00,A,3737.7560345,N,12704.7385171,E,0.1,,180324,8.8,W,D*15
$PSSN,HRP,073431.00,180324,190.614,,16.798,1.058,,1.009,21,2,8.837,W*2A
$GNRMC,073431.50,A,3737.7560201,N,12704.7385124,E,0.0,,180324,8.8,W,D*10
$PSSN,HRP,073431.50,180324,191.215,,2.441,1.026,,1.133,21,2,8.837,W*18
$GNRMC,073432.00,A,3737.7560197,N,12704.7385121,E,0.0,,180324,8.8,W,D*1F
$PSSN,HRP,073432.00,180324,191.187,,1.913,1.029,,1.131,21,2,8.837,W*12
$GNRMC,073432.50,A,3737.7560388,N,12704.7385160,E,0.2,,180324,8.8,W,D*11
$PSSN,HRP,073432.50,180324,190.540,,16.792,1.115,,1.025,21,2,8.837,W*22
$GNRMC,073433.00,A,3737.7560247,N,12704.7385180,E,0.3,,180324,8.8,W,D*18
$PSSN,HRP,073433.00,180324,190.634,,7.422,1.067,,1.114,21,2,8.837,W*19
$GNRMC,073433.50,A,3737.7560201,N,12704.7385146,E,0.0,,180324,8.8,W,D*16
$PSSN,HRP,073433.50,180324,191.066,,1.935,1.031,,1.160,20,2,8.837,W*10
$GNRMC,073434.00,A,3737.7560300,N,12704.7385220,E,0.3,,180324,8.8,W,D*14
$PSSN,HRP,073434.00,180324,190.929,,10.710,1.105,,1.135,20,2,8.837,W*2E
$GNRMC,073434.50,A,3737.7560324,N,12704.7385213,E,0.2,,180324,8.8,W,D*16
$PSSN,HRP,073434.50,180324,190.724,,11.919,1.114,,1.142,21,2,8.837,W*2F
$GNRMC,073435.00,A,3737.7560166,N,12704.7385155,E,0.1,,180324,8.8,W,D*14
$PSSN,HRP,073435.00,180324,190.783,,1.553,1.035,,1.173,21,2,8.837,W*15
$GNRMC,073435.50,A,3737.7560171,N,12704.7385249,E,0.0,,180324,8.8,W,D*18
$PSSN,HRP,073435.50,180324,190.928,,1.689,1.014,,1.149,21,2,8.837,W*11
$GNRMC,073436.00,A,3737.7560359,N,12704.7385247,E,0.2,,180324,8.8,W,D*1A
$PSSN,HRP,073436.00,180324,190.670,,16.748,1.072,,1.005,21,2,8.837,W*26
$GNRMC,073436.50,A,3737.7560235,N,12704.7385145,E,0.2,,180324,8.8,W,D*15
$PSSN,HRP,073436.50,180324,191.250,,3.665,1.053,,1.125,21,2,8.837,W*1E
$GNRMC,073437.00,A,3737.7560155,N,12704.7385072,E,0.0,,180324,8.8,W,D*13
$PSSN,HRP,073437.00,180324,191.245,,1.558,1.025,,1.135,21,2,8.837,W*11
$GNRMC,073437.50,A,3737.7560213,N,12704.7385229,E,0.2,,180324,8.8,W,D*19
$PSSN,HRP,073437.50,180324,190.728,,9.314,1.074,,1.099,21,2,8.837,W*1E
$GNRMC,073438.00,A,3737.7560308,N,12704.7385228,E,0.1,,180324,8.8,W,D*1A
$PSSN,HRP,073438.00,180324,190.675,,12.404,1.039,,1.052,21,2,8.837,W*2F
$GNRMC,073438.50,A,3737.7560243,N,12704.7385101,E,0.0,,180324,8.8,W,D*18
$PSSN,HRP,073438.50,180324,190.670,,1.472,1.021,,1.145,20,2,8.837,W*13
$GNRMC,073439.00,A,3737.7560225,N,12704.7385085,E,0.0,,180324,8.8,W,D*11
$PSSN,HRP,073439.00,180324,190.663,,2.817,1.041,,1.165,20,2,8.837,W*1D
$GNRMC,073439.50,A,3737.7560408,N,12704.7385170,E,0.1,,180324,8.8,W,D*17
$PSSN,HRP,073439.50,180324,189.713,,16.753,1.094,,1.058,21,2,8.837,W*2A
$GNRMC,073440.00,A,3737.7560228,N,12704.7385110,E,0.2,,180324,8.8,W,D*1D
$PSSN,HRP,073440.00,180324,190.424,,3.224,1.030,,1.125,21,2,8.837,W*1A
$GNRMC,073440.50,A,3737.7560218,N,12704.7385208,E,0.0,,180324,8.8,W,D*13
$PSSN,HRP,073440.50,180324,190.208,,1.523,1.022,,1.135,21,2,8.837,W*17
$GNRMC,073441.00,A,3737.7560328,N,12704.7385201,E,0.2,,180324,8.8,W,D*1E
$PSSN,HRP,073441.00,180324,190.226,,13.395,1.090,,1.063,21,2,8.837,W*2C
$GNRMC,073441.50,A,3737.7560307,N,12704.7385159,E,0.3,,180324,8.8,W,D*19
$PSSN,HRP,073441.50,180324,190.057,,7.747,1.090,,1.121,21,2,8.837,W*14
$GNRMC,073442.00,A,3737.7560211,N,12704.7385108,E,0.1,,180324,8.8,W,D*1F
$PSSN,HRP,073442.00,180324,190.183,,1.894,1.042,,1.143,21,2,8.837,W*16
$GNRMC,073442.50,A,3737.7560285,N,12704.7385274,E,0.3,,180324,8.8,W,D*1D
$PSSN,HRP,073442.50,180324,190.161,,11.351,1.087,,1.083,21,2,8.837,W*28
$GNRMC,073443.00,A,3737.7560296,N,12704.7385216,E,0.3,,180324,8.8,W,D*1F
$PSSN,HRP,073443.00,180324,190.040,,11.266,1.075,,1.080,21,2,8.837,W*25
$GNRMC,073443.50,A,3737.7560224,N,12704.7385124,E,0.1,,180324,8.8,W,D*13
$PSSN,HRP,073443.50,180324,190.412,,1.556,1.039,,1.145,21,2,8.837,W*16
$GNRMC,073444.00,A,3737.7560218,N,12704.7385107,E,0.0,,180324,8.8,W,D*1E
$PSSN,HRP,073444.00,180324,190.663,,4.382,1.061,,1.137,21,2,8.837,W*12
$GNRMC,073444.50,A,3737.7560359,N,12704.7385219,E,0.0,,180324,8.8,W,D*13
$PSSN,HRP,073444.50,180324,189.604,,17.633,1.106,,1.023,21,2,8.837,W*27
$GNRMC,073445.00,A,3737.7560190,N,12704.7385150,E,0.1,,180324,8.8,W,D*1F
$PSSN,HRP,073445.00,180324,189.916,,4.101,1.051,,1.139,21,2,8.837,W*12
$GNRMC,073445.50,A,3737.7560180,N,12704.7385078,E,0.0,,180324,8.8,W,D*11
$PSSN,HRP,073445.50,180324,190.203,,1.856,1.037,,1.155,21,2,8.837,W*14
$GNRMC,073446.00,A,3737.7560330,N,12704.7385137,E,0.2,,180324,8.8,W,D*16
$PSSN,HRP,073446.00,180324,189.693,,15.457,1.125,,1.070,21,2,8.837,W*2B
$GNRMC,073446.50,A,3737.7560273,N,12704.7385099,E,0.2,,180324,8.8,W,D*10
$PSSN,HRP,073446.50,180324,189.442,,8.361,1.127,,1.153,20,2,8.837,W*1D
$GNRMC,073447.00,A,3737.7560199,N,12704.7385060,E,0.0,,180324,8.8,W,D*17
$PSSN,HRP,073447.00,180324,190.507,,1.505,1.054,,1.188,20,2,8.837,W*1F
$GNRMC,073447.50,A,3737.7560217,N,12704.7385143,E,0.1,,180324,8.8,W,D*16
$PSSN,HRP,073447.50,180324,190.622,,6.856,1.042,,1.126,21,2,8.837,W*10
$GNRMC,073448.00,A,3737.7560335,N,12704.7385183,E,0.1,,180324,8.8,W,D*11
$PSSN,HRP,073448.00,180324,190.577,,15.238,1.057,,1.026,21,2,8.837,W*2C
$GNRMC,073448.50,A,3737.7560203,N,12704.7385174,E,0.1,,180324,8.8,W,D*18
$PSSN,HRP,073448.50,180324,191.566,,2.348,1.020,,1.130,21,2,8.837,W*1E
$GNRMC,073449.00,A,3737.7560198,N,12704.7385156,E,0.0,,180324,8.8,W,D*1C
$PSSN,HRP,073449.00,180324,191.458,,1.474,1.033,,1.142,21,2,8.837,W*1A
$GNRMC,073449.50,A,3737.7560320,N,12704.7385171,E,0.1,,180324,8.8,W,D*1C
$PSSN,HRP,073449.50,180324,190.931,,15.189,1.064,,1.027,22,2,8.837,W*2D
$GNRMC,073450.00,A,3737.7560198,N,12704.7385077,E,0.1,,180324,8.8,W,D*17
$PSSN,HRP,073450.00,180324,191.502,,3.592,0.963,,1.086,22,2,8.837,W*10
$GNRMC,073450.50,A,3737.7560170,N,12704.7385120,E,0.0,,180324,8.8,W,D*16
$PSSN,HRP,073450.50,180324,191.143,,1.432,0.941,,1.092,22,2,8.837,W*18
$GNRMC,073451.00,A,3737.7560314,N,12704.7385155,E,0.2,,180324,8.8,W,D*12
$PSSN,HRP,073451.00,180324,190.210,,13.387,1.017,,1.031,22,2,8.837,W*20
$GNRMC,073451.50,A,3737.7560287,N,12704.7385142,E,0.2,,180324,8.8,W,D*1A
$PSSN,HRP,073451.50,180324,190.108,,8.026,1.015,,1.081,22,2,8.837,W*14
$GNRMC,073452.00,A,3737.7560207,N,12704.7385107,E,0.0,,180324,8.8,W,D*17
$PSSN,HRP,073452.00,180324,191.615,,1.402,0.950,,1.100,22,2,8.837,W*12
$GNRMC,073452.50,A,3737.7560261,N,12704.7385146,E,0.2,,180324,8.8,W,D*15
$PSSN,HRP,073452.50,180324,191.046,,8.955,0.999,,1.061,22,2,8.837,W*12
$GNRMC,073453.00,A,3737.7560323,N,12704.7385174,E,0.2,,180324,8.8,W,D*17
$PSSN,HRP,073453.00,180324,190.797,,13.675,1.003,,1.011,22,2,8.837,W*27
$GNRMC,073453.50,A,3737.7560196,N,12704.7385056,E,0.0,,180324,8.8,W,D*1D
$PSSN,HRP,073453.50,180324,191.408,,1.480,0.952,,1.093,22,2,8.837,W*1B
$GNRMC,073454.00,A,3737.7560179,N,12704.7385075,E,0.0,,180324,8.8,W,D*1F
$PSSN,HRP,073454.00,180324,191.541,,1.953,0.962,,1.102,22,2,8.837,W*1C
$GNRMC,073454.50,A,3737.7560353,N,12704.7385211,E,0.1,,180324,8.8,W,D*11
