$GNRMC,070305.50,A,3737.7555986,N,12704.7384425,E,0.0,,180324,8.8,W,D*14
$PSSN,HRP,070305.50,180324,188.335,,-0.554,0.970,,1.022,22,2,8.837,W*33
$GNRMC,070306.00,A,3737.7555982,N,12704.7384452,E,0.0,,180324,8.8,W,D*16
$PSSN,HRP,070306.00,180324,188.263,,-0.680,0.965,,1.013,22,2,8.837,W*3B
$GNRMC,070306.50,A,3737.7555963,N,12704.7384295,E,0.0,,180324,8.8,W,D*11
$PSSN,HRP,070306.50,180324,188.460,,-0.655,0.969,,1.018,20,2,8.837,W*36
$GNRMC,070307.00,A,3737.7555972,N,12704.7384258,E,0.0,,180324,8.8,W,D*14
$PSSN,HRP,070307.00,180324,188.613,,-0.799,0.977,,1.030,19,2,8.837,W*3A
$GNRMC,070307.50,A,3737.7556002,N,12704.7384134,E,0.0,,180324,8.8,W,D*15
$PSSN,HRP,070307.50,180324,188.548,,-0.417,1.113,,1.283,17,2,8.837,W*38
$GNRMC,070308.00,A,3737.7555963,N,12704.7384246,E,0.0,,180324,8.8,W,D*14
$PSSN,HRP,070308.00,180324,188.825,,-0.057,1.224,,1.532,17,2,8.837,W*3E
$GNRMC,070308.50,A,3737.7555999,N,12704.7384155,E,0.1,,180324,8.8,W,D*14
$PSSN,HRP,070308.50,180324,188.342,,-0.509,1.305,,1.612,19,2,8.837,W*32
$GNRMC,070309.00,A,3737.7556046,N,12704.7384117,E,0.1,,180324,8.8,W,D*1E
$PSSN,HRP,070309.00,180324,188.054,,-1.358,0.975,,1.039,19,2,8.837,W*32
$GNRMC,070309.50,A,3737.7555994,N,12704.7384235,E,0.1,,180324,8.8,W,D*1D
$PSSN,HRP,070309.50,180324,188.250,,-1.337,1.029,,1.057,19,2,8.837,W*31
$GNRMC,070310.00,A,3737.7555952,N,12704.7384377,E,0.0,,180324,8.8,W,D*1C
$PSSN,HRP,070310.00,180324,188.091,,-0.973,1.075,,1.193,19,2,8.837,W*38
$GNRMC,070310.50,A,3737.7555973,N,12704.7384410,E,0.0,,180324,8.8,W,D*1C
$PSSN,HRP,070310.50,180324,188.315,,-0.795,1.104,,1.254,19,2,8.837,W*3B
$GNRMC,070311.00,A,3737.7555986,N,12704.7384374,E,0.0,,180324,8.8,W,D*17
$PSSN,HRP,070311.00,180324,188.641,,-0.422,1.056,,1.172,19,2,8.837,W*35
$GNRMC,070311.50,A,3737.7555972,N,12704.7384380,E,0.0,,180324,8.8,W,D*12
$PSSN,HRP,070311.50,180324,188.469,,-0.643,1.059,,1.175,20,2,8.837,W*3F
$GNRMC,070312.00,A,3737.7555960,N,12704.7384405,E,0.0,,180324,8.8,W,D*1D
$PSSN,HRP,070312.00,180324,188.332,,-0.578,1.062,,1.176,20,2,8.837,W*30
$GNRMC,070312.50,A,3737.7555968,N,12704.7384421,E,0.0,,180324,8.8,W,D*16
$PSSN,HRP,070312.50,180324,188.231,,-0.491,1.040,,1.141,20,2,8.837,W*35
$GNRMC,070313.00,A,3737.7555966,N,12704.7384452,E,0.0,,180324,8.8,W,D*18
$PSSN,HRP,070313.00,180324,188.491,,-0.444,1.011,,1.098,20,2,8.837,W*34
$GNRMC,070313.50,A,3737.7555975,N,12704.7384296,E,0.0,,180324,8.8,W,D*11
$PSSN,HRP,070313.50,180324,188.499,,-0.326,1.013,,1.099,20,2,8.837,W*39
$GNRMC,070314.00,A,3737.7555965,N,12704.7384231,E,0.0,,180324,8.8,W,D*1F
$PSSN,HRP,070314.00,180324,188.613,,-0.328,1.011,,1.097,20,2,8.837,W*39
$GNRMC,070314.50,A,3737.7555964,N,12704.7384341,E,0.0,,180324,8.8,W,D*1D
$PSSN,HRP,070314.50,180324,188.472,,-0.424,1.013,,1.098,20,2,8.837,W*3F
$GNRMC,070315.00,A,3737.7555967,N,12704.7384347,E,0.0,,180324,8.8,W,D*1C
$PSSN,HRP,070315.00,180324,188.440,,-0.428,1.010,,1.096,20,2,8.837,W*3B
$GNRMC,070315.50,A,3737.7555965,N,12704.7384426,E,0.0,,180324,8.8,W,D*1B
$PSSN,HRP,070315.50,180324,188.434,,-0.372,1.011,,1.098,22,2,8.837,W*38
$GNRMC,070316.00,A,3737.7555965,N,12704.7384474,E,0.0,,180324,8.8,W,D*1A
$PSSN,HRP,070316.00,180324,188.475,,-0.495,1.012,,1.100,22,2,8.837,W*36
$GNRMC,070316.50,A,3737.7555964,N,12704.7384364,E,0.0,,180324,8.8,W,D*18
$PSSN,HRP,070316.50,180324,188.396,,-0.501,0.994,,1.065,22,2,8.837,W*31
$GNRMC,070317.00,A,3737.7555960,N,12704.7384290,E,0.0,,180324,8.8,W,D*12
$PSSN,HRP,070317.00,180324,188.217,,-0.716,0.968,,1.017,22,2,8.837,W*3F
$GNRMC,070317.50,A,3737.7555949,N,12704.7384342,E,0.0,,180324,8.8,W,D*12
$PSSN,HRP,070317.50,180324,188.158,,-0.745,0.969,,1.013,22,2,8.837,W*31
$GNRMC,070318.00,A,3737.7555936,N,12704.7384404,E,0.0,,180324,8.8,W,D*15
$PSSN,HRP,070318.00,180324,188.260,,-0.773,0.968,,1.014,22,2,8.837,W*30
$GNRMC,070318.50,A,3737.7555953,N,12704.7384500,E,0.0,,180324,8.8,W,D*16
$PSSN,HRP,070318.50,180324,188.316,,-0.553,0.968,,1.016,22,2,8.837,W*37
$GNRMC,070319.00,A,3737.7556113,N,12704.7384600,E,0.2,,180324,8.8,W,D*1C
$PSSN,HRP,070319.00,180324,188.112,,-0.542,0.988,,1.024,21,2,8.837,W*39
$GNRMC,070319.50,A,3737.7556011,N,12704.7384396,E,0.2,,180324,8.8,W,D*10
$PSSN,HRP,070319.50,180324,188.738,,-0.102,1.121,,1.153,22,2,8.837,W*3A
$GNRMC,070320.00,A,3737.7555997,N,12704.7384385,E,0.0,,180324,8.8,W,D*1B
$PSSN,HRP,070320.00,180324,188.939,,0.731,1.220,,1.257,22,2,8.837,W*14
$GNRMC,070320.50,A,3737.7555976,N,12704.7384448,E,0.1,,180324,8.8,W,D*16
$PSSN,HRP,070320.50,180324,188.898,,0.301,1.313,,1.359,22,2,8.837,W*12
$GNRMC,070321.00,A,3737.7556138,N,12704.7384564,E,0.2,,180324,8.8,W,D*1F
$PSSN,HRP,070321.00,180324,188.576,,-0.109,1.222,,1.279,22,2,8.837,W*3C
$GNRMC,070321.50,A,3737.7555879,N,12704.7384123,E,0.4,,180324,8.8,W,D*14
$PSSN,HRP,070321.50,180324,187.666,,-10.082,1.133,,1.172,22,2,8.837,W*0C
$GNRMC,070322.00,A,3737.7555695,N,12704.7384034,E,0.3,,180324,8.8,W,D*1E
$PSSN,HRP,070322.00,180324,189.050,,-16.229,1.146,,1.126,21,2,8.837,W*02
$GNRMC,070322.50,A,3737.7555986,N,12704.7384630,E,0.2,,180324,8.8,W,D*15
$PSSN,HRP,070322.50,180324,187.796,,-3.606,1.195,,1.220,22,2,8.837,W*31
$GNRMC,070323.00,A,3737.7556164,N,12704.7384745,E,0.1,,180324,8.8,W,D*16
$PSSN,HRP,070323.00,180324,187.880,,-0.766,1.273,,1.329,22,2,8.837,W*3A
$GNRMC,070323.50,A,3737.7556060,N,12704.7384446,E,0.3,,180324,8.8,W,D*14
$PSSN,HRP,070323.50,180324,187.223,,-5.203,1.475,,1.481,22,2,8.837,W*3A
$GNRMC,070324.00,A,3737.7555650,N,12704.7383929,E,0.5,194.9,180324,8.8,W,D*3E
$PSSN,HRP,070324.00,180324,187.261,,-23.190,1.449,,1.332,22,2,8.837,W*03
$GNRMC,070324.50,A,3737.7556258,N,12704.7384616,E,0.6,351.6,180324,8.8,W,D*37
$PSSN,HRP,070324.50,180324,186.845,,-7.994,1.446,,1.425,22,2,8.837,W*3F
$GNRMC,070325.00,A,3737.7556423,N,12704.7384750,E,0.1,28.4,180324,8.8,W,D*02
$PSSN,HRP,070325.00,180324,187.692,,-1.344,1.336,,1.405,22,2,8.837,W*3D
$GNRMC,070325.50,A,3737.7556254,N,12704.7384224,E,0.4,,180324,8.8,W,D*12
$PSSN,HRP,070325.50,180324,186.826,,-8.893,1.472,,1.494,22,2,8.837,W*3F
$GNRMC,070326.00,A,3737.7555542,N,12704.7383725,E,0.1,203.9,180324,8.8,W,D*37
$PSSN,HRP,070326.00,180324,186.178,,-25.269,1.398,,1.319,22,2,8.837,W*0A
$GNRMC,070326.50,A,3737.7556285,N,12704.7384639,E,0.5,350.1,180324,8.8,W,D*3D
$PSSN,HRP,070326.50,180324,186.750,,-8.457,1.453,,1.455,22,2,8.837,W*38
$GNRMC,070327.00,A,3737.7556436,N,12704.7384980,E,0.2,36.3,180324,8.8,W,D*0C
$PSSN,HRP,070327.00,180324,188.174,,-1.310,1.339,,1.413,22,2,8.837,W*36
$GNRMC,070327.50,A,3737.7556315,N,12704.7384575,E,0.2,,180324,8.8,W,D*11
$PSSN,HRP,070327.50,180324,188.282,,-4.162,1.409,,1.455,22,2,8.837,W*3D
$GNRMC,070328.00,A,3737.7555698,N,12704.7384093,E,0.4,196.8,180324,8.8,W,D*3B
$PSSN,HRP,070328.00,180324,187.955,,-22.014,1.402,,1.343,22,2,8.837,W*06
$GNRMC,070328.50,A,3737.7556278,N,12704.7384652,E,0.6,353.2,180324,8.8,W,D*3F
$PSSN,HRP,070328.50,180324,187.824,,-7.805,1.418,,1.402,22,2,8.837,W*32
$GNRMC,070329.00,A,3737.7556446,N,12704.7384807,E,0.2,39.7,180324,8.8,W,D*00
$PSSN,HRP,070329.00,180324,188.409,,-1.338,1.313,,1.375,22,2,8.837,W*32
$GNRMC,070329.50,A,3737.7556276,N,12704.7384570,E,0.3,,180324,8.8,W,D*1F
$PSSN,HRP,070329.50,180324,188.141,,-6.780,1.432,,1.450,22,2,8.837,W*3A
$GNRMC,070330.00,A,3737.7555674,N,12704.7384103,E,0.1,201.0,180324,8.8,W,D*38
$PSSN,HRP,070330.00,180324,187.873,,-22.619,1.341,,1.307,22,2,8.837,W*01
$GNRMC,070330.50,A,3737.7556369,N,12704.7384873,E,0.3,356.6,180324,8.8,W,D*3E
$PSSN,HRP,070330.50,180324,187.958,,-5.441,1.423,,1.417,22,2,8.837,W*33
$GNRMC,070331.00,A,3737.7556476,N,12704.7384911,E,0.0,,180324,8.8,W,D*1D
$PSSN,HRP,070331.00,180324,187.995,,-1.645,1.315,,1.395,22,2,8.837,W*3B
$GNRMC,070331.50,A,3737.7556126,N,12704.7384376,E,0.6,,180324,8.8,W,D*15
$PSSN,HRP,070331.50,180324,187.631,,-14.132,1.490,,1.488,22,2,8.837,W*0D
$GNRMC,070332.00,A,3737.7555748,N,12704.7384217,E,0.5,210.0,180324,8.8,W,D*36
$PSSN,HRP,070332.00,180324,187.769,,-21.382,1.446,,1.366,22,2,8.837,W*04
$GNRMC,070332.50,A,3737.7556348,N,12704.7385016,E,0.2,5.8,180324,8.8,W,D*3F
$PSSN,HRP,070332.50,180324,188.206,,-5.534,1.412,,1.407,22,2,8.837,W*3E
$GNRMC,070333.00,A,3737.7556476,N,12704.7385031,E,0.1,,180324,8.8,W,D*14
$PSSN,HRP,070333.00,180324,188.451,,-1.832,1.354,,1.454,22,2,8.837,W*32
$GNRMC,070333.50,A,3737.7556022,N,12704.7384449,E,0.7,182.4,180324,8.8,W,D*39
$PSSN,HRP,070333.50,180324,188.481,,-17.237,1.543,,1.548,22,2,8.837,W*0E
$GNRMC,070334.00,A,3737.7556096,N,12704.7384523,E,0.9,,180324,8.8,W,D*16
$PSSN,HRP,070334.00,180324,188.696,,-14.456,1.420,,1.389,22,2,8.837,W*05
$GNRMC,070334.50,A,3737.7556503,N,12704.7385041,E,0.4,38.4,180324,8.8,W,D*06
$PSSN,HRP,070334.50,180324,189.344,,-1.174,1.295,,1.318,22,2,8.837,W*3A
$GNRMC,070335.00,A,3737.7556398,N,12704.7384877,E,0.3,,180324,8.8,W,D*1C
$PSSN,HRP,070335.00,180324,188.848,,-4.630,1.392,,1.434,22,2,8.837,W*35
$GNRMC,070335.50,A,3737.7555797,N,12704.7384492,E,0.5,194.0,180324,8.8,W,D*32
$PSSN,HRP,070335.50,180324,188.596,,-21.335,1.497,,1.456,22,2,8.837,W*0F
$GNRMC,070336.00,A,3737.7556304,N,12704.7384780,E,0.6,346.2,180324,8.8,W,D*35
$PSSN,HRP,070336.00,180324,188.600,,-7.753,1.404,,1.387,22,2,8.837,W*34
$GNRMC,070336.50,A,3737.7556533,N,12704.7385036,E,0.1,31.6,180324,8.8,W,D*09
$PSSN,HRP,070336.50,180324,189.998,,-0.118,1.248,,1.285,22,2,8.837,W*3D
$GNRMC,070337.00,A,3737.7556229,N,12704.7384724,E,0.5,,180324,8.8,W,D*1A
$PSSN,HRP,070337.00,180324,189.953,,-11.963,1.411,,1.406,22,2,8.837,W*0D
$GNRMC,070337.50,A,3737.7555888,N,12704.7384370,E,0.4,204.0,180324,8.8,W,D*31
$PSSN,HRP,070337.50,180324,189.405,,-19.537,1.435,,1.397,22,2,8.837,W*0A
$GNRMC,070338.00,A,3737.7556410,N,12704.7384834,E,0.3,,180324,8.8,W,D*11
$PSSN,HRP,070338.00,180324,189.604,,-3.209,1.374,,1.349,22,2,8.837,W*33
$GNRMC,070338.50,A,3737.7556525,N,12704.7384859,E,0.1,,180324,8.8,W,D*1A
$PSSN,HRP,070338.50,180324,189.711,,-0.232,1.244,,1.280,22,2,8.837,W*3E
$GNRMC,070339.00,A,3737.7556315,N,12704.7384730,E,0.4,,180324,8.8,W,D*1E
$PSSN,HRP,070339.00,180324,188.718,,-7.931,1.391,,1.384,22,2,8.837,W*31
$GNRMC,070339.50,A,3737.7555938,N,12704.7384751,E,0.3,186.1,180324,8.8,W,D*3D
$PSSN,HRP,070339.50,180324,189.218,,-19.100,1.390,,1.368,22,2,8.837,W*06
$GNRMC,070340.00,A,3737.7556460,N,12704.7385144,E,0.3,,180324,8.8,W,D*16
$PSSN,HRP,070340.00,180324,189.927,,-2.382,1.353,,1.339,22,2,8.837,W*33
$GNRMC,070340.50,A,3737.7556514,N,12704.7384895,E,0.1,,180324,8.8,W,D*17
$PSSN,HRP,070340.50,180324,189.867,,-0.058,1.228,,1.269,22,2,8.837,W*3C
$GNRMC,070341.00,A,3737.7556177,N,12704.7384616,E,0.6,,180324,8.8,W,D*10
$PSSN,HRP,070341.00,180324,189.269,,-12.781,1.409,,1.384,22,2,8.837,W*0B
$GNRMC,070341.50,A,3737.7555972,N,12704.7384722,E,0.5,,180324,8.8,W,D*1E
$PSSN,HRP,070341.50,180324,188.984,,-18.666,1.444,,1.385,22,2,8.837,W*0D
$GNRMC,070342.00,A,3737.7556429,N,12704.7384961,E,0.2,,180324,8.8,W,D*16
$PSSN,HRP,070342.00,180324,189.704,,-3.036,1.299,,1.323,22,2,8.837,W*3F
$GNRMC,070342.50,A,3737.7556528,N,12704.7385072,E,0.1,,180324,8.8,W,D*1A
$PSSN,HRP,070342.50,180324,189.368,,-0.359,1.231,,1.274,22,2,8.837,W*3C
$GNRMC,070343.00,A,3737.7556207,N,12704.7384842,E,0.5,,180324,8.8,W,D*1A
$PSSN,HRP,070343.00,180324,189.345,,-13.069,1.408,,1.384,22,2,8.837,W*07
$GNRMC,070343.50,A,3737.7556037,N,12704.7384470,E,0.5,,180324,8.8,W,D*13
$PSSN,HRP,070343.50,180324,189.037,,-16.188,1.435,,1.395,22,2,8.837,W*01
$GNRMC,070344.00,A,3737.7556457,N,12704.7384751,E,0.3,,180324,8.8,W,D*15
$PSSN,HRP,070344.00,180324,189.055,,-2.553,1.343,,1.348,22,2,8.837,W*36
$GNRMC,070344.50,A,3737.7556519,N,12704.7385004,E,0.1,,180324,8.8,W,D*1F
$PSSN,HRP,070344.50,180324,189.518,,-0.660,1.262,,1.309,22,2,8.837,W*39
$GNRMC,070345.00,A,3737.7555984,N,12704.7384499,E,0.7,187.0,180324,8.8,W,D*37
$PSSN,HRP,070345.00,180324,188.704,,-17.959,1.454,,1.401,22,2,8.837,W*0C
$GNRMC,070345.50,A,3737.7556265,N,12704.7384892,E,0.6,,180324,8.8,W,D*13
$PSSN,HRP,070345.50,180324,188.361,,-9.753,1.439,,1.415,22,2,8.837,W*3B
$GNRMC,070346.00,A,3737.7556488,N,12704.7385082,E,0.2,,180324,8.8,W,D*1C
$PSSN,HRP,070346.00,180324,188.420,,-1.760,1.279,,1.310,22,2,8.837,W*37
$GNRMC,070346.50,A,3737.7556277,N,12704.7384620,E,0.5,,180324,8.8,W,D*17
$PSSN,HRP,070346.50,180324,187.400,,-9.320,1.419,,1.396,22,2,8.837,W*39
$GNRMC,070347.00,A,3737.7555960,N,12704.7384494,E,0.3,204.6,180324,8.8,W,D*38
$PSSN,HRP,070347.00,180324,188.001,,-18.839,1.389,,1.356,22,2,8.837,W*06
$GNRMC,070347.50,A,3737.7556411,N,12704.7385081,E,0.3,,180324,8.8,W,D*1A
$PSSN,HRP,070347.50,180324,187.986,,-3.898,1.373,,1.383,22,2,8.837,W*36
$GNRMC,070348.00,A,3737.7556487,N,12704.7385129,E,0.1,,180324,8.8,W,D*1E
$PSSN,HRP,070348.00,180324,187.920,,-1.936,1.302,,1.351,22,2,8.837,W*3E
$GNRMC,070348.50,A,3737.7556126,N,12704.7384638,E,0.7,165.6,180324,8.8,W,D*3F
$PSSN,HRP,070348.50,180324,187.505,,-16.392,1.495,,1.456,22,2,8.837,W*0B
$GNRMC,070349.00,A,3737.7556122,N,12704.7384581,E,0.7,,180324,8.8,W,D*14
$PSSN,HRP,070349.00,180324,188.224,,-15.615,1.445,,1.414,22,2,8.837,W*06
$GNRMC,070349.50,A,3737.7556474,N,12704.7385088,E,0.3,26.9,180324,8.8,W,D*0D
$PSSN,HRP,070349.50,180324,188.887,,-2.162,1.298,,1.347,22,2,8.837,W*36
$GNRMC,070350.00,A,3737.7556491,N,12704.7385124,E,0.1,,180324,8.8,W,D*1D
$PSSN,HRP,070350.00,180324,188.811,,-1.012,1.285,,1.344,22,2,8.837,W*3E
$GNRMC,070350.50,A,3737.7556028,N,12704.7384555,E,0.5,184.9,180324,8.8,W,D*33
$PSSN,HRP,070350.50,180324,188.660,,-17.932,1.492,,1.450,22,2,8.837,W*0D
$GNRMC,070351.00,A,3737.7556210,N,12704.7384728,E,0.6,,180324,8.8,W,D*1F
$PSSN,HRP,070351.00,180324,189.481,,-11.467,1.425,,1.419,22,2,8.837,W*0F
$GNRMC,070351.50,A,3737.7556547,N,12704.7385124,E,0.2,,180324,8.8,W,D*10
$PSSN,HRP,070351.50,180324,189.790,,-0.234,1.259,,1.308,22,2,8.837,W*33
$GNRMC,070352.00,A,3737.7556456,N,12704.7385022,E,0.2,,180324,8.8,W,D*10
$PSSN,HRP,070352.00,180324,189.692,,-2.838,1.356,,1.384,22,2,8.837,W*38
$GNRMC,070352.50,A,3737.7555932,N,12704.7384649,E,0.3,199.7,180324,8.8,W,D*3A
$PSSN,HRP,070352.50,180324,189.241,,-18.797,1.397,,1.418,22,2,8.837,W*09
$GNRMC,070353.00,A,3737.7556375,N,12704.7385082,E,0.5,341.8,180324,8.8,W,D*3A
$PSSN,HRP,070353.00,180324,190.185,,-4.025,1.397,,1.408,22,2,8.837,W*3C
$GNRMC,070353.50,A,3737.7556555,N,12704.7385213,E,0.1,,180324,8.8,W,D*15
$PSSN,HRP,070353.50,180324,190.308,,0.690,1.245,,1.308,22,2,8.837,W*16
$GNRMC,070354.00,A,3737.7556272,N,12704.7384994,E,0.6,137.0,180324,8.8,W,D*3C
$PSSN,HRP,070354.00,180324,190.741,,-9.296,1.411,,1.422,22,2,8.837,W*33
$GNRMC,070354.50,A,3737.7556037,N,12704.7384893,E,0.4,,180324,8.8,W,D*15
$PSSN,HRP,070354.50,180324,190.487,,-15.983,1.395,,1.399,22,2,8.837,W*01
$GNRMC,070355.00,A,3737.7556437,N,12704.7385051,E,0.2,,180324,8.8,W,D*14
$PSSN,HRP,070355.00,180324,190.416,,-2.038,1.320,,1.335,22,2,8.837,W*3A
$GNRMC,070355.50,A,3737.7556536,N,12704.7384978,E,0.2,,180324,8.8,W,D*12
$PSSN,HRP,070355.50,180324,190.296,,0.309,1.252,,1.293,22,2,8.837,W*16
$GNRMC,070356.00,A,3737.7556104,N,12704.7384641,E,0.6,190.6,180324,8.8,W,D*30
$PSSN,HRP,070356.00,180324,190.019,,-14.802,1.434,,1.421,22,2,8.837,W*04
$GNRMC,070356.50,A,3737.7556164,N,12704.7384829,E,0.5,,180324,8.8,W,D*10
$PSSN,HRP,070356.50,180324,189.242,,-13.478,1.450,,1.438,22,2,8.837,W*09
$GNRMC,070357.00,A,3737.7556480,N,12704.7385058,E,0.2,,180324,8.8,W,D*13
$PSSN,HRP,070357.00,180324,188.547,,-1.942,1.329,,1.353,22,2,8.837,W*3A
$GNRMC,070357.50,A,3737.7556563,N,12704.7385124,E,0.1,,180324,8.8,W,D*13
$PSSN,HRP,070357.50,180324,188.954,,-1.217,1.253,,1.309,22,2,8.837,W*39
$GNRMC,070358.00,A,3737.7556119,N,12704.7384742,E,0.4,186.5,180324,8.8,W,D*36
$PSSN,HRP,070358.00,180324,189.031,,-17.111,1.397,,1.378,22,2,8.837,W*05
$GNRMC,070358.50,A,3737.7556432,N,12704.7384847,E,0.6,,180324,8.8,W,D*13
$PSSN,HRP,070358.50,180324,188.944,,-6.636,1.406,,1.389,22,2,8.837,W*39
$GNRMC,070359.00,A,3737.7556599,N,12704.7385007,E,0.0,,180324,8.8,W,D*1C
$PSSN,HRP,070359.00,180324,189.094,,-0.892,1.243,,1.291,22,2,8.837,W*31
$GNRMC,070359.50,A,3737.7556372,N,12704.7384869,E,0.4,,180324,8.8,W,D*1F
$PSSN,HRP,070359.50,180324,187.819,,-8.914,1.418,,1.403,22,2,8.837,W*35
$GNRMC,070400.00,A,3737.7556015,N,12704.7384728,E,0.3,,180324,8.8,W,D*1E
$PSSN,HRP,070400.00,180324,187.894,,-19.067,1.398,,1.377,22,2,8.837,W*08
$GNRMC,070400.50,A,3737.7556472,N,12704.7385005,E,0.2,,180324,8.8,W,D*16
$PSSN,HRP,070400.50,180324,188.749,,-4.363,1.388,,1.400,22,2,8.837,W*30
$GNRMC,070401.00,A,3737.7556563,N,12704.7385147,E,0.1,,180324,8.8,W,D*17
$PSSN,HRP,070401.00,180324,189.026,,-1.026,1.292,,1.356,22,2,8.837,W*32
$GNRMC,070401.50,A,3737.7556128,N,12704.7384875,E,0.7,174.1,180324,8.8,W,D*3B
$PSSN,HRP,070401.50,180324,188.804,,-17.052,1.489,,1.456,22,2,8.837,W*01
$GNRMC,070402.00,A,3737.7556247,N,12704.7384959,E,0.6,,180324,8.8,W,D*14
$PSSN,HRP,070402.00,180324,189.032,,-12.235,1.425,,1.415,22,2,8.837,W*0C
$GNRMC,070402.50,A,3737.7556644,N,12704.7385141,E,0.1,,180324,8.8,W,D*11
$PSSN,HRP,070402.50,180324,189.452,,-0.924,1.253,,1.302,22,2,8.837,W*35
$GNRMC,070403.00,A,3737.7556582,N,12704.7385077,E,0.2,,180324,8.8,W,D*1B
$PSSN,HRP,070403.00,180324,189.662,,-0.727,1.291,,1.317,22,2,8.837,W*37
$GNRMC,070403.50,A,3737.7556053,N,12704.7384560,E,0.5,197.0,180324,8.8,W,D*33
$PSSN,HRP,070403.50,180324,188.846,,-18.251,1.446,,1.405,22,2,8.837,W*0E
$GNRMC,070404.00,A,3737.7556352,N,12704.7384729,E,0.6,,180324,8.8,W,D*1E
$PSSN,HRP,070404.00,180324,188.651,,-8.583,1.422,,1.416,22,2,8.837,W*3D
$GNRMC,070404.50,A,3737.7556625,N,12704.7385172,E,0.0,,180324,8.8,W,D*11
$PSSN,HRP,070404.50,180324,189.866,,-0.434,1.238,,1.300,22,2,8.837,W*3B
$GNRMC,070405.00,A,3737.7556534,N,12704.7385076,E,0.2,,180324,8.8,W,D*11
$PSSN,HRP,070405.00,180324,190.357,,-2.383,1.314,,1.338,22,2,8.837,W*33
$GNRMC,070405.50,A,3737.7555922,N,12704.7384804,E,0.5,192.2,180324,8.8,W,D*31
$PSSN,HRP,070405.50,180324,188.709,,-20.216,1.440,,1.390,22,2,8.837,W*09
$GNRMC,070406.00,A,3737.7556446,N,12704.7384890,E,0.4,,180324,8.8,W,D*11
$PSSN,HRP,070406.00,180324,189.824,,-6.104,1.409,,1.413,22,2,8.837,W*3B
$GNRMC,070406.50,A,3737.7556617,N,12704.7385125,E,0.0,,180324,8.8,W,D*10
$PSSN,HRP,070406.50,180324,189.992,,0.076,1.232,,1.301,22,2,8.837,W*17
$GNRMC,070407.00,A,3737.7556459,N,12704.7384950,E,0.3,,180324,8.8,W,D*14
$PSSN,HRP,070407.00,180324,189.744,,-6.052,1.385,,1.373,22,2,8.837,W*33
$GNRMC,070407.50,A,3737.7556004,N,12704.7384799,E,0.1,187.7,180324,8.8,W,D*33
$PSSN,HRP,070407.50,180324,189.613,,-18.810,1.373,,1.359,22,2,8.837,W*05
$GNRMC,070408.00,A,3737.7556502,N,12704.7385097,E,0.2,,180324,8.8,W,D*16
$PSSN,HRP,070408.00,180324,190.485,,-3.690,1.339,,1.354,22,2,8.837,W*35
$GNRMC,070408.50,A,3737.7556592,N,12704.7385168,E,0.1,,180324,8.8,W,D*18
$PSSN,HRP,070408.50,180324,190.257,,0.128,1.247,,1.294,22,2,8.837,W*16
$GNRMC,070409.00,A,3737.7556336,N,12704.7385111,E,0.4,,180324,8.8,W,D*1F
$PSSN,HRP,070409.00,180324,189.741,,-7.891,1.402,,1.391,22,2,8.837,W*3A
$GNRMC,070409.50,A,3737.7556021,N,12704.7384833,E,0.2,190.0,180324,8.8,W,D*37
$PSSN,HRP,070409.50,180324,190.027,,-18.791,1.383,,1.371,22,2,8.837,W*01
$GNRMC,070410.00,A,3737.7556516,N,12704.7385113,E,0.2,,180324,8.8,W,D*17
$PSSN,HRP,070410.00,180324,190.800,,-2.705,1.355,,1.348,22,2,8.837,W*36
$GNRMC,070410.50,A,3737.7556564,N,12704.7385097,E,0.2,,180324,8.8,W,D*1A
$PSSN,HRP,070410.50,180324,189.923,,0.245,1.250,,1.284,22,2,8.837,W*10
$GNRMC,070411.00,A,3737.7556297,N,12704.7385030,E,0.5,,180324,8.8,W,D*1F
$PSSN,HRP,070411.00,180324,189.224,,-8.765,1.408,,1.393,22,2,8.837,W*36
$GNRMC,070411.50,A,3737.7556081,N,12704.7384886,E,0.3,,180324,8.8,W,D*1D
$PSSN,HRP,070411.50,180324,189.672,,-17.306,1.481,,1.433,21,2,8.837,W*04
$GNRMC,070412.00,A,3737.7556509,N,12704.7385055,E,0.2,333.4,180324,8.8,W,D*31
$PSSN,HRP,070412.00,180324,190.199,,-2.241,1.510,,1.456,21,2,8.837,W*34
$GNRMC,070412.50,A,3737.7556593,N,12704.7384926,E,0.2,,180324,8.8,W,D*12
$PSSN,HRP,070412.50,180324,189.756,,0.209,1.445,,1.424,22,2,8.837,W*18
$GNRMC,070413.00,A,3737.7556382,N,12704.7384827,E,0.4,,180324,8.8,W,D*16
$PSSN,HRP,070413.00,180324,189.031,,-7.280,1.393,,1.379,22,2,8.837,W*32
$GNRMC,070413.50,A,3737.7556057,N,12704.7384842,E,0.2,191.2,180324,8.8,W,D*38
$PSSN,HRP,070413.50,180324,189.596,,-18.160,1.366,,1.358,22,2,8.837,W*05
$GNRMC,070414.00,A,3737.7556490,N,12704.7385206,E,0.2,,180324,8.8,W,D*1B
$PSSN,HRP,070414.00,180324,190.346,,-3.361,1.342,,1.346,22,2,8.837,W*34
$GNRMC,070414.50,A,3737.7556581,N,12704.7384966,E,0.0,,180324,8.8,W,D*11
$PSSN,HRP,070414.50,180324,190.298,,0.041,1.222,,1.276,22,2,8.837,W*19
$GNRMC,070415.00,A,3737.7556414,N,12704.7384864,E,0.3,,180324,8.8,W,D*18
$PSSN,HRP,070415.00,180324,190.490,,-5.390,1.382,,1.378,21,2,8.837,W*33
$GNRMC,070415.50,A,3737.7556114,N,12704.7384792,E,0.2,,180324,8.8,W,D*1F
$PSSN,HRP,070415.50,180324,190.984,,-15.835,1.373,,1.402,21,2,8.837,W*0F
$GNRMC,070416.00,A,3737.7556523,N,12704.7384989,E,0.2,,180324,8.8,W,D*1D
$PSSN,HRP,070416.00,180324,190.812,,-1.741,1.344,,1.371,21,2,8.837,W*39
$GNRMC,070416.50,A,3737.7556581,N,12704.7384939,E,0.1,,180324,8.8,W,D*18
$PSSN,HRP,070416.50,180324,190.394,,1.065,1.225,,1.303,21,2,8.837,W*16
$GNRMC,070417.00,A,3737.7556479,N,12704.7384892,E,0.3,,180324,8.8,W,D*18
$PSSN,HRP,070417.00,180324,190.346,,-2.747,1.336,,1.365,21,2,8.837,W*37
$GNRMC,070417.50,A,3737.7556045,N,12704.7384609,E,0.2,186.7,180324,8.8,W,D*3D
$PSSN,HRP,070417.50,180324,189.841,,-17.995,1.331,,1.378,21,2,8.837,W*08
$GNRMC,070418.00,A,3737.7556493,N,12704.7385086,E,0.3,,180324,8.8,W,D*1F
$PSSN,HRP,070418.00,180324,190.863,,-3.411,1.400,,1.415,21,2,8.837,W*37
$GNRMC,070418.50,A,3737.7556619,N,12704.7384903,E,0.1,,180324,8.8,W,D*1D
$PSSN,HRP,070418.50,180324,190.044,,0.827,1.242,,1.319,21,2,8.837,W*13
$GNRMC,070419.00,A,3737.7556466,N,12704.7384872,E,0.4,,180324,8.8,W,D*11
$PSSN,HRP,070419.00,180324,190.744,,-5.011,1.374,,1.391,21,2,8.837,W*31
$GNRMC,070419.50,A,3737.7556097,N,12704.7384485,E,0.1,191.2,180324,8.8,W,D*3A
$PSSN,HRP,070419.50,180324,190.339,,-17.161,1.343,,1.384,21,2,8.837,W*0F
$GNRMC,070420.00,A,3737.7556564,N,12704.7384695,E,0.3,,180324,8.8,W,D*18
$PSSN,HRP,070420.00,180324,190.464,,-0.968,1.357,,1.370,21,2,8.837,W*36
$GNRMC,070420.50,A,3737.7556620,N,12704.7384794,E,0.1,,180324,8.8,W,D*1C
$PSSN,HRP,070420.50,180324,189.753,,1.093,1.245,,1.306,21,2,8.837,W*1E
$GNRMC,070421.00,A,3737.7556371,N,12704.7384736,E,0.5,,180324,8.8,W,D*15
$PSSN,HRP,070421.00,180324,188.809,,-8.023,1.404,,1.410,21,2,8.837,W*37
$GNRMC,070421.50,A,3737.7556175,N,12704.7384769,E,0.4,,180324,8.8,W,D*1D
$PSSN,HRP,070421.50,180324,190.363,,-15.662,1.491,,1.473,20,2,8.837,W*0B
$GNRMC,070422.00,A,3737.7556598,N,12704.7384915,E,0.1,,180324,8.8,W,D*1C
$PSSN,HRP,070422.00,180324,190.062,,-1.167,1.451,,1.455,20,2,8.837,W*30
$GNRMC,070422.50,A,3737.7556637,N,12704.7384981,E,0.0,,180324,8.8,W,D*13
$PSSN,HRP,070422.50,180324,189.645,,0.267,1.433,,1.452,21,2,8.837,W*13
$GNRMC,070423.00,A,3737.7556280,N,12704.7384920,E,0.6,,180324,8.8,W,D*12
$PSSN,HRP,070423.00,180324,190.109,,-10.515,1.410,,1.424,21,2,8.837,W*0E
$GNRMC,070423.50,A,3737.7556206,N,12704.7384756,E,0.6,,180324,8.8,W,D*16
$PSSN,HRP,070423.50,180324,190.423,,-15.880,1.450,,1.441,21,2,8.837,W*05
$GNRMC,070424.00,A,3737.7556638,N,12704.7384949,E,0.1,,180324,8.8,W,D*1A
$PSSN,HRP,070424.00,180324,190.022,,-0.780,1.303,,1.350,21,2,8.837,W*3F
$GNRMC,070424.50,A,3737.7556663,N,12704.7385139,E,0.1,,180324,8.8,W,D*1F
$PSSN,HRP,070424.50,180324,189.828,,0.435,1.244,,1.319,21,2,8.837,W*1F
$GNRMC,070425.00,A,3737.7556264,N,12704.7384880,E,0.7,161.1,180324,8.8,W,D*3D
$PSSN,HRP,070425.00,180324,189.828,,-14.437,1.435,,1.429,21,2,8.837,W*05
$GNRMC,070425.50,A,3737.7556351,N,12704.7385082,E,0.6,,180324,8.8,W,D*1C
$PSSN,HRP,070425.50,180324,189.630,,-9.945,1.431,,1.436,21,2,8.837,W*39
$GNRMC,070426.00,A,3737.7556690,N,12704.7385111,E,0.1,,180324,8.8,W,D*1E
$PSSN,HRP,070426.00,180324,188.936,,-0.099,1.252,,1.311,21,2,8.837,W*37
$GNRMC,070426.50,A,3737.7556644,N,12704.7385006,E,0.2,,180324,8.8,W,D*16
$PSSN,HRP,070426.50,180324,189.027,,-0.612,1.256,,1.321,21,2,8.837,W*38
$GNRMC,070427.00,A,3737.7556135,N,12704.7384777,E,0.4,182.2,180324,8.8,W,D*32
$PSSN,HRP,070427.00,180324,189.422,,-18.169,1.369,,1.385,21,2,8.837,W*0C
$GNRMC,070427.50,A,3737.7556544,N,12704.7385240,E,0.5,346.2,180324,8.8,W,D*3E
$PSSN,HRP,070427.50,180324,189.281,,-4.402,1.402,,1.398,21,2,8.837,W*35
$GNRMC,070428.00,A,3737.7556655,N,12704.7385205,E,0.0,,180324,8.8,W,D*1E
$PSSN,HRP,070428.00,180324,188.752,,-0.386,1.256,,1.318,21,2,8.837,W*35
$GNRMC,070428.50,A,3737.7556411,N,12704.7385023,E,0.6,,180324,8.8,W,D*19
$PSSN,HRP,070428.50,180324,189.608,,-9.618,1.425,,1.432,21,2,8.837,W*39
$GNRMC,070429.00,A,3737.7556198,N,12704.7384871,E,0.5,,180324,8.8,W,D*14
$PSSN,HRP,070429.00,180324,189.849,,-15.081,1.418,,1.420,21,2,8.837,W*00
$GNRMC,070429.50,A,3737.7556619,N,12704.7385184,E,0.1,,180324,8.8,W,D*19
$PSSN,HRP,070429.50,180324,189.210,,-0.900,1.279,,1.325,21,2,8.837,W*34
$GNRMC,070430.00,A,3737.7556645,N,12704.7385215,E,0.0,,180324,8.8,W,D*17
$PSSN,HRP,070430.00,180324,189.258,,0.210,1.249,,1.300,20,2,8.837,W*17
$GNRMC,070430.50,A,3737.7556213,N,12704.7384855,E,0.8,175.2,180324,8.8,W,D*3D
$PSSN,HRP,070430.50,180324,189.513,,-15.517,1.459,,1.433,21,2,8.837,W*02
$GNRMC,070431.00,A,3737.7556369,N,12704.7384964,E,0.7,,180324,8.8,W,D*16
$PSSN,HRP,070431.00,180324,189.469,,-10.738,1.412,,1.417,21,2,8.837,W*09
$GNRMC,070431.50,A,3737.7556708,N,12704.7385065,E,0.1,,180324,8.8,W,D*1F
$PSSN,HRP,070431.50,180324,189.276,,-0.184,1.247,,1.309,21,2,8.837,W*3A
$GNRMC,070432.00,A,3737.7556664,N,12704.7385017,E,0.1,,180324,8.8,W,D*17
$PSSN,HRP,070432.00,180324,189.248,,-0.981,1.281,,1.329,21,2,8.837,W*34
$GNRMC,070432.50,A,3737.7556143,N,12704.7384803,E,0.3,194.0,180324,8.8,W,D*3C
$PSSN,HRP,070432.50,180324,189.113,,-18.446,1.373,,1.388,21,2,8.837,W*04
$GNRMC,070433.00,A,3737.7556571,N,12704.7385020,E,0.4,338.2,180324,8.8,W,D*34
$PSSN,HRP,070433.00,180324,189.462,,-3.921,1.393,,1.389,21,2,8.837,W*3A
$GNRMC,070433.50,A,3737.7556711,N,12704.7385250,E,0.0,,180324,8.8,W,D*10
$PSSN,HRP,070433.50,180324,189.782,,0.482,1.234,,1.304,21,2,8.837,W*11
$GNRMC,070434.00,A,3737.7556510,N,12704.7385130,E,0.5,,180324,8.8,W,D*11
$PSSN,HRP,070434.00,180324,189.360,,-6.780,1.409,,1.417,21,2,8.837,W*3C
$GNRMC,070434.50,A,3737.7556209,N,12704.7384885,E,0.4,,180324,8.8,W,D*1C
$PSSN,HRP,070434.50,180324,189.880,,-15.791,1.447,,1.456,21,2,8.837,W*01
$GNRMC,070435.00,A,3737.7556653,N,12704.7384903,E,0.2,,180324,8.8,W,D*1A
$PSSN,HRP,070435.00,180324,189.765,,-0.135,1.293,,1.371,21,2,8.837,W*30
$GNRMC,070435.50,A,3737.7556636,N,12704.7384928,E,0.1,,180324,8.8,W,D*16
$PSSN,HRP,070435.50,180324,189.858,,-0.696,1.282,,1.369,21,2,8.837,W*33
$GNRMC,070436.00,A,3737.7556030,N,12704.7384542,E,0.4,192.8,180324,8.8,W,D*39
$PSSN,HRP,070436.00,180324,189.356,,-19.441,1.380,,1.388,21,2,8.837,W*0C
$GNRMC,070436.50,A,3737.7556537,N,12704.7385089,E,0.4,340.3,180324,8.8,W,D*3B
$PSSN,HRP,070436.50,180324,189.246,,-4.537,1.421,,1.407,21,2,8.837,W*39
$GNRMC,070437.00,A,3737.7556651,N,12704.7385080,E,0.0,,180324,8.8,W,D*1B
$PSSN,HRP,070437.00,180324,188.417,,-0.595,1.272,,1.335,21,2,8.837,W*34
$GNRMC,070437.50,A,3737.7556364,N,12704.7385091,E,0.7,159.2,180324,8.8,W,D*3B
$PSSN,HRP,070437.50,180324,189.402,,-12.644,1.454,,1.458,21,2,8.837,W*06
$GNRMC,070438.00,A,3737.7556358,N,12704.7384948,E,0.6,,180324,8.8,W,D*12
$PSSN,HRP,070438.00,180324,189.847,,-11.655,1.416,,1.429,20,2,8.837,W*03
$GNRMC,070438.50,A,3737.7556661,N,12704.7385280,E,0.0,,180324,8.8,W,D*10
$PSSN,HRP,070438.50,180324,189.171,,-0.609,1.267,,1.324,20,2,8.837,W*39
$GNRMC,070439.00,A,3737.7556666,N,12704.7385324,E,0.0,,180324,8.8,W,D*1C
$PSSN,HRP,070439.00,180324,188.905,,-0.260,1.297,,1.327,20,2,8.837,W*30
$GNRMC,070439.50,A,3737.7556220,N,12704.7384833,E,0.5,185.4,180324,8.8,W,D*30
$PSSN,HRP,070439.50,180324,188.842,,-16.233,1.519,,1.451,20,2,8.837,W*01
$GNRMC,070440.00,A,3737.7556529,N,12704.7384924,E,0.5,,180324,8.8,W,D*14
$PSSN,HRP,070440.00,180324,189.291,,-5.737,1.440,,1.426,20,2,8.837,W*31
$GNRMC,070440.50,A,3737.7556724,N,12704.7385402,E,0.1,,180324,8.8,W,D*12
$PSSN,HRP,070440.50,180324,189.718,,0.286,1.264,,1.341,21,2,8.837,W*10
$GNRMC,070441.00,A,3737.7556595,N,12704.7385340,E,0.4,,180324,8.8,W,D*1A
$PSSN,HRP,070441.00,180324,190.198,,-3.953,1.405,,1.463,21,2,8.837,W*39
$GNRMC,070441.50,A,3737.7556167,N,12704.7384962,E,0.3,,180324,8.8,W,D*1A
$PSSN,HRP,070441.50,180324,190.469,,-15.992,1.432,,1.490,21,2,8.837,W*05
$GNRMC,070442.00,A,3737.7556598,N,12704.7385186,E,0.1,,180324,8.8,W,D*19
$PSSN,HRP,070442.00,180324,190.127,,-1.052,1.295,,1.348,21,2,8.837,W*35
$GNRMC,070442.50,A,3737.7556719,N,12704.7385218,E,0.0,,180324,8.8,W,D*12
$PSSN,HRP,070442.50,180324,189.649,,0.296,1.231,,1.299,21,2,8.837,W*12
$GNRMC,070443.00,A,3737.7556382,N,12704.7384985,E,0.6,,180324,8.8,W,D*18
$PSSN,HRP,070443.00,180324,189.610,,-11.411,1.415,,1.417,21,2,8.837,W*0E
$GNRMC,070443.50,A,3737.7556386,N,12704.7384943,E,0.6,,180324,8.8,W,D*13
$PSSN,HRP,070443.50,180324,190.117,,-12.011,1.419,,1.431,21,2,8.837,W*0C
$GNRMC,070444.00,A,3737.7556720,N,12704.7384999,E,0.1,,180324,8.8,W,D*19
$PSSN,HRP,070444.00,180324,189.216,,-0.145,1.242,,1.321,21,2,8.837,W*39
$GNRMC,070444.50,A,3737.7556732,N,12704.7385240,E,0.2,,180324,8.8,W,D*12
$PSSN,HRP,070444.50,180324,189.186,,0.091,1.258,,1.335,21,2,8.837,W*1D
$GNRMC,070445.00,A,3737.7556207,N,12704.7384915,E,0.6,181.4,180324,8.8,W,D*39
$PSSN,HRP,070445.00,180324,189.320,,-17.262,1.446,,1.435,21,2,8.837,W*0C
$GNRMC,070445.50,A,3737.7556514,N,12704.7385168,E,0.8,,180324,8.8,W,D*16
$PSSN,HRP,070445.50,180324,188.670,,-8.277,1.551,,1.673,20,2,8.837,W*34
$GNRMC,070446.00,A,3737.7556746,N,12704.7385313,E,0.1,,180324,8.8,W,D*12
$PSSN,HRP,070446.00,180324,189.403,,0.023,1.494,,1.798,20,2,8.837,W*1F
$GNRMC,070446.50,A,3737.7556648,N,12704.7385151,E,0.2,,180324,8.8,W,D*1F
$PSSN,HRP,070446.50,180324,189.398,,-2.682,1.649,,1.964,21,2,8.837,W*33
$GNRMC,070447.00,A,3737.7556080,N,12704.7384793,E,0.2,190.0,180324,8.8,W,D*36
$PSSN,HRP,070447.00,180324,189.533,,-19.756,1.353,,1.376,21,2,8.837,W*05
$GNRMC,070447.50,A,3737.7556595,N,12704.7385467,E,0.4,352.6,180324,8.8,W,D*37
$PSSN,HRP,070447.50,180324,189.331,,-4.682,1.425,,1.395,21,2,8.837,W*3B
$GNRMC,070448.00,A,3737.7556727,N,12704.7385497,E,0.1,,180324,8.8,W,D*10
$PSSN,HRP,070448.00,180324,189.109,,0.076,1.263,,1.329,21,2,8.837,W*1F
$GNRMC,070448.50,A,3737.7556480,N,12704.7385255,E,0.6,,180324,8.8,W,D*14
$PSSN,HRP,070448.50,180324,188.952,,-9.432,1.439,,1.457,21,2,8.837,W*3A
$GNRMC,070449.00,A,3737.7556222,N,12704.7385012,E,0.5,,180324,8.8,W,D*1C
$PSSN,HRP,070449.00,180324,189.880,,-16.001,1.423,,1.435,21,2,8.837,W*04
$GNRMC,070449.50,A,3737.7556766,N,12704.7385478,E,0.1,,180324,8.8,W,D*10
$PSSN,HRP,070449.50,180324,190.111,,-0.090,1.284,,1.336,21,2,8.837,W*38
$GNRMC,070450.00,A,3737.7556759,N,12704.7385366,E,0.1,,180324,8.8,W,D*19
$PSSN,HRP,070450.00,180324,189.565,,0.498,1.257,,1.307,21,2,8.837,W*17
$GNRMC,070450.50,A,3737.7556373,N,12704.7385039,E,0.8,183.5,180324,8.8,W,D*31
$PSSN,HRP,070450.50,180324,189.361,,-13.693,1.451,,1.452,21,2,8.837,W*01
$GNRMC,070451.00,A,3737.7556384,N,12704.7385124,E,0.8,,180324,8.8,W,D*11
$PSSN,HRP,070451.00,180324,189.896,,-12.319,1.434,,1.479,21,2,8.837,W*0A
$GNRMC,070451.50,A,3737.7556792,N,12704.7385309,E,0.3,,180324,8.8,W,D*11
$PSSN,HRP,070451.50,180324,189.474,,0.287,1.271,,1.359,21,2,8.837,W*15
$GNRMC,070452.00,A,3737.7556778,N,12704.7385242,E,0.1,,180324,8.8,W,D*1F
$PSSN,HRP,070452.00,180324,189.070,,0.197,1.254,,1.313,21,2,8.837,W*18
$GNRMC,070452.50,A,3737.7556266,N,12704.7384952,E,0.6,184.3,180324,8.8,W,D*3C
$PSSN,HRP,070452.50,180324,188.812,,-16.604,1.466,,1.446,21,2,8.837,W*07
$GNRMC,070453.00,A,3737.7556413,N,12704.7385011,E,0.7,,180324,8.8,W,D*12
$PSSN,HRP,070453.00,180324,188.829,,-11.206,1.429,,1.472,21,2,8.837,W*06
$GNRMC,070453.50,A,3737.7556801,N,12704.7385197,E,0.1,,180324,8.8,W,D*11
$PSSN,HRP,070453.50,180324,189.168,,0.122,1.264,,1.362,21,2,8.837,W*1F
$GNRMC,070454.00,A,3737.7556748,N,12704.7385146,E,0.1,,180324,8.8,W,D*1D
$PSSN,HRP,070454.00,180324,189.365,,-0.314,1.279,,1.346,21,2,8.837,W*32
$GNRMC,070454.50,A,3737.7556240,N,12704.7384880,E,0.3,195.1,180324,8.8,W,D*37
$PSSN,HRP,070454.50,180324,189.588,,-18.266,1.385,,1.405,21,2,8.837,W*0D
$GNRMC,070455.00,A,3737.7556634,N,12704.7385371,E,0.4,,180324,8.8,W,D*15
$PSSN,HRP,070455.00,180324,190.679,,-4.502,1.388,,1.413,21,2,8.837,W*3E
$GNRMC,070455.50,A,3737.7556790,N,12704.7385393,E,0.1,,180324,8.8,W,D*16
$PSSN,HRP,070455.50,180324,190.346,,0.334,1.233,,1.316,21,2,8.837,W*1B
$GNRMC,070456.00,A,3737.7556720,N,12704.7385293,E,0.2,,180324,8.8,W,D*19
$PSSN,HRP,070456.00,180324,190.447,,1.049,1.254,,1.317,21,2,8.837,W*13
$GNRMC,070456.50,A,3737.7556725,N,12704.7385442,E,0.1,,180324,8.8,W,D*10
$PSSN,HRP,070456.50,180324,190.810,,0.863,1.263,,1.345,21,2,8.837,W*1A
$GNRMC,070457.00,A,3737.7556652,N,12704.7385393,E,0.0,,180324,8.8,W,D*1F
$PSSN,HRP,070457.00,180324,190.622,,0.654,1.261,,1.380,21,2,8.837,W*10
$GNRMC,070457.50,A,3737.7556702,N,12704.7385240,E,0.1,,180324,8.8,W,D*10
$PSSN,HRP,070457.50,180324,190.200,,0.002,1.264,,1.405,21,2,8.837,W*1B
$GNRMC,070458.00,A,3737.7556716,N,12704.7385238,E,0.3,,180324,8.8,W,D*12
$PSSN,HRP,070458.00,180324,188.922,,-0.434,1.271,,1.393,19,2,8.837,W*38
$GNRMC,070458.50,A,3737.7556705,N,12704.7385245,E,0.2,,180324,8.8,W,D*1E
$PSSN,HRP,070458.50,180324,189.674,,-0.456,1.139,,1.245,20,2,8.837,W*3B
$GNRMC,070459.00,A,3737.7556698,N,12704.7385103,E,0.1,,180324,8.8,W,D*1D
$PSSN,HRP,070459.00,180324,189.352,,0.170,0.995,,1.078,19,2,8.837,W*1B
$GNRMC,070459.50,A,3737.7556738,N,12704.7385016,E,0.1,,180324,8.8,W,D*16
$PSSN,HRP,070459.50,180324,190.176,,-0.254,1.091,,1.248,20,2,8.837,W*3D
$GNRMC,070500.00,A,3737.7556650,N,12704.7385207,E,0.2,,180324,8.8,W,D*10
$PSSN,HRP,070500.00,180324,189.196,,0.134,1.182,,1.437,18,2,8.837,W*1D
$GNRMC,070500.50,A,3737.7556586,N,12704.7385099,E,0.2,,180324,8.8,W,D*18
$PSSN,HRP,070500.50,180324,190.168,,-1.869,1.283,,1.648,18,2,8.837,W*34
$GNRMC,070501.00,A,3737.7556737,N,12704.7384997,E,0.4,,180324,8.8,W,D*14
$PSSN,HRP,070501.00,180324,187.213,,-2.486,1.248,,1.579,18,2,8.837,W*31
$GNRMC,070501.50,A,3737.7558659,N,12704.7385290,E,1.5,359.3,180324,8.8,W,D*39
$PSSN,HRP,070501.50,180324,181.966,,0.577,1.535,,1.656,13,2,8.837,W*13
$GNRMC,070502.00,A,3737.7559676,N,12704.7386188,E,0.2,8.9,180324,8.8,W,D*31
$PSSN,HRP,070502.00,180324,183.507,,2.362,1.537,,1.831,14,2,8.837,W*16
$GNRMC,070502.50,A,3737.7559555,N,12704.7385726,E,0.2,359.5,180324,8.8,W,D*3C
$PSSN,HRP,070502.50,180324,186.830,,0.768,1.845,,2.447,13,2,8.837,W*12
$GNRMC,070503.00,A,3737.7559546,N,12704.7385729,E,0.0,,180324,8.8,W,D*13
$PSSN,HRP,070503.00,180324,187.635,,-0.127,1.991,,2.884,13,2,8.837,W*37
$GNRMC,070503.50,A,3737.7559577,N,12704.7385999,E,0.0,,180324,8.8,W,D*11
$PSSN,HRP,070503.50,180324,188.740,,1.059,2.084,,3.041,13,2,8.837,W*14
$GNRMC,070504.00,A,3737.7559586,N,12704.7385976,E,0.0,,180324,8.8,W,D*1C
$PSSN,HRP,070504.00,180324,190.585,,2.298,1.597,,2.301,13,2,8.837,W*1A
$GNRMC,070504.50,A,3737.7559554,N,12704.7385949,E,0.0,,180324,8.8,W,D*1A
$PSSN,HRP,070504.50,180324,190.457,,3.161,1.406,,1.988,13,2,8.837,W*14
$GNRMC,070505.00,A,3737.7559554,N,12704.7385888,E,0.1,,180324,8.8,W,D*13
$PSSN,HRP,070505.00,180324,190.053,,4.293,1.301,,1.791,12,2,8.837,W*1E
$GNRMC,070505.50,A,3737.7559527,N,12704.7385804,E,0.0,,180324,8.8,W,D*17
$PSSN,HRP,070505.50,180324,190.550,,5.180,1.873,,3.028,10,2,8.837,W*16
$GNRMC,070506.00,A,3737.7559509,N,12704.7385681,E,0.0,,180324,8.8,W,D*1E
$PSSN,HRP,070506.00,180324,,,,,,,00,0,,E*2B
$GNRMC,070506.50,A,3737.7559454,N,12704.7385560,E,0.1,,180324,8.8,W,D*1F
$PSSN,HRP,070506.50,180324,188.762,,6.207,1.068,,1.200,14,2,8.837,W*1C
$GNRMC,070507.00,A,3737.7559560,N,12704.7385335,E,0.1,,180324,8.8,W,D*1B
$PSSN,HRP,070507.00,180324,188.723,,18.707,1.164,,1.133,14,2,8.837,W*29
$GNRMC,070507.50,A,3737.7559391,N,12704.7385467,E,0.1,,180324,8.8,W,D*16
$PSSN,HRP,070507.50,180324,188.711,,3.555,1.138,,1.272,19,2,8.837,W*10
$GNRMC,070508.00,A,3737.7559460,N,12704.7385525,E,0.1,,180324,8.8,W,D*12
$PSSN,HRP,070508.00,180324,188.283,,-1.424,1.327,,1.416,19,2,8.837,W*34
$GNRMC,070508.50,A,3737.7559551,N,12704.7385604,E,0.2,,180324,8.8,W,D*17
$PSSN,HRP,070508.50,180324,188.611,,3.771,1.447,,1.459,19,2,8.837,W*18
$GNRMC,070509.00,A,3737.7559818,N,12704.7385648,E,0.1,,180324,8.8,W,D*18
$PSSN,HRP,070509.00,180324,189.536,,21.375,1.415,,1.225,18,2,8.837,W*20
$GNRMC,070509.50,A,3737.7559557,N,12704.7385611,E,0.2,,180324,8.8,W,D*14
$PSSN,HRP,070509.50,180324,189.033,,5.357,1.348,,1.402,18,2,8.837,W*1F
$GNRMC,070510.00,A,3737.7559422,N,12704.7385664,E,0.1,,180324,8.8,W,D*1B
$PSSN,HRP,070510.00,180324,188.756,,-0.983,1.380,,1.474,18,2,8.837,W*39
$GNRMC,070510.50,A,3737.7559507,N,12704.7385470,E,0.2,,180324,8.8,W,D*1C
$PSSN,HRP,070510.50,180324,188.764,,4.068,1.432,,1.496,19,2,8.837,W*1B
$GNRMC,070511.00,A,3737.7559726,N,12704.7385411,E,0.1,,180324,8.8,W,D*1D
$PSSN,HRP,070511.00,180324,189.184,,19.944,1.504,,1.363,19,2,8.837,W*24
$GNRMC,070511.50,A,3737.7559442,N,12704.7385662,E,0.2,,180324,8.8,W,D*1C
$PSSN,HRP,070511.50,180324,188.814,,4.886,1.393,,1.438,20,2,8.837,W*18
$GNRMC,070512.00,A,3737.7559370,N,12704.7385648,E,0.1,,180324,8.8,W,D*17
$PSSN,HRP,070512.00,180324,188.538,,-0.330,1.311,,1.335,20,2,8.837,W*32
$GNRMC,070512.50,A,3737.7559572,N,12704.7385734,E,0.2,,180324,8.8,W,D*1F
$PSSN,HRP,070512.50,180324,189.019,,5.988,1.343,,1.334,20,2,8.837,W*17
$GNRMC,070513.00,A,3737.7559796,N,12704.7385685,E,0.0,,180324,8.8,W,D*1A
$PSSN,HRP,070513.00,180324,189.856,,19.274,1.428,,1.249,20,2,8.837,W*24
$GNRMC,070513.50,A,3737.7559390,N,12704.7385396,E,0.1,,180324,8.8,W,D*1B
$PSSN,HRP,070513.50,180324,188.807,,3.567,1.372,,1.414,20,2,8.837,W*1C
$GNRMC,070514.00,A,3737.7559375,N,12704.7385472,E,0.1,,180324,8.8,W,D*1F
$PSSN,HRP,070514.00,180324,188.204,,-0.367,1.311,,1.335,20,2,8.837,W*3E
$GNRMC,070514.50,A,3737.7559570,N,12704.7385308,E,0.3,,180324,8.8,W,D*11
$PSSN,HRP,070514.50,180324,189.281,,7.698,1.352,,1.319,21,2,8.837,W*10
$GNRMC,070515.00,A,3737.7559738,N,12704.7385274,E,0.1,,180324,8.8,W,D*13
$PSSN,HRP,070515.00,180324,189.795,,18.973,1.425,,1.253,21,2,8.837,W*28
$GNRMC,070515.50,A,3737.7559487,N,12704.7385492,E,0.2,,180324,8.8,W,D*1C
$PSSN,HRP,070515.50,180324,188.651,,2.873,1.375,,1.425,20,2,8.837,W*1B
$GNRMC,070516.00,A,3737.7559442,N,12704.7385494,E,0.0,,180324,8.8,W,D*17
$PSSN,HRP,070516.00,180324,188.542,,-0.335,1.293,,1.322,20,2,8.837,W*33
$GNRMC,070516.50,A,3737.7559611,N,12704.7385363,E,0.3,,180324,8.8,W,D*1A
$PSSN,HRP,070516.50,180324,189.289,,11.081,1.373,,1.288,21,2,8.837,W*29
$GNRMC,070517.00,A,3737.7559695,N,12704.7385383,E,0.1,,180324,8.8,W,D*1E
$PSSN,HRP,070517.00,180324,189.859,,15.951,1.394,,1.270,21,2,8.837,W*24
$GNRMC,070517.50,A,3737.7559437,N,12704.7385567,E,0.1,,180324,8.8,W,D*1D
$PSSN,HRP,070517.50,180324,189.377,,0.918,1.349,,1.412,20,2,8.837,W*1C
$GNRMC,070518.00,A,3737.7559434,N,12704.7385657,E,0.1,,180324,8.8,W,D*14
$PSSN,HRP,070518.00,180324,188.919,,-0.293,1.298,,1.325,20,2,8.837,W*3E
$GNRMC,070518.50,A,3737.7559659,N,12704.7385487,E,0.2,,180324,8.8,W,D*14
$PSSN,HRP,070518.50,180324,189.566,,12.895,1.366,,1.273,21,2,8.837,W*2F
$GNRMC,070519.00,A,3737.7559643,N,12704.7385475,E,0.3,,180324,8.8,W,D*17
$PSSN,HRP,070519.00,180324,189.646,,12.016,1.383,,1.322,20,2,8.837,W*26
$GNRMC,070519.50,A,3737.7559435,N,12704.7385463,E,0.0,,180324,8.8,W,D*15
$PSSN,HRP,070519.50,180324,188.748,,0.474,1.326,,1.403,22,2,8.837,W*17
$GNRMC,070520.00,A,3737.7559419,N,12704.7385457,E,0.1,,180324,8.8,W,D*12
$PSSN,HRP,070520.00,180324,189.094,,1.936,1.208,,1.221,22,2,8.837,W*1E
$GNRMC,070520.50,A,3737.7559797,N,12704.7385336,E,0.1,,180324,8.8,W,D*12
$PSSN,HRP,070520.50,180324,189.721,,20.613,1.294,,1.067,22,2,8.837,W*2C
$GNRMC,070521.00,A,3737.7559552,N,12704.7385396,E,0.3,,180324,8.8,W,D*15
$PSSN,HRP,070521.00,180324,189.280,,8.997,1.264,,1.235,22,2,8.837,W*15
$GNRMC,070521.50,A,3737.7559388,N,12704.7385376,E,0.1,,180324,8.8,W,D*1D
$PSSN,HRP,070521.50,180324,189.092,,0.812,1.241,,1.294,22,2,8.837,W*19
$GNRMC,070522.00,A,3737.7559405,N,12704.7385325,E,0.0,,180324,8.8,W,D*1E
$PSSN,HRP,070522.00,180324,189.175,,0.713,1.214,,1.236,22,2,8.837,W*11
$GNRMC,070522.50,A,3737.7559742,N,12704.7385390,E,0.2,,180324,8.8,W,D*17
$PSSN,HRP,070522.50,180324,189.163,,16.741,1.293,,1.129,22,2,8.837,W*21
$GNRMC,070523.00,A,3737.7559589,N,12704.7385399,E,0.3,,180324,8.8,W,D*1E
$PSSN,HRP,070523.00,180324,190.140,,9.075,1.249,,1.225,22,2,8.837,W*1A
$GNRMC,070523.50,A,3737.7559342,N,12704.7385432,E,0.1,,180324,8.8,W,D*1E
$PSSN,HRP,070523.50,180324,189.277,,0.213,1.241,,1.301,22,2,8.837,W*14
$GNRMC,070524.00,A,3737.7559339,N,12704.7385465,E,0.0,,180324,8.8,W,D*13
$PSSN,HRP,070524.00,180324,189.200,,0.595,1.203,,1.233,21,2,8.837,W*1A
$GNRMC,070524.50,A,3737.7559675,N,12704.7385436,E,0.1,,180324,8.8,W,D*1C
$PSSN,HRP,070524.50,180324,189.826,,18.791,1.325,,1.156,20,2,8.837,W*2A
$GNRMC,070525.00,A,3737.7559502,N,12704.7385478,E,0.3,,180324,8.8,W,D*13
$PSSN,HRP,070525.00,180324,189.813,,6.262,1.309,,1.359,20,2,8.837,W*1D
$GNRMC,070525.50,A,3737.7559397,N,12704.7385297,E,0.1,,180324,8.8,W,D*19
$PSSN,HRP,070525.50,180324,189.246,,-0.036,1.297,,1.420,20,2,8.837,W*35
$GNRMC,070526.00,A,3737.7559515,N,12704.7385355,E,0.4,,180324,8.8,W,D*19
$PSSN,HRP,070526.00,180324,188.726,,10.842,1.300,,1.241,20,2,8.837,W*28
$GNRMC,070526.50,A,3737.7559606,N,12704.7385306,E,0.2,,180324,8.8,W,D*1D
$PSSN,HRP,070526.50,180324,188.392,,14.531,1.302,,1.215,21,2,8.837,W*29
$GNRMC,070527.00,A,3737.7559351,N,12704.7385386,E,0.1,,180324,8.8,W,D*15
$PSSN,HRP,070527.00,180324,187.870,,-0.792,1.259,,1.340,21,2,8.837,W*38
$GNRMC,070527.50,A,3737.7559373,N,12704.7385534,E,0.1,,180324,8.8,W,D*1F
$PSSN,HRP,070527.50,180324,188.859,,-0.359,1.265,,1.342,21,2,8.837,W*37
$GNRMC,070528.00,A,3737.7559534,N,12704.7385444,E,0.4,,180324,8.8,W,D*13
$PSSN,HRP,070528.00,180324,189.680,,15.876,1.337,,1.202,21,2,8.837,W*2A
$GNRMC,070528.50,A,3737.7559501,N,12704.7385259,E,0.2,,180324,8.8,W,D*1C
$PSSN,HRP,070528.50,180324,188.534,,12.991,1.307,,1.206,21,2,8.837,W*2A
$GNRMC,070529.00,A,3737.7559318,N,12704.7385223,E,0.1,,180324,8.8,W,D*18
$PSSN,HRP,070529.00,180324,187.879,,-0.914,1.244,,1.292,21,2,8.837,W*3D
$GNRMC,070529.50,A,3737.7559310,N,12704.7385275,E,0.0,,180324,8.8,W,D*17
$PSSN,HRP,070529.50,180324,188.457,,-0.334,1.245,,1.301,21,2,8.837,W*35
$GNRMC,070530.00,A,3737.7559622,N,12704.7385316,E,0.3,,180324,8.8,W,D*19
$PSSN,HRP,070530.00,180324,188.945,,18.962,1.359,,1.173,21,2,8.837,W*20
$GNRMC,070530.50,A,3737.7559448,N,12704.7385228,E,0.3,,180324,8.8,W,D*1E
$PSSN,HRP,070530.50,180324,188.434,,9.097,1.311,,1.276,21,2,8.837,W*17
$GNRMC,070531.00,A,3737.7559325,N,12704.7385227,E,0.1,,180324,8.8,W,D*1B
$PSSN,HRP,070531.00,180324,188.482,,-0.326,1.262,,1.315,21,2,8.837,W*32
$GNRMC,070531.50,A,3737.7559419,N,12704.7385243,E,0.2,,180324,8.8,W,D*17
$PSSN,HRP,070531.50,180324,188.267,,6.368,1.281,,1.276,21,2,8.837,W*12
$GNRMC,070532.00,A,3737.7559664,N,12704.7385258,E,0.1,,180324,8.8,W,D*10
$PSSN,HRP,070532.00,180324,188.967,,21.667,1.354,,1.134,19,2,8.837,W*27
$GNRMC,070532.50,A,3737.7559352,N,12704.7385182,E,0.2,,180324,8.8,W,D*12
$PSSN,HRP,070532.50,180324,188.205,,4.297,1.310,,1.329,20,2,8.837,W*15
$GNRMC,070533.00,A,3737.7559285,N,12704.7385133,E,0.0,,180324,8.8,W,D*15
$PSSN,HRP,070533.00,180324,187.795,,-1.109,1.308,,1.352,20,2,8.837,W*3B
$GNRMC,070533.50,A,3737.7559456,N,12704.7385393,E,0.2,,180324,8.8,W,D*12
$PSSN,HRP,070533.50,180324,188.353,,7.808,1.354,,1.321,20,2,8.837,W*11
$GNRMC,070534.00,A,3737.7559624,N,12704.7385352,E,0.2,,180324,8.8,W,D*1A
$PSSN,HRP,070534.00,180324,188.969,,17.140,1.375,,1.229,20,2,8.837,W*2E
$GNRMC,070534.50,A,3737.7559324,N,12704.7385169,E,0.1,,180324,8.8,W,D*13
$PSSN,HRP,070534.50,180324,188.430,,0.728,1.304,,1.340,21,2,8.837,W*1D
$GNRMC,070535.00,A,3737.7559323,N,12704.7385223,E,0.1,,180324,8.8,W,D*1D
$PSSN,HRP,070535.00,180324,188.149,,-0.586,1.294,,1.327,20,2,8.837,W*31
$GNRMC,070535.50,A,3737.7559649,N,12704.7385229,E,0.4,,180324,8.8,W,D*1E
$PSSN,HRP,070535.50,180324,188.281,,17.642,1.399,,1.223,20,2,8.837,W*2A
$GNRMC,070536.00,A,3737.7559506,N,12704.7385317,E,0.4,,180324,8.8,W,D*1C
$PSSN,HRP,070536.00,180324,188.853,,10.673,1.348,,1.329,20,2,8.837,W*2B
$GNRMC,070536.50,A,3737.7559355,N,12704.7385188,E,0.0,,180324,8.8,W,D*19
$PSSN,HRP,070536.50,180324,189.068,,-0.238,1.303,,1.412,22,2,8.837,W*3A
$GNRMC,070537.00,A,3737.7559428,N,12704.7385210,E,0.1,,180324,8.8,W,D*13
$PSSN,HRP,070537.00,180324,188.613,,5.624,1.295,,1.319,22,2,8.837,W*16
$GNRMC,070537.50,A,3737.7559697,N,12704.7385139,E,0.0,,180324,8.8,W,D*19
$PSSN,HRP,070537.50,180324,189.536,,22.634,1.396,,1.159,20,2,8.837,W*24
$GNRMC,070538.00,A,3737.7559485,N,12704.7385107,E,0.2,,180324,8.8,W,D*1D
$PSSN,HRP,070538.00,180324,189.615,,8.172,1.319,,1.341,20,2,8.837,W*1D
$GNRMC,070538.50,A,3737.7559382,N,12704.7385229,E,0.0,,180324,8.8,W,D*15
$PSSN,HRP,070538.50,180324,189.144,,-0.143,1.298,,1.395,21,2,8.837,W*3C
$GNRMC,070539.00,A,3737.7559359,N,12704.7385160,E,0.0,,180324,8.8,W,D*19
$PSSN,HRP,070539.00,180324,189.110,,0.663,1.278,,1.342,20,2,8.837,W*14
$GNRMC,070539.50,A,3737.7559713,N,12704.7385224,E,0.2,,180324,8.8,W,D*17
$PSSN,HRP,070539.50,180324,190.241,,20.283,1.385,,1.189,20,2,8.837,W*20
$GNRMC,070540.00,A,3737.7559491,N,12704.7385209,E,0.3,,180324,8.8,W,D*1B
$PSSN,HRP,070540.00,180324,190.055,,9.361,1.323,,1.328,20,2,8.837,W*1F
$GNRMC,070540.50,A,3737.7559364,N,12704.7385395,E,0.0,,180324,8.8,W,D*14
$PSSN,HRP,070540.50,180324,189.129,,0.022,1.292,,1.391,22,2,8.837,W*1E
$GNRMC,070541.00,A,3737.7559363,N,12704.7385358,E,0.1,,180324,8.8,W,D*17
$PSSN,HRP,070541.00,180324,189.094,,1.209,1.280,,1.340,21,2,8.837,W*1B
$GNRMC,070541.50,A,3737.7559695,N,12704.7385424,E,0.1,,180324,8.8,W,D*12
$PSSN,HRP,070541.50,180324,189.136,,19.357,1.382,,1.212,20,2,8.837,W*20
$GNRMC,070542.00,A,3737.7559508,N,12704.7385452,E,0.2,,180324,8.8,W,D*11
$PSSN,HRP,070542.00,180324,189.179,,7.242,1.313,,1.347,20,2,8.837,W*1E
$GNRMC,070542.50,A,3737.7559394,N,12704.7385351,E,0.1,,180324,8.8,W,D*10
$PSSN,HRP,070542.50,180324,189.026,,-0.199,1.304,,1.394,22,2,8.837,W*35
$GNRMC,070543.00,A,3737.7559403,N,12704.7385390,E,0.1,,180324,8.8,W,D*10
$PSSN,HRP,070543.00,180324,189.126,,2.756,1.282,,1.334,21,2,8.837,W*1C
$GNRMC,070543.50,A,3737.7559761,N,12704.7385264,E,0.1,,180324,8.8,W,D*18
$PSSN,HRP,070543.50,180324,189.358,,18.993,1.366,,1.208,20,2,8.837,W*2A
$GNRMC,070544.00,A,3737.7559497,N,12704.7385342,E,0.1,,180324,8.8,W,D*15
$PSSN,HRP,070544.00,180324,188.995,,4.054,1.295,,1.353,20,2,8.837,W*1F
$GNRMC,070544.50,A,3737.7559431,N,12704.7385257,E,0.0,,180324,8.8,W,D*18
$PSSN,HRP,070544.50,180324,189.006,,-0.032,1.290,,1.381,21,2,8.837,W*3A
$GNRMC,070545.00,A,3737.7559454,N,12704.7385293,E,0.1,,180324,8.8,W,D*16
$PSSN,HRP,070545.00,180324,188.870,,3.853,1.287,,1.340,20,2,8.837,W*1D
$GNRMC,070545.50,A,3737.7559750,N,12704.7385400,E,0.0,,180324,8.8,W,D*19
$PSSN,HRP,070545.50,180324,189.310,,19.098,1.362,,1.210,20,2,8.837,W*2E
$GNRMC,070546.00,A,3737.7559460,N,12704.7385464,E,0.2,,180324,8.8,W,D*1F
$PSSN,HRP,070546.00,180324,189.162,,4.123,1.310,,1.373,20,2,8.837,W*13
$GNRMC,070546.50,A,3737.7559441,N,12704.7385499,E,0.1,,180324,8.8,W,D*18
$PSSN,HRP,070546.50,180324,189.489,,0.394,1.301,,1.394,20,2,8.837,W*15
$GNRMC,070547.00,A,3737.7559527,N,12704.7385513,E,0.3,,180324,8.8,W,D*1C
$PSSN,HRP,070547.00,180324,189.533,,7.924,1.313,,1.316,21,2,8.837,W*1F
$GNRMC,070547.50,A,3737.7559723,N,12704.7385448,E,0.2,,180324,8.8,W,D*11
$PSSN,HRP,070547.50,180324,189.114,,17.458,1.366,,1.232,20,2,8.837,W*28
$GNRMC,070548.00,A,3737.7559421,N,12704.7385514,E,0.2,,180324,8.8,W,D*12
$PSSN,HRP,070548.00,180324,188.705,,0.954,1.306,,1.380,20,2,8.837,W*1C
$GNRMC,070548.50,A,3737.7559479,N,12704.7385629,E,0.0,,180324,8.8,W,D*15
$PSSN,HRP,070548.50,180324,189.030,,-0.110,1.286,,1.373,20,2,8.837,W*39
$GNRMC,070549.00,A,3737.7559690,N,12704.7385593,E,0.3,,180324,8.8,W,D*15
$PSSN,HRP,070549.00,180324,189.121,,14.867,1.355,,1.264,21,2,8.837,W*24
$GNRMC,070549.50,A,3737.7559623,N,12704.7385502,E,0.3,,180324,8.8,W,D*10
$PSSN,HRP,070549.50,180324,189.300,,12.105,1.332,,1.278,20,2,8.837,W*26
$GNRMC,070550.00,A,3737.7559427,N,12704.7385522,E,0.0,,180324,8.8,W,D*1A
$PSSN,HRP,070550.00,180324,188.453,,-0.432,1.278,,1.352,20,2,8.837,W*32
$GNRMC,070550.50,A,3737.7559441,N,12704.7385649,E,0.0,,180324,8.8,W,D*11
$PSSN,HRP,070550.50,180324,189.279,,-0.057,1.277,,1.359,20,2,8.837,W*3B
$GNRMC,070551.00,A,3737.7559753,N,12704.7385596,E,0.3,,180324,8.8,W,D*17
$PSSN,HRP,070551.00,180324,189.888,,18.282,1.368,,1.218,20,2,8.837,W*2E
$GNRMC,070551.50,A,3737.7559558,N,12704.7385315,E,0.3,,180324,8.8,W,D*16
$PSSN,HRP,070551.50,180324,189.413,,10.460,1.312,,1.282,21,2,8.837,W*28
$GNRMC,070552.00,A,3737.7559394,N,12704.7385389,E,0.0,,180324,8.8,W,D*10
$PSSN,HRP,070552.00,180324,188.793,,-0.331,1.230,,1.282,21,2,8.837,W*3A
$GNRMC,070552.50,A,3737.7559427,N,12704.7385385,E,0.0,,180324,8.8,W,D*16
$PSSN,HRP,070552.50,180324,189.462,,2.094,1.236,,1.282,21,2,8.837,W*16
$GNRMC,070553.00,A,3737.7559718,N,12704.7385364,E,0.1,,180324,8.8,W,D*13
$PSSN,HRP,070553.00,180324,190.028,,18.959,1.307,,1.141,21,2,8.837,W*2C
$GNRMC,070553.50,A,3737.7559444,N,12704.7385451,E,0.1,,180324,8.8,W,D*1D
$PSSN,HRP,070553.50,180324,189.226,,2.924,1.248,,1.283,22,2,8.837,W*18
$GNRMC,070554.00,A,3737.7559370,N,12704.7385506,E,0.1,,180324,8.8,W,D*1C
$PSSN,HRP,070554.00,180324,187.914,,-1.112,1.205,,1.227,22,2,8.837,W*3A
$GNRMC,070554.50,A,3737.7559693,N,12704.7385453,E,0.3,,180324,8.8,W,D*12
$PSSN,HRP,070554.50,180324,188.407,,16.664,1.294,,1.132,22,2,8.837,W*2D
$GNRMC,070555.00,A,3737.7559581,N,12704.7385471,E,0.4,,180324,8.8,W,D*11
$PSSN,HRP,070555.00,180324,189.598,,9.915,1.257,,1.210,21,2,8.837,W*17
$GNRMC,070555.50,A,3737.7559430,N,12704.7385493,E,0.0,,180324,8.8,W,D*17
$PSSN,HRP,070555.50,180324,189.567,,0.147,1.221,,1.279,21,2,8.837,W*1A
$GNRMC,070556.00,A,3737.7559505,N,12704.7385534,E,0.1,,180324,8.8,W,D*1B
$PSSN,HRP,070556.00,180324,189.363,,8.103,1.236,,1.178,21,2,8.837,W*12
$GNRMC,070556.50,A,3737.7559688,N,12704.7385586,E,0.2,,180324,8.8,W,D*12
$PSSN,HRP,070556.50,180324,189.551,,16.955,1.305,,1.107,21,2,8.837,W*2D
$GNRMC,070557.00,A,3737.7559356,N,12704.7385625,E,0.1,,180324,8.8,W,D*19
$PSSN,HRP,070557.00,180324,189.978,,0.623,1.252,,1.276,21,2,8.837,W*11
$GNRMC,070557.50,A,3737.7559430,N,12704.7385718,E,0.1,,180324,8.8,W,D*14
$PSSN,HRP,070557.50,180324,190.181,,4.599,1.273,,1.285,20,2,8.837,W*1A
$GNRMC,070558.00,A,3737.7559662,N,12704.7385674,E,0.1,,180324,8.8,W,D*10
$PSSN,HRP,070558.00,180324,190.319,,18.284,1.330,,1.159,20,2,8.837,W*21
$GNRMC,070558.50,A,3737.7559407,N,12704.7385562,E,0.1,,180324,8.8,W,D*10
$PSSN,HRP,070558.50,180324,190.020,,2.565,1.271,,1.292,21,2,8.837,W*1F
$GNRMC,070559.00,A,3737.7559354,N,12704.7385635,E,0.1,,180324,8.8,W,D*14
$PSSN,HRP,070559.00,180324,189.250,,-0.439,1.263,,1.300,21,2,8.837,W*38
$GNRMC,070559.50,A,3737.7559597,N,12704.7385478,E,0.4,,180324,8.8,W,D*16
$PSSN,HRP,070559.50,180324,189.435,,14.323,1.320,,1.202,21,2,8.837,W*29
$GNRMC,070600.00,A,3737.7559595,N,12704.7385489,E,0.3,,180324,8.8,W,D*17
$PSSN,HRP,070600.00,180324,190.053,,13.513,1.277,,1.197,21,2,8.837,W*21
$GNRMC,070600.50,A,3737.7559396,N,12704.7385516,E,0.0,,180324,8.8,W,D*13
$PSSN,HRP,070600.50,180324,189.806,,0.514,1.229,,1.292,21,2,8.837,W*1C
$GNRMC,070601.00,A,3737.7559378,N,12704.7385455,E,0.0,,180324,8.8,W,D*11
$PSSN,HRP,070601.00,180324,189.644,,-0.357,1.266,,1.299,21,2,8.837,W*3C
$GNRMC,070601.50,A,3737.7559672,N,12704.7385495,E,0.2,,180324,8.8,W,D*15
$PSSN,HRP,070601.50,180324,189.998,,17.454,1.369,,1.191,20,2,8.837,W*2C
$GNRMC,070602.00,A,3737.7559490,N,12704.7385460,E,0.3,,180324,8.8,W,D*16
$PSSN,HRP,070602.00,180324,190.466,,7.235,1.306,,1.303,20,2,8.837,W*1E
$GNRMC,070602.50,A,3737.7559400,N,12704.7385487,E,0.1,,180324,8.8,W,D*11
$PSSN,HRP,070602.50,180324,189.773,,0.218,1.293,,1.345,21,2,8.837,W*12
$GNRMC,070603.00,A,3737.7559443,N,12704.7385555,E,0.2,,180324,8.8,W,D*1F
$PSSN,HRP,070603.00,180324,189.451,,5.343,1.283,,1.276,21,2,8.837,W*1F
$GNRMC,070603.50,A,3737.7559692,N,12704.7385465,E,0.1,,180324,8.8,W,D*15
$PSSN,HRP,070603.50,180324,189.693,,15.839,1.330,,1.202,20,2,8.837,W*2A
$GNRMC,070604.00,A,3737.7559432,N,12704.7385490,E,0.1,,180324,8.8,W,D*15
$PSSN,HRP,070604.00,180324,189.191,,1.742,1.307,,1.357,20,2,8.837,W*1E
$GNRMC,070604.50,A,3737.7559400,N,12704.7385469,E,0.0,,180324,8.8,W,D*16
$PSSN,HRP,070604.50,180324,189.346,,0.230,1.300,,1.386,20,2,8.837,W*19
$GNRMC,070605.00,A,3737.7559521,N,12704.7385526,E,0.3,,180324,8.8,W,D*19
$PSSN,HRP,070605.00,180324,189.817,,12.611,1.336,,1.281,20,2,8.837,W*25
$GNRMC,070605.50,A,3737.7559506,N,12704.7385395,E,0.3,,180324,8.8,W,D*17
$PSSN,HRP,070605.50,180324,189.682,,11.243,1.300,,1.262,21,2,8.837,W*2B
$GNRMC,070606.00,A,3737.7559332,N,12704.7385378,E,0.0,,180324,8.8,W,D*10
$PSSN,HRP,070606.00,180324,189.556,,-0.321,1.217,,1.291,21,2,8.837,W*34
$GNRMC,070606.50,A,3737.7559345,N,12704.7385489,E,0.0,,180324,8.8,W,D*1C
$PSSN,HRP,070606.50,180324,189.973,,0.418,1.224,,1.297,21,2,8.837,W*1C
$GNRMC,070607.00,A,3737.7559622,N,12704.7385350,E,0.1,,180324,8.8,W,D*1E
$PSSN,HRP,070607.00,180324,190.570,,18.187,1.292,,1.149,21,2,8.837,W*28
$GNRMC,070607.50,A,3737.7559372,N,12704.7385418,E,0.2,,180324,8.8,W,D*13
$PSSN,HRP,070607.50,180324,189.326,,4.321,1.259,,1.285,22,2,8.837,W*14
$GNRMC,070608.00,A,3737.7559301,N,12704.7385426,E,0.1,,180324,8.8,W,D*13
$PSSN,HRP,070608.00,180324,188.572,,-0.972,1.206,,1.238,22,2,8.837,W*31
$GNRMC,070608.50,A,3737.7559455,N,12704.7385415,E,0.3,,180324,8.8,W,D*12
$PSSN,HRP,070608.50,180324,189.344,,8.371,1.245,,1.207,22,2,8.837,W*11
$GNRMC,070609.00,A,3737.7559606,N,12704.7385429,E,0.2,,180324,8.8,W,D*1C
$PSSN,HRP,070609.00,180324,190.063,,17.929,1.284,,1.129,22,2,8.837,W*20
$GNRMC,070609.50,A,3737.7559330,N,12704.7385462,E,0.2,,180324,8.8,W,D*16
$PSSN,HRP,070609.50,180324,188.929,,1.453,1.252,,1.298,22,2,8.837,W*1E
$GNRMC,070610.00,A,3737.7559311,N,12704.7385395,E,0.1,,180324,8.8,W,D*14
$PSSN,HRP,070610.00,180324,188.117,,-1.780,1.215,,1.251,21,2,8.837,W*33
$GNRMC,070610.50,A,3737.7559458,N,12704.7385536,E,0.3,,180324,8.8,W,D*16
$PSSN,HRP,070610.50,180324,188.858,,9.138,1.289,,1.240,21,2,8.837,W*11
$GNRMC,070611.00,A,3737.7559581,N,12704.7385556,E,0.1,,180324,8.8,W,D*13
$PSSN,HRP,070611.00,180324,189.711,,14.575,1.292,,1.216,21,2,8.837,W*2E
$GNRMC,070611.50,A,3737.7559376,N,12704.7385581,E,0.0,,180324,8.8,W,D*13
$PSSN,HRP,070611.50,180324,189.752,,0.192,1.267,,1.361,21,2,8.837,W*1F
$GNRMC,070612.00,A,3737.7559349,N,12704.7385594,E,0.1,,180324,8.8,W,D*1C
$PSSN,HRP,070612.00,180324,188.960,,-0.757,1.201,,1.239,21,2,8.837,W*39
$GNRMC,070612.50,A,3737.7559583,N,12704.7385416,E,0.2,,180324,8.8,W,D*11
$PSSN,HRP,070612.50,180324,189.664,,13.154,1.264,,1.178,21,2,8.837,W*29
$GNRMC,070613.00,A,3737.7559577,N,12704.7385386,E,0.2,,180324,8.8,W,D*10
$PSSN,HRP,070613.00,180324,190.165,,13.246,1.276,,1.216,21,2,8.837,W*2B
$GNRMC,070613.50,A,3737.7559353,N,12704.7385447,E,0.1,,180324,8.8,W,D*1C
$PSSN,HRP,070613.50,180324,189.611,,0.450,1.263,,1.358,21,2,8.837,W*1E
$GNRMC,070614.00,A,3737.7559340,N,12704.7385443,E,0.0,,180324,8.8,W,D*19
$PSSN,HRP,070614.00,180324,188.955,,-0.409,1.222,,1.284,21,2,8.837,W*36
$GNRMC,070614.50,A,3737.7559606,N,12704.7385335,E,0.2,,180324,8.8,W,D*1F
$PSSN,HRP,070614.50,180324,189.148,,14.578,1.296,,1.196,21,2,8.837,W*26
$GNRMC,070615.00,A,3737.7559539,N,12704.7385327,E,0.3,,180324,8.8,W,D*16
$PSSN,HRP,070615.00,180324,189.649,,11.416,1.280,,1.240,21,2,8.837,W*27
$GNRMC,070615.50,A,3737.7559378,N,12704.7385371,E,0.1,,180324,8.8,W,D*11
$PSSN,HRP,070615.50,180324,189.741,,0.663,1.238,,1.312,22,2,8.837,W*1D
$GNRMC,070616.00,A,3737.7559357,N,12704.7385362,E,0.0,,180324,8.8,W,D*19
$PSSN,HRP,070616.00,180324,189.425,,0.151,1.179,,1.216,21,2,8.837,W*1C
$GNRMC,070616.50,A,3737.7559584,N,12704.7385460,E,0.2,,180324,8.8,W,D*13
$PSSN,HRP,070616.50,180324,189.586,,15.300,1.256,,1.127,21,2,8.837,W*2C
$GNRMC,070617.00,A,3737.7559437,N,12704.7385449,E,0.2,,180324,8.8,W,D*15
$PSSN,HRP,070617.00,180324,189.524,,6.849,1.256,,1.274,21,2,8.837,W*11
$GNRMC,070617.50,A,3737.7559347,N,12704.7385462,E,0.0,,180324,8.8,W,D*1B
$PSSN,HRP,070617.50,180324,189.623,,0.434,1.246,,1.348,20,2,8.837,W*1E
$GNRMC,070618.00,A,3737.7559325,N,12704.7385516,E,0.0,,180324,8.8,W,D*17
$PSSN,HRP,070618.00,180324,189.870,,0.730,1.214,,1.299,20,2,8.837,W*11
$GNRMC,070618.50,A,3737.7559659,N,12704.7385438,E,0.2,,180324,8.8,W,D*13
$PSSN,HRP,070618.50,180324,190.870,,18.711,1.298,,1.159,21,2,8.837,W*2C
$GNRMC,070619.00,A,3737.7559455,N,12704.7385446,E,0.3,,180324,8.8,W,D*11
$PSSN,HRP,070619.00,180324,191.196,,9.067,1.265,,1.285,21,2,8.837,W*1E
$GNRMC,070619.50,A,3737.7559323,N,12704.7385520,E,0.0,,180324,8.8,W,D*10
$PSSN,HRP,070619.50,180324,190.351,,0.791,1.235,,1.338,22,2,8.837,W*15
$GNRMC,070620.00,A,3737.7559306,N,12704.7385512,E,0.0,,180324,8.8,W,D*19
$PSSN,HRP,070620.00,180324,189.956,,0.597,1.178,,1.218,21,2,8.837,W*11
$GNRMC,070620.50,A,3737.7559636,N,12704.7385400,E,0.2,,180324,8.8,W,D*1A
$PSSN,HRP,070620.50,180324,189.710,,16.594,1.256,,1.110,21,2,8.837,W*28
$GNRMC,070621.00,A,3737.7559466,N,12704.7385392,E,0.2,,180324,8.8,W,D*15
$PSSN,HRP,070621.00,180324,189.529,,7.098,1.263,,1.273,21,2,8.837,W*1D
$GNRMC,070621.50,A,3737.7559340,N,12704.7385480,E,0.1,,180324,8.8,W,D*14
$PSSN,HRP,070621.50,180324,189.697,,0.245,1.259,,1.346,21,2,8.837,W*15
$GNRMC,070622.00,A,3737.7559334,N,12704.7385459,E,0.0,,180324,8.8,W,D*14
$PSSN,HRP,070622.00,180324,189.591,,0.015,1.179,,1.218,21,2,8.837,W*1A
$GNRMC,070622.50,A,3737.7559624,N,12704.7385478,E,0.2,,180324,8.8,W,D*14
$PSSN,HRP,070622.50,180324,189.870,,17.403,1.275,,1.127,21,2,8.837,W*28
$GNRMC,070623.00,A,3737.7559420,N,12704.7385620,E,0.2,,180324,8.8,W,D*19
$PSSN,HRP,070623.00,180324,189.905,,6.442,1.265,,1.288,21,2,8.837,W*1D
$GNRMC,070623.50,A,3737.7559339,N,12704.7385479,E,0.1,,180324,8.8,W,D*1E
$PSSN,HRP,070623.50,180324,190.222,,0.365,1.267,,1.356,22,2,8.837,W*19
$GNRMC,070624.00,A,3737.7559340,N,12704.7385487,E,0.0,,180324,8.8,W,D*12
$PSSN,HRP,070624.00,180324,190.173,,0.068,1.178,,1.220,21,2,8.837,W*1C
$GNRMC,070624.50,A,3737.7559570,N,12704.7385613,E,0.2,,180324,8.8,W,D*1F
$PSSN,HRP,070624.50,180324,190.138,,16.161,1.266,,1.137,21,2,8.837,W*20
$GNRMC,070625.00,A,3737.7559448,N,12704.7385544,E,0.3,,180324,8.8,W,D*11
$PSSN,HRP,070625.00,180324,190.478,,9.688,1.272,,1.255,21,2,8.837,W*19
$GNRMC,070625.50,A,3737.7559318,N,12704.7385551,E,0.1,,180324,8.8,W,D*10
$PSSN,HRP,070625.50,180324,189.876,,0.565,1.257,,1.342,22,2,8.837,W*1C
$GNRMC,070626.00,A,3737.7559328,N,12704.7385571,E,0.1,,180324,8.8,W,D*17
$PSSN,HRP,070626.00,180324,189.338,,0.372,1.185,,1.217,22,2,8.837,W*16
$GNRMC,070626.50,A,3737.7559531,N,12704.7385578,E,0.3,,180324,8.8,W,D*17
$PSSN,HRP,070626.50,180324,190.147,,13.964,1.255,,1.144,22,2,8.837,W*25
$GNRMC,070627.00,A,3737.7559514,N,12704.7385656,E,0.3,,180324,8.8,W,D*1B
$PSSN,HRP,070627.00,180324,190.031,,13.807,1.266,,1.179,22,2,8.837,W*2B
$GNRMC,070627.50,A,3737.7559342,N,12704.7385511,E,0.1,,180324,8.8,W,D*19
$PSSN,HRP,070627.50,180324,189.271,,0.731,1.224,,1.287,22,2,8.837,W*1C
$GNRMC,070628.00,A,3737.7559311,N,12704.7385465,E,0.0,,180324,8.8,W,D*16
$PSSN,HRP,070628.00,180324,188.284,,-0.817,1.193,,1.229,22,2,8.837,W*30
$GNRMC,070628.50,A,3737.7559527,N,12704.7385635,E,0.3,,180324,8.8,W,D*14
$PSSN,HRP,070628.50,180324,189.413,,13.053,1.273,,1.169,22,2,8.837,W*21
$GNRMC,070629.00,A,3737.7559460,N,12704.7385652,E,0.3,,180324,8.8,W,D*13
$PSSN,HRP,070629.00,180324,189.852,,10.897,1.259,,1.210,22,2,8.837,W*2A
$GNRMC,070629.50,A,3737.7559319,N,12704.7385468,E,0.0,,180324,8.8,W,D*17
$PSSN,HRP,070629.50,180324,190.056,,0.462,1.212,,1.279,22,2,8.837,W*1C
$GNRMC,070630.00,A,3737.7559309,N,12704.7385387,E,0.0,,180324,8.8,W,D*1D
$PSSN,HRP,070630.00,180324,189.843,,0.224,1.171,,1.211,22,2,8.837,W*19
$GNRMC,070630.50,A,3737.7559510,N,12704.7385557,E,0.3,,180324,8.8,W,D*1E
$PSSN,HRP,070630.50,180324,189.893,,14.968,1.248,,1.123,22,2,8.837,W*2C
$GNRMC,070631.00,A,3737.7559406,N,12704.7385546,E,0.3,,180324,8.8,W,D*1C
$PSSN,HRP,070631.00,180324,189.881,,9.415,1.255,,1.238,22,2,8.837,W*15
